{"type":"FeatureCollection","name":"anchor","features":[{"id":"1806c324-4d55-45dd-87bf-fb36bf23bc71","type":"Feature","feature_type":"anchor","geometry":{"type":"Point","coordinates":[30.374986286605569,60.007466261083742]},"properties":{"unit_id":"2a0bab23-1391-42b4-9a0e-a3283819733b","address_id":"4555675a-9405-40ff-8f74-b1ef7219ce79"}},{"id":"0d9ee76a-0e2c-4e8b-8129-0bae27ef42ba","type":"Feature","feature_type":"anchor","geometry":{"type":"Point","coordinates":[30.371580420026802,60.0080488108546]},"properties":{"unit_id":"c085b908-ad59-462a-938f-f4b7a2b2bc25","address_id":"bfe1ca65-3260-4b0f-9fd5-540ab042569a"}},{"id":"c2e6ef62-98b5-45e6-98aa-9e63c21fe2e0","type":"Feature","feature_type":"anchor","geometry":{"type":"Point","coordinates":[30.371452762950394,60.00807064564048]},"properties":{"unit_id":"187d7c56-0237-4072-b556-a3b857f6e776","address_id":"6b05de97-ab9f-4752-b0d8-8f08e62c5b18"}},{"id":"3071abb7-4f8d-44ee-bbb5-ee1376052050","type":"Feature","feature_type":"anchor","geometry":{"type":"Point","coordinates":[30.371708077293427,60.008026976068727]},"properties":{"unit_id":"c5f727a7-1c7a-495b-8897-6a1cf2bc6f3f","address_id":"1a73642c-ee31-448d-adb8-7935c51a8a12"}},{"id":"d06d6bb3-7bfb-4236-8e48-30b276940411","type":"Feature","feature_type":"anchor","geometry":{"type":"Point","coordinates":[30.371554216126263,60.008010520525708]},"properties":{"unit_id":"7062a266-f977-427a-845e-b0b30a2b9c88","address_id":"03405e1b-b38f-4dde-8de7-1c88e195c30f"}},{"id":"30757b1c-2b9b-4ecf-9e5e-b162d27d74eb","type":"Feature","feature_type":"anchor","geometry":{"type":"Point","coordinates":[30.371632827095404,60.0081253915124]},"properties":{"unit_id":"636ca3dc-6a88-425a-9ab8-66b8f2547f45","address_id":"c33dbeca-0321-4986-b42c-59a656460503"}},{"id":"f02d8e15-7165-4d1f-b95e-79e40f690ed8","type":"Feature","feature_type":"anchor","geometry":{"type":"Point","coordinates":[30.375112239716913,60.007444718313906]},"properties":{"unit_id":"eb31462e-9a9f-41bc-8cfe-2722ef119ca8","address_id":"168d4d6b-48b9-4962-910b-2b4b071319cd"}},{"id":"a5c2c595-a3a2-4ab2-802e-d37ca545ac2e","type":"Feature","feature_type":"anchor","geometry":{"type":"Point","coordinates":[30.374856929628628,60.00748838706231]},"properties":{"unit_id":"32c0e47d-9d5d-44b5-babf-8c7448218b74","address_id":"c9d06f85-cea7-4605-82b4-6ea4c00feb69"}},{"id":"e991e7b2-f19c-430e-b349-d57691b46548","type":"Feature","feature_type":"anchor","geometry":{"type":"Point","coordinates":[30.37495837936607,60.007428262221978]},"properties":{"unit_id":"6810b9fd-b308-4861-8e0b-1399086eb449","address_id":"5aa93a54-be25-4900-a504-cd0a3418a0d6"}},{"id":"2da17ddc-2b8d-4fbf-aafb-b4dd9d9d595d","type":"Feature","feature_type":"anchor","geometry":{"type":"Point","coordinates":[30.375036995829564,60.007543133757579]},"properties":{"unit_id":"92ec3cc3-6654-43ec-a025-9e49dc8a838d","address_id":"6da298d0-7180-48c3-a132-52cb76c89d19"}},{"id":"b24a0100-38b9-4d2d-94f0-ad07ebbd4248","type":"Feature","feature_type":"anchor","geometry":{"type":"Point","coordinates":[30.371087168926447,60.007325259052607]},"properties":{"unit_id":"1c1f7025-3d6e-4d6f-ae18-fcfd0b376a1b","address_id":"a3570a38-8ab8-4077-9e8f-9741716402b6"}},{"id":"c15b2fe8-488f-4a6f-bc18-9645d4582026","type":"Feature","feature_type":"anchor","geometry":{"type":"Point","coordinates":[30.371213123073577,60.007303715184968]},"properties":{"unit_id":"0ddb015a-2513-4d84-a73a-869db125dd2d","address_id":"d3c8aea8-2b17-41f6-bcbd-5fd51d666812"}},{"id":"8f511ff6-45fd-4ca8-ab9e-df47255583f8","type":"Feature","feature_type":"anchor","geometry":{"type":"Point","coordinates":[30.374489598467587,60.006743291667121]},"properties":{"unit_id":"e7a74e2a-02da-4190-9cd7-b46138454caa","address_id":"60fdc02f-30db-4b77-9fc4-d1577378256f"}},{"id":"85f67cf0-35da-4e90-a7f0-5b1171a517b3","type":"Feature","feature_type":"anchor","geometry":{"type":"Point","coordinates":[30.374361944322082,60.00676512617855]},"properties":{"unit_id":"deeff1f5-1037-4e7e-81c7-1fac047fa8d2","address_id":"bc29c249-bd14-43cf-a351-adb0788d86c2"}},{"id":"d7b9ff1a-f76a-4b54-954e-71104f1fe9d7","type":"Feature","feature_type":"anchor","geometry":{"type":"Point","coordinates":[30.372063789065667,60.007560460134151]},"properties":{"unit_id":"c028df17-3e79-418b-bd2d-d9f9a8d86ebc","address_id":"70b5f196-521c-469e-a267-33a1a74f3e7c"}},{"id":"b4ef2f24-ef1b-46c6-a394-e89483c87329","type":"Feature","feature_type":"anchor","geometry":{"type":"Point","coordinates":[30.374006776888489,60.007232407008523]},"properties":{"unit_id":"e514034e-b8e5-4211-9a1f-4c6a90a1b67b","address_id":"0fb8328d-fbce-4dca-81c8-1af47fb42576"}},{"id":"79d39c68-e525-4094-b48d-a16023fa7684","type":"Feature","feature_type":"anchor","geometry":{"type":"Point","coordinates":[30.374515803428096,60.006781581996023]},"properties":{"unit_id":"cca9921d-7d65-41ed-8274-ae9af29f5764","address_id":"04bdc9a9-f6c1-4cac-ac7f-32e0119c4762"}},{"id":"f923b6e4-3e92-4434-bef0-89f9c91c4635","type":"Feature","feature_type":"anchor","geometry":{"type":"Point","coordinates":[30.374617252254328,60.006721456881245]},"properties":{"unit_id":"43a50043-c5ec-44d3-b6ae-35b46670add6","address_id":"01063182-43a2-4a44-9ed0-7d3694cf6e43"}},{"id":"03ee1393-308f-419e-9e4c-82b35095c427","type":"Feature","feature_type":"anchor","geometry":{"type":"Point","coordinates":[30.374428453860705,60.006653947657838]},"properties":{"unit_id":"0b31b23a-4da1-4537-8b71-3629de559a3a","address_id":"10cba3d4-eafa-4d2a-9e36-997c62d52bf3"}},{"id":"5c68dc52-1589-45cb-930a-805c0db56adb","type":"Feature","feature_type":"anchor","geometry":{"type":"Point","coordinates":[30.371111670397251,60.0073638405742]},"properties":{"unit_id":"ca5b30e3-62b0-4580-84fb-50114e7f549e","address_id":"cbc698fc-5623-448b-a1af-1b214f0cd81d"}},{"id":"0bf7adc8-ca4e-4a1a-8aad-bd07db4f9688","type":"Feature","feature_type":"anchor","geometry":{"type":"Point","coordinates":[30.370957811195474,60.007347385031174]},"properties":{"unit_id":"621eaefb-ca36-436c-ae77-ae43d198fdf9","address_id":"abdac20d-f6de-4589-a3ee-20a1bac842cd"}},{"id":"a468a76d-fca7-42e7-b474-9bfa35769531","type":"Feature","feature_type":"anchor","geometry":{"type":"Point","coordinates":[30.3710243258061,60.007236205961561]},"properties":{"unit_id":"b5628e10-7eb5-43a3-97b8-854514fbc427","address_id":"84671934-c23c-4fff-9463-c909f1cff14d"}},{"id":"13ade803-89da-4172-b169-e63c91f11912","type":"Feature","feature_type":"anchor","geometry":{"type":"Point","coordinates":[30.372102688881093,60.007617303087436]},"properties":{"unit_id":"1571da56-ec6a-4ceb-8a00-bb777c65bae0","address_id":"eb9f5e24-1621-4517-8c2f-56f031d27cc8"}},{"id":"71b7c9ce-908f-47af-931a-e94ddd65c507","type":"Feature","feature_type":"anchor","geometry":{"type":"Point","coordinates":[30.3721289379572,60.007655658735715]},"properties":{"unit_id":"48fbacfe-3a5c-4c07-909b-0b1af4e3629b","address_id":"c48c2e7b-a681-47d0-8282-d12c680b8107"}},{"id":"a19c65b7-ebab-4378-b9f0-8019dfddfd2c","type":"Feature","feature_type":"anchor","geometry":{"type":"Point","coordinates":[30.37233358750731,60.007468502526415]},"properties":{"unit_id":"b320d721-6577-4a94-a26a-141fac649407","address_id":"6b9cee96-837e-48c6-876f-69255ef07fea"}},{"id":"6347eac7-0584-4281-957c-56621ec66aa7","type":"Feature","feature_type":"anchor","geometry":{"type":"Point","coordinates":[30.371746369510493,60.007568941772995]},"properties":{"unit_id":"8459edb2-a4c9-4a5c-b510-abade519efeb","address_id":"50c22ba2-2609-471d-92f5-1f805234d1fb"}},{"id":"97bfd058-d4bd-4d7b-bfd5-871ed419ac12","type":"Feature","feature_type":"anchor","geometry":{"type":"Point","coordinates":[30.374081693878786,60.007341875149564]},"properties":{"unit_id":"a0743200-bc2e-420d-97c0-ec18880886a0","address_id":"3d0a68ff-ecf6-4bba-8d4c-40d2d6963f6e"}},{"id":"43705c60-d711-451f-9647-181abb12fd24","type":"Feature","feature_type":"anchor","geometry":{"type":"Point","coordinates":[30.374273948309,60.007136615318]},"properties":{"unit_id":"e3ed7dd8-cd88-4c8a-9d31-11a7e29c115c","address_id":"83e7ee23-ce02-4ba5-850d-e9d8d07b7596"}},{"id":"ee4e40c7-5471-407d-8f22-599dcaedd64d","type":"Feature","feature_type":"anchor","geometry":{"type":"Point","coordinates":[30.37368673620492,60.007237054839024]},"properties":{"unit_id":"3ae62fe6-f84c-4bf7-93fe-c85b72de1915","address_id":"1f3317a2-e7ec-423b-9c4c-f5e2e3c2b53e"}},{"id":"87be5720-b662-4e90-81df-a20a695b8d81","type":"Feature","feature_type":"anchor","geometry":{"type":"Point","coordinates":[30.372195069950575,60.007746738648621]},"properties":{"unit_id":"4d3319ce-ccf8-4df3-bbcf-09d28fc2cd1d","address_id":"3574bb4b-ce61-411c-9c11-0c0817a2bdb8"}},{"id":"e8d45d15-b5a7-4052-877a-bcc1d4db0d75","type":"Feature","feature_type":"anchor","geometry":{"type":"Point","coordinates":[30.374132345477211,60.007415886395542]},"properties":{"unit_id":"fb2b107e-5751-44d8-8928-c3b0d0cccce0","address_id":"9574b4e7-e993-4703-a56e-394829c21715"}},{"id":"5afea30b-0a58-49c4-9164-3b27160e401c","type":"Feature","feature_type":"anchor","geometry":{"type":"Point","coordinates":[30.372295410887034,60.007888497890519]},"properties":{"unit_id":"26813624-b7be-470e-ab6b-45ca766d6ea5","address_id":"1ac1f163-4c9f-4898-8f51-8f31bfaa1b06"}},{"id":"d1f561d5-1004-4a5f-bd62-7fc3e731af69","type":"Feature","feature_type":"anchor","geometry":{"type":"Point","coordinates":[30.372212434096589,60.007902690309223]},"properties":{"unit_id":"76f096a5-3d10-4078-9219-93336887268c","address_id":"d6d9a96b-6cb5-4758-860d-0f5729c2fce9"}},{"id":"4b3864dc-fcbf-45a4-bb9e-244c01cb1ead","type":"Feature","feature_type":"anchor","geometry":{"type":"Point","coordinates":[30.372380515560188,60.007873941549569]},"properties":{"unit_id":"dc0f6943-e9f9-4082-880f-c4d283cbd611","address_id":"01821220-cd8b-4842-8116-703ebae6bcb9"}},{"id":"ac42df43-2b86-47ad-9008-328bbd416f7e","type":"Feature","feature_type":"anchor","geometry":{"type":"Point","coordinates":[30.375026354890512,60.007499804230818]},"properties":{"unit_id":"11ef9cf3-60f6-4d77-9849-c91b7482dfd0","address_id":"7aa48ab1-cde6-494d-aa0d-f3a3acaea495"}},{"id":"b1baedde-42e9-4361-8e1b-4dcb13871f5f","type":"Feature","feature_type":"anchor","geometry":{"type":"Point","coordinates":[30.374814377817252,60.007495665232781]},"properties":{"unit_id":"8021c933-7107-4138-8ec6-e8322aaed0c7","address_id":"38477707-2279-4f0a-aef7-72eaf91a6afc"}},{"id":"693b996c-83a8-4a5b-a545-6150e3ff0370","type":"Feature","feature_type":"anchor","geometry":{"type":"Point","coordinates":[30.374954134773226,60.007609583873936]},"properties":{"unit_id":"88e7441f-7dbe-4826-a3cf-d1842c0d4b8b","address_id":"4537d697-8020-43ce-bd77-71229cd49b95"}},{"id":"cf70abf2-902c-4657-95a8-f0f2130151d8","type":"Feature","feature_type":"anchor","geometry":{"type":"Point","coordinates":[30.375123554777829,60.007530703589815]},"properties":{"unit_id":"416cf131-8af6-4533-83c1-d567efa3fb40","address_id":"9141e3d3-7043-4e4f-9b38-549383e38f7d"}},{"id":"c6c00afe-523d-40a3-907f-966f9a5f9cdf","type":"Feature","feature_type":"anchor","geometry":{"type":"Point","coordinates":[30.374913370639952,60.007550021109594]},"properties":{"unit_id":"cb9c18aa-7273-4b3b-9b2a-c15e24fba75c","address_id":"d5d69a43-8b32-4550-91f3-1669b459e75b"}},{"id":"4de974a3-9af6-4e58-b8e2-bf823ef1827a","type":"Feature","feature_type":"anchor","geometry":{"type":"Point","coordinates":[30.374786696008773,60.007094060841325]},"properties":{"unit_id":"3b74d189-1e77-4880-8b02-a607ed45404c","address_id":"01fcffcb-4c34-46f5-90be-b2a3a4c0ed9e"}},{"id":"20275d61-857b-4bed-b54c-dd10c91999be","type":"Feature","feature_type":"anchor","geometry":{"type":"Point","coordinates":[30.374562497447105,60.00676646632359]},"properties":{"unit_id":"9fed8eed-adb1-4fa8-8d3b-497e29fa76e0","address_id":"45bd2563-9038-4ee4-b2ac-3e803bdf134c"}},{"id":"da530e98-3721-498c-9410-9aa5f4d2c8dd","type":"Feature","feature_type":"anchor","geometry":{"type":"Point","coordinates":[30.3745828789679,60.006796247842985]},"properties":{"unit_id":"bc72befd-2a6f-46ac-afba-5f24611d5b27","address_id":"2346df7c-177c-454b-8afd-36bc17e0949c"}},{"id":"43b8667e-5b64-4413-b651-4ac6876faee5","type":"Feature","feature_type":"anchor","geometry":{"type":"Point","coordinates":[30.374603260781548,60.006826028813478]},"properties":{"unit_id":"48de6f36-723b-4bd6-bddd-3062de682017","address_id":"2155d648-1eae-47b3-95c4-d17a457aa07f"}},{"id":"c239dd76-5861-43c4-a7df-41d6010ec515","type":"Feature","feature_type":"anchor","geometry":{"type":"Point","coordinates":[30.374623642339053,60.006855810058426]},"properties":{"unit_id":"5cc3ad12-e697-4386-9d26-1c143000dfb7","address_id":"acfcc50c-2cce-4a88-953e-06da42aa557b"}},{"id":"d71d0210-6b0d-4881-841a-fe365698e447","type":"Feature","feature_type":"anchor","geometry":{"type":"Point","coordinates":[30.374644023914907,60.00688559157782]},"properties":{"unit_id":"0303989c-8456-450d-942a-a9fa0b07b92e","address_id":"8ac1c3d4-e630-49c4-9c85-cb0d946e3155"}},{"id":"132d668b-07c9-43b1-9b13-d511bb6de62d","type":"Feature","feature_type":"anchor","geometry":{"type":"Point","coordinates":[30.374680419896418,60.006938772529189]},"properties":{"unit_id":"6bae634e-0db2-430f-957a-052ef2da72f7","address_id":"b172795d-c021-4c04-81df-fff75a3a4a61"}},{"id":"f005ce8d-e780-444b-ae66-eeceedf3c5a0","type":"Feature","feature_type":"anchor","geometry":{"type":"Point","coordinates":[30.374740836891039,60.00702705276575]},"properties":{"unit_id":"984778fb-8fd8-4ffe-90bf-6d5be3f44e8d","address_id":"66f388c4-792d-4970-bdbd-ccfe0229eb3a"}},{"id":"0140e009-0772-432e-bd0b-f8cf7e9f71dc","type":"Feature","feature_type":"anchor","geometry":{"type":"Point","coordinates":[30.374844201919839,60.007178086810363]},"properties":{"unit_id":"8fdeeb41-1fb5-4825-a3db-4b09d8a43d84","address_id":"83718016-adea-4941-9de8-56f6b4e68328"}},{"id":"237318db-cb16-4c85-8900-1e187119fbfd","type":"Feature","feature_type":"anchor","geometry":{"type":"Point","coordinates":[30.374875502739979,60.0072238224505]},"properties":{"unit_id":"e24c71d0-8c8d-42b3-bf4e-0975093d9508","address_id":"401269d5-19fe-432d-9fbd-0385f7a124dd"}},{"id":"2c5e3f57-819e-4d1a-8fad-f767b6d094c1","type":"Feature","feature_type":"anchor","geometry":{"type":"Point","coordinates":[30.37489588440538,60.007253603695439]},"properties":{"unit_id":"cd074267-7736-4e73-b339-5c17fd01118a","address_id":"cfcf823b-848e-497d-8c6a-92418d788be5"}},{"id":"f92a5f30-b412-40aa-9c37-8fc675a71807","type":"Feature","feature_type":"anchor","geometry":{"type":"Point","coordinates":[30.374916266363631,60.007283384940379]},"properties":{"unit_id":"e001421f-3343-4407-a95d-f50ea6d43891","address_id":"3676f30f-9ca5-4754-8a51-690e979aed30"}},{"id":"e321982d-ccb7-4d93-82e9-d2bc32b6aa24","type":"Feature","feature_type":"anchor","geometry":{"type":"Point","coordinates":[30.374989058986202,60.007389747392025]},"properties":{"unit_id":"b395a5db-c950-4d04-9037-21a5336b574d","address_id":"bb5c57a4-665e-4676-87fd-87427a8fb51e"}},{"id":"2cd854fb-a74f-4522-8ead-40d6fef21e4c","type":"Feature","feature_type":"anchor","geometry":{"type":"Point","coordinates":[30.374936648340228,60.007313166734228]},"properties":{"unit_id":"5128266a-f0c4-44df-a99f-1421c952cf99","address_id":"9e94586c-76b7-4cde-9cfc-be773cf94d41"}},{"id":"b815d329-38bf-4804-94ce-1567b3bb0293","type":"Feature","feature_type":"anchor","geometry":{"type":"Point","coordinates":[30.374957030060692,60.007342947979176]},"properties":{"unit_id":"3c6f211b-edea-45e1-a99e-f0bca4105adf","address_id":"7bdc822d-176d-441e-9a35-fc3b68306e4d"}},{"id":"5eebaea0-31b8-4842-ab4f-595e175aecf0","type":"Feature","feature_type":"anchor","geometry":{"type":"Point","coordinates":[30.375012353103084,60.007423782904496]},"properties":{"unit_id":"2af009ab-9350-4f94-8f67-e62df6ec220e","address_id":"71c339d2-2232-4adf-8373-c5a37fb8d04e"}},{"id":"87f3108c-77c5-491f-b88f-26e80354d436","type":"Feature","feature_type":"anchor","geometry":{"type":"Point","coordinates":[30.375112239716913,60.007444718313906]},"properties":{"unit_id":"f8769116-5341-4fd1-a9c6-a0a8ac15ab24","address_id":"2bd83ccf-24b3-4380-9470-718624b42b1b"}},{"id":"2bb703cc-fd42-4853-bedc-71684c7eb31f","type":"Feature","feature_type":"anchor","geometry":{"type":"Point","coordinates":[30.374640360071723,60.007463647759735]},"properties":{"unit_id":"ff009ce2-f3f7-4a6b-b5c1-1a1d2fad8ae3","address_id":"331a06b1-9b2d-44dd-9d5a-7a732308b0b6"}},{"id":"25b4b4c0-35ac-46ff-a981-60fc4d84a673","type":"Feature","feature_type":"anchor","geometry":{"type":"Point","coordinates":[30.374383508313727,60.00747728331703]},"properties":{"unit_id":"a1852558-e7af-4200-b494-30aac77f49c2","address_id":"62980424-f6fc-47ce-a1a0-068e55168f82"}},{"id":"224136de-5c16-4651-8e21-4440f6f2ff22","type":"Feature","feature_type":"anchor","geometry":{"type":"Point","coordinates":[30.374402070257187,60.007504405679072]},"properties":{"unit_id":"fdc4a789-0151-45b8-af3d-ab9f45e464b2","address_id":"b7e956a9-e689-4c5d-8cd8-45dcfd6d00ed"}},{"id":"f4c2ec03-1c85-4150-ae73-5df60dec0746","type":"Feature","feature_type":"anchor","geometry":{"type":"Point","coordinates":[30.374072853073823,60.007551211404305]},"properties":{"unit_id":"081b01b4-af21-4721-917b-85122f30022b","address_id":"cc7243ff-4741-47e1-b4e7-5ed0fe95a217"}},{"id":"e226b3c9-0214-4d92-9892-35adf813a0f3","type":"Feature","feature_type":"anchor","geometry":{"type":"Point","coordinates":[30.374220665789842,60.0075449388229]},"properties":{"unit_id":"ee9d117e-ecc5-43a5-958d-e0ba88d00ee2","address_id":"bfbb7210-cb9f-4b55-8b23-ad7122b74a84"}},{"id":"38c8652f-a304-4dee-ae82-068fca095d5e","type":"Feature","feature_type":"anchor","geometry":{"type":"Point","coordinates":[30.374133316058391,60.007417304484719]},"properties":{"unit_id":"9bb8d32e-6a3b-49d0-b321-78cb57951417","address_id":"7e08a109-0676-4ab9-a4c3-f7ad30439923"}},{"id":"e9c41792-1c22-4d58-b82e-a3dcf48a8364","type":"Feature","feature_type":"anchor","geometry":{"type":"Point","coordinates":[30.374319393196011,60.006772404349022]},"properties":{"unit_id":"f38d6a65-16b3-43a4-abb7-e8e4e4fe421f","address_id":"bc35bb67-01d2-4fa6-b88b-b09cec254ccc"}},{"id":"25e91694-eba0-46d3-9bc3-292805fad4eb","type":"Feature","feature_type":"anchor","geometry":{"type":"Point","coordinates":[30.374532149556202,60.006736013496649]},"properties":{"unit_id":"e0225cc4-1b6d-4ef2-a75d-6aceadbbdc42","address_id":"c3860409-f69c-419d-a70d-6feb3c351062"}},{"id":"2b6846c7-d842-4b67-999f-ea2977328e03","type":"Feature","feature_type":"anchor","geometry":{"type":"Point","coordinates":[30.374428453860705,60.006653947657838]},"properties":{"unit_id":"c75706f6-e9ac-4e9f-8d44-50ea5fb1e377","address_id":"9ecdb567-9efb-4984-9568-2f387f1246f9"}},{"id":"1a49b96b-432c-4468-bf90-1d120a33b4fe","type":"Feature","feature_type":"anchor","geometry":{"type":"Point","coordinates":[30.373277934825108,60.007431501294647]},"properties":{"unit_id":"2e234f8a-abd7-41c8-9f91-27c10ddee423","address_id":"678c4c13-b5cf-4d54-b9f2-ae32699dfdab"}},{"id":"7e24f172-b2d0-490e-9215-a8c7710e6a21","type":"Feature","feature_type":"anchor","geometry":{"type":"Point","coordinates":[30.372885789383169,60.007499141705708]},"properties":{"unit_id":"6bd309a1-83b1-43cc-b0d3-ca012233c079","address_id":"c5ba27a9-ebe5-487e-917a-fcf5c9360598"}},{"id":"3ddf7c0f-bba7-4b08-8c68-21552370f505","type":"Feature","feature_type":"anchor","geometry":{"type":"Point","coordinates":[30.3730872079955,60.007458413152648]},"properties":{"unit_id":"95411aa0-dc8a-4a7d-b490-4d23ab76906d","address_id":"a4f3c59f-81f6-43cc-b10c-e5aa3f0ed4f7"}},{"id":"3619eefa-9650-49b3-a22b-95d1d32bd984","type":"Feature","feature_type":"anchor","geometry":{"type":"Point","coordinates":[30.372624091738583,60.007304871996631]},"properties":{"unit_id":"259d2227-a470-4fc5-8f73-fc549f3006cd","address_id":"6d843a19-cc0b-40a3-af57-a2b39dbf4c22"}},{"id":"b9aa394d-735d-4638-ab17-cd16526897e0","type":"Feature","feature_type":"anchor","geometry":{"type":"Point","coordinates":[30.373265695204395,60.007233031384928]},"properties":{"unit_id":"3cbaac98-713c-4c08-a208-54bfdc3683b7","address_id":"84fbdc39-e6dc-4d78-962c-aef24420d390"}},{"id":"aa65abb0-9ac5-4bc7-b10d-06805bc67dda","type":"Feature","feature_type":"anchor","geometry":{"type":"Point","coordinates":[30.373265695204395,60.007233031384928]},"properties":{"unit_id":"3cbaac98-713c-4c08-a208-54bfdc3683b7","address_id":"16372cb4-c6fa-4e06-889b-2e8aad5d3c30"}},{"id":"06c92019-d4d0-402c-9e72-417555eafb5a","type":"Feature","feature_type":"anchor","geometry":{"type":"Point","coordinates":[30.374059509780754,60.007156660133369]},"properties":{"unit_id":"48788acc-1963-40d8-a8d3-3704d90e166b","address_id":"5a1d418d-ef93-4c82-97f4-300902167ede"}},{"id":"f2e7e71a-b5ff-402c-9a54-fbc2c75b9b52","type":"Feature","feature_type":"anchor","geometry":{"type":"Point","coordinates":[30.373872282348465,60.007188684193238]},"properties":{"unit_id":"5ca6abad-4b61-4828-90fa-f28d7c21ef5e","address_id":"d2ce5843-2eff-473b-8c67-1be941b6ff75"}},{"id":"514c3d35-0ca0-4ba0-b910-a3471e194cb6","type":"Feature","feature_type":"anchor","geometry":{"type":"Point","coordinates":[30.373920765950079,60.007106727860446]},"properties":{"unit_id":"18588987-8380-4312-85ef-7988e6bdf455","address_id":"22393a89-335f-43fe-9d8c-e38e63802e1d"}},{"id":"724d1c2d-d0a1-441b-8fa7-587c47e5f90b","type":"Feature","feature_type":"anchor","geometry":{"type":"Point","coordinates":[30.374327229454352,60.007084729227223]},"properties":{"unit_id":"4fa7defe-5c22-448b-87cd-604c93598437","address_id":"ed0cd530-fac2-4fab-818f-3b2ebbb0c5c4"}},{"id":"268a5429-565c-4084-b932-9dd3d0ae8ec9","type":"Feature","feature_type":"anchor","geometry":{"type":"Point","coordinates":[30.374263402310358,60.007095646620165]},"properties":{"unit_id":"27c66ac8-8d28-4f05-a543-5dfaf17a2cc5","address_id":"8c0998b7-51f4-4fae-8b62-e966bf0d193d"}},{"id":"2a855268-da56-42d3-975b-47697fafe891","type":"Feature","feature_type":"anchor","geometry":{"type":"Point","coordinates":[30.373411603853935,60.00724134231514]},"properties":{"unit_id":"46e12cb5-706f-467d-aceb-938c9ac69075","address_id":"c74b8660-2146-4373-8761-ea5580ce2848"}},{"id":"f395f712-55a9-4350-9880-00b609eb1f33","type":"Feature","feature_type":"anchor","geometry":{"type":"Point","coordinates":[30.373696700172886,60.007192578106384]},"properties":{"unit_id":"59474ae8-b048-4e24-9847-94f287054c7c","address_id":"b5636358-1405-424d-af06-b5755fef23d6"}},{"id":"81db7af6-c68e-49ff-8839-56b838381e87","type":"Feature","feature_type":"anchor","geometry":{"type":"Point","coordinates":[30.373940148442998,60.007343413448353]},"properties":{"unit_id":"917cd914-727d-43c8-9fd5-996dd13740ed","address_id":"54d5b160-536a-4739-911c-170156b17248"}},{"id":"ca106ec9-28a0-46f5-9872-225aef43606a","type":"Feature","feature_type":"anchor","geometry":{"type":"Point","coordinates":[30.372212011512215,60.0077744458661]},"properties":{"unit_id":"d1d39d0c-c818-4103-b184-368a9158fe9f","address_id":"4bfb2a6a-c735-479b-91a5-0beb71e2d6a4"}},{"id":"d7bc2e10-50ff-4e7b-b9e7-b605bcab21e3","type":"Feature","feature_type":"anchor","geometry":{"type":"Point","coordinates":[30.372119148001335,60.007488547341787]},"properties":{"unit_id":"2e6f4d9f-7c2c-4a9d-806e-66f920149c68","address_id":"6da5b132-7dbe-4e6a-bbe0-8977a9c774cb"}},{"id":"790aa661-4cb3-422d-a88e-f7bd5f7fc02d","type":"Feature","feature_type":"anchor","geometry":{"type":"Point","coordinates":[30.37193191841569,60.00752057167611]},"properties":{"unit_id":"c9f5718f-29fc-4a8f-b37a-d7657cff23ad","address_id":"cbc54d23-db72-48a5-9b41-429f71143a96"}},{"id":"6874155e-33ba-4238-828b-6ca13888482e","type":"Feature","feature_type":"anchor","geometry":{"type":"Point","coordinates":[30.372025533231181,60.007504559371725]},"properties":{"unit_id":"529a7990-9231-417f-9853-d85eb6556638","address_id":"70e2e9a8-5415-4c70-9357-53a55b337fcc"}},{"id":"bb5b118f-8d22-460f-88aa-ee3a8373a981","type":"Feature","feature_type":"anchor","geometry":{"type":"Point","coordinates":[30.371978463594154,60.00743577861607]},"properties":{"unit_id":"035ac84a-daa1-4b34-8359-19dc1ee5c92e","address_id":"45068a44-5641-4b4b-982c-ac1cea903b34"}},{"id":"a0138c04-05e6-4203-87a0-6d01afff3b80","type":"Feature","feature_type":"anchor","geometry":{"type":"Point","coordinates":[30.372226780712065,60.007592184493355]},"properties":{"unit_id":"3fee73d9-2f52-4b20-94ae-60833b72feeb","address_id":"ec08e397-6ae7-4791-a50e-e0cf7a0fa7ba"}},{"id":"8bf6f976-8fbc-44f4-a8e3-abf1e63502ba","type":"Feature","feature_type":"anchor","geometry":{"type":"Point","coordinates":[30.371110550170464,60.007653931888974]},"properties":{"unit_id":"df3842fc-f2e8-44b7-b686-54cc1760c2cd","address_id":"448fdbf9-4cba-4116-9ae4-9e8227c4e3f2"}},{"id":"1456d18b-b0ca-444c-8bbf-3f985ba01fbc","type":"Feature","feature_type":"anchor","geometry":{"type":"Point","coordinates":[30.371196438870772,60.007779438681716]},"properties":{"unit_id":"b705d6e6-21c0-4b81-a1c6-437658debb06","address_id":"559a1471-f260-4046-a698-1ffb791124dd"}},{"id":"6efebcb3-056d-42aa-90bc-7f9d105ef3bc","type":"Feature","feature_type":"anchor","geometry":{"type":"Point","coordinates":[30.371154222782891,60.007717749195294]},"properties":{"unit_id":"fc8f00d3-4cc7-48df-a07e-d6a95cdbaf5c","address_id":"de254f43-d882-4b4b-8a9a-bfd4e7580a70"}},{"id":"647ca32e-ea3b-41f4-b54d-b2e45ecb3645","type":"Feature","feature_type":"anchor","geometry":{"type":"Point","coordinates":[30.371317265097982,60.007775405896282]},"properties":{"unit_id":"975e01d2-1cf6-4d55-8027-fb874151f17b","address_id":"68aa73e7-1bab-4cdd-ae22-ac08a2940b73"}},{"id":"2e5722c8-f44e-4121-bc82-f96674ae6b79","type":"Feature","feature_type":"anchor","geometry":{"type":"Point","coordinates":[30.371385348675734,60.0077637603844]},"properties":{"unit_id":"7df07223-1907-427a-8197-e55eda344427","address_id":"4da01df8-a191-4cce-bdea-6edbeb6aa42b"}},{"id":"76072e24-1773-4b6e-b4f1-7ec3204e6fb8","type":"Feature","feature_type":"anchor","geometry":{"type":"Point","coordinates":[30.371267434025416,60.007591455002157]},"properties":{"unit_id":"37a0f38f-bef7-4521-92f6-bfad5c136b89","address_id":"695bd0e9-97af-4fd8-80c1-32afe1a8225c"}},{"id":"d076caaa-75f2-44b9-b312-c457cddbbf2a","type":"Feature","feature_type":"anchor","geometry":{"type":"Point","coordinates":[30.371199350055306,60.007603099965131]},"properties":{"unit_id":"635babfc-8989-486e-894b-067e60789a96","address_id":"b8dfde7d-4494-4962-a604-af9a43b9fc4f"}},{"id":"027170cc-631d-4b4b-b019-88ddd8e3dba1","type":"Feature","feature_type":"anchor","geometry":{"type":"Point","coordinates":[30.371295988855824,60.007688748489464]},"properties":{"unit_id":"970577b4-302d-451e-a8f9-9369484a966d","address_id":"afd8eb63-d3c3-4386-88d1-3c0196749d11"}},{"id":"d6f190a7-03bb-47d8-82a2-e682d2a361a1","type":"Feature","feature_type":"anchor","geometry":{"type":"Point","coordinates":[30.371508976754075,60.00802776374357]},"properties":{"unit_id":"344aeab6-dd5d-49d8-99ac-bbc14cd6905f","address_id":"4d8e5844-2944-4f3e-ab52-11fee90a97ec"}},{"id":"330ded3b-aab3-452d-ad58-4f98b7e98100","type":"Feature","feature_type":"anchor","geometry":{"type":"Point","coordinates":[30.371449899108374,60.007946359880982]},"properties":{"unit_id":"66d08b4b-67a0-4217-a3dd-d50d2d92bd84","address_id":"ad5db5ff-419b-4896-b3f5-930bfa45ed7a"}},{"id":"5f14ce56-ff6a-417b-b79b-50ef610dc929","type":"Feature","feature_type":"anchor","geometry":{"type":"Point","coordinates":[30.371407074493575,60.007878856969953]},"properties":{"unit_id":"2cfe179c-4fd2-496b-90cf-976d84840a2d","address_id":"02dd9f2c-beb3-4812-b341-26a1719db8d1"}},{"id":"97f4846c-2e7f-42d4-b65b-e3417ed7d40c","type":"Feature","feature_type":"anchor","geometry":{"type":"Point","coordinates":[30.371386693657364,60.007849075176111]},"properties":{"unit_id":"4cb7ee94-1df2-41bf-8562-ab2d69079da9","address_id":"54309dd4-6635-46e7-ad94-6fb7cf6010c0"}},{"id":"aeb70e16-42b9-4239-aab8-a1035a5b4a75","type":"Feature","feature_type":"anchor","geometry":{"type":"Point","coordinates":[30.37136631311397,60.007819293931163]},"properties":{"unit_id":"9522ca0b-b352-4270-ad9f-d3439029e5c3","address_id":"55ddcb25-3c04-4aa9-85ad-274ab9fcd9f5"}},{"id":"90fb3ea5-8aaf-46f4-b807-7552204cf594","type":"Feature","feature_type":"anchor","geometry":{"type":"Point","coordinates":[30.371766673865348,60.008099009070705]},"properties":{"unit_id":"5fe168a2-49e3-4b18-8cd7-005a00aceef2","address_id":"5e173f90-256a-4128-9cb0-72eb5e00e347"}},{"id":"65a11a05-9aa0-4445-a49b-f5fbc0f711a9","type":"Feature","feature_type":"anchor","geometry":{"type":"Point","coordinates":[30.371557530286253,60.008135728990027]},"properties":{"unit_id":"95b153bf-0234-48d2-92c8-434ba47fb928","address_id":"f0bd88b0-2cf0-47af-8a1b-a67680635be0"}},{"id":"f82357c0-9099-44ac-a85e-f58e669df91a","type":"Feature","feature_type":"anchor","geometry":{"type":"Point","coordinates":[30.371238654105603,60.007299348118011]},"properties":{"unit_id":"429c9e80-4951-4529-b07d-ae702134d97a","address_id":"f07d3d63-2222-40c0-b644-14d41716af40"}},{"id":"33bc5e7c-5b5d-483e-bc27-0b9e2d52f65d","type":"Feature","feature_type":"anchor","geometry":{"type":"Point","coordinates":[30.371032836328951,60.00723475027258]},"properties":{"unit_id":"ecfadaf1-4544-4cec-9d25-b8f65d4f0bc5","address_id":"9e9170ca-6fd2-4bc4-8f87-566b423365c6"}},{"id":"4fcad917-2a7e-4828-b1ce-cdfbbd355b99","type":"Feature","feature_type":"anchor","geometry":{"type":"Point","coordinates":[30.370957811195513,60.007347384482273]},"properties":{"unit_id":"535dcd2a-5a2e-4ddd-97cc-21c68669a8f5","address_id":"dd51b3e8-b1d2-4e4e-bff6-fbabe8fffa00"}},{"id":"ec2b1a11-fd15-465f-866b-434d43890f9c","type":"Feature","feature_type":"anchor","geometry":{"type":"Point","coordinates":[30.374054701588307,60.007302433498019]},"properties":{"unit_id":"2874c0a6-f5f4-4327-bd4e-55aec07c62d2","address_id":"93af82e7-b46f-4388-9fe2-c13810c41dca"}},{"id":"fa7589bd-b1f3-484f-b266-d8ada59a06fa","type":"Feature","feature_type":"anchor","geometry":{"type":"Point","coordinates":[30.372102689155589,60.007617303087436]},"properties":{"unit_id":"a274c2d7-f6a5-46d7-a367-647472aea9e6","address_id":"39b6943c-f69a-4597-9ca0-683d12f63ae2"}},{"id":"9fc44ab7-02d8-48c2-94dd-8723077e06ec","type":"Feature","feature_type":"anchor","geometry":{"type":"Point","coordinates":[30.374223785679376,60.007471486359492]},"properties":{"unit_id":"1c42dace-576c-4d53-94b5-81b26f46b215","address_id":"ce1eff1a-8a65-4959-98dd-c418c6f8e2e6"}},{"id":"6fb52325-8570-428d-a70f-70e29a87a072","type":"Feature","feature_type":"anchor","geometry":{"type":"Point","coordinates":[30.374145166907219,60.007484933368829]},"properties":{"unit_id":"4aaa5626-d8c6-435f-a05d-012ec83aab40","address_id":"e5e14923-8920-479f-b8bc-bcbf917e91e5"}},{"id":"8c984501-398e-4213-890f-6d0c276e550a","type":"Feature","feature_type":"anchor","geometry":{"type":"Point","coordinates":[30.374193266034144,60.007491011364358]},"properties":{"unit_id":"f80d12b3-8c21-49be-bfe0-6972c4d11f61","address_id":"859c0cf1-0be9-410b-ab7f-80b4ed9de0f1"}},{"id":"64c17973-6588-4371-ae9f-1d1eaa09f751","type":"Feature","feature_type":"anchor","geometry":{"type":"Point","coordinates":[30.373054507368522,60.007368956069485]},"properties":{"unit_id":"b20863fe-e3c3-409a-bdd2-545d26b036c8","address_id":"f33a0ff1-bdee-4a69-b0e8-1148518527bb"}},{"id":"b2a997f9-99f7-41f2-aa0e-5a32ce3acca1","type":"Feature","feature_type":"anchor","geometry":{"type":"Point","coordinates":[30.371188712169477,60.007559770987278]},"properties":{"unit_id":"0493f2a3-16a3-4a17-b9af-bc6a90e9dd0b","address_id":"00521837-1001-4939-a1f9-8914f0661d6f"}},{"id":"5758c86b-3370-4ecc-88f8-b0898409eda3","type":"Feature","feature_type":"anchor","geometry":{"type":"Point","coordinates":[30.37116687602548,60.007527862471342]},"properties":{"unit_id":"ffa8465f-f3d6-496b-852a-2ffc0d85beb5","address_id":"66db1114-8dfa-4e18-89fb-880dd1441892"}},{"id":"e8bf2c08-776e-4aaa-861c-13f1e2664f2f","type":"Feature","feature_type":"anchor","geometry":{"type":"Point","coordinates":[30.371145040177048,60.007495953955413]},"properties":{"unit_id":"7294b641-e0b6-494e-8372-55dd40862628","address_id":"85aef62a-de1e-4e4d-8c9b-212be5fc8606"}},{"id":"c13456fe-75e5-4495-808a-891bed33b16b","type":"Feature","feature_type":"anchor","geometry":{"type":"Point","coordinates":[30.371123203800714,60.00746404516503]},"properties":{"unit_id":"3aa9b06b-a34f-4c48-8b06-1b57a0ba0529","address_id":"6b50dd5f-71a1-4fc4-a124-fdc8f1d2c3b9"}},{"id":"d535fac9-441f-426c-9b9b-277dc57d8b3e","type":"Feature","feature_type":"anchor","geometry":{"type":"Point","coordinates":[30.37110136771992,60.007432136649093]},"properties":{"unit_id":"4dba263f-548b-4490-91ab-d27cb7eb6c48","address_id":"1136bd32-0dde-4d1b-bbc9-c5c45e1041e1"}},{"id":"f75770b3-1809-4114-a704-c8874e7a1a07","type":"Feature","feature_type":"anchor","geometry":{"type":"Point","coordinates":[30.371079532209183,60.007400228133164]},"properties":{"unit_id":"7960aafb-fb42-4535-9452-304bea02c654","address_id":"062cac7e-c4f6-45db-b32b-62664f8e4b12"}},{"id":"bba958cf-b3ac-4ecb-89a7-dff59459b3db","type":"Feature","feature_type":"anchor","geometry":{"type":"Point","coordinates":[30.371057696170524,60.007368319617228]},"properties":{"unit_id":"c72ac464-5724-4491-a440-2bae40905fb0","address_id":"be108efc-a1d8-4f85-bda7-f7ffccb0c044"}},{"id":"64185e6e-a548-495f-bdea-dbf88471c558","type":"Feature","feature_type":"anchor","geometry":{"type":"Point","coordinates":[30.372932893973186,60.007232925446772]},"properties":{"unit_id":"e60d458c-755d-4a5f-82b7-afbbe721bd63","address_id":"38fc375c-ed32-4857-a30f-1c2e29f69ac4"}},{"id":"676e2641-0698-48e5-af90-ec7945497ee6","type":"Feature","feature_type":"anchor","geometry":{"type":"Point","coordinates":[30.371452762950394,60.00807064564048]},"properties":{"unit_id":"9240dbca-acbb-433f-b6af-211874133ad0","address_id":"c228850b-001b-4b77-aace-91f849ca3c90"}},{"id":"31d20276-9b91-4950-bccc-0a8c72827206","type":"Feature","feature_type":"anchor","geometry":{"type":"Point","coordinates":[30.374196914757036,60.007301871422037]},"properties":{"unit_id":"37e8aae6-f4b7-4b6a-9a59-fa3db083a98f","address_id":"712e49ad-22c0-4582-b1a3-86000aa4ce28"}},{"id":"8e533df3-00a6-4e43-934b-dc925c53af56","type":"Feature","feature_type":"anchor","geometry":{"type":"Point","coordinates":[30.371750629788384,60.0080196981727]},"properties":{"unit_id":"ff416ca4-33ec-4c08-a24d-af697475525d","address_id":"880ab257-ae62-4f50-a0ba-57d56899bfd0"}},{"id":"9ea86234-7992-4d36-b42f-03ea37c9894a","type":"Feature","feature_type":"anchor","geometry":{"type":"Point","coordinates":[30.371988034280481,60.007659331715665]},"properties":{"unit_id":"3abe6cf9-625e-4887-b38a-0b715051c8c7","address_id":"47da734f-82ec-45fc-8d0e-5fb0515c568c"}},{"id":"280864a3-546a-4b23-a15d-3bc7b48c0302","type":"Feature","feature_type":"anchor","geometry":{"type":"Point","coordinates":[30.371445705079854,60.007577596316068]},"properties":{"unit_id":"f9fbd71b-0163-41b6-97d4-b2e643c904f0","address_id":"f9d01fc0-9f3d-4d83-b3ee-07b7ff919f63"}},{"id":"6ffb1b6f-d049-4574-b5a4-5903cfd2f172","type":"Feature","feature_type":"anchor","geometry":{"type":"Point","coordinates":[30.37451871117166,60.007051977048405]},"properties":{"unit_id":"30565804-53c1-4db9-843f-516e257221a6","address_id":"f9180407-2f93-4083-8017-4d668369544b"}},{"id":"c894b471-9f6f-4c3c-b93b-2a276dce4fed","type":"Feature","feature_type":"anchor","geometry":{"type":"Point","coordinates":[30.374454884090873,60.007062894441347]},"properties":{"unit_id":"128ec215-6156-4fee-9e3b-9f543a424469","address_id":"8e1d8dfe-ff7a-4040-a090-3c47776a0c93"}},{"id":"e236fdf5-f289-494d-8e23-5ed8783409fe","type":"Feature","feature_type":"anchor","geometry":{"type":"Point","coordinates":[30.374391056851771,60.007073811834289]},"properties":{"unit_id":"d657de1f-ead5-46df-8940-933bbed6c4e3","address_id":"2f2f8ecb-4cd4-46fe-ad2d-510759258cf6"}},{"id":"36cf4281-cde3-4a67-a463-d56c89497489","type":"Feature","feature_type":"anchor","geometry":{"type":"Point","coordinates":[30.37356555605837,60.0072150095491]},"properties":{"unit_id":"3f2a1d7e-e7d6-4a96-9122-45a191ca915a","address_id":"c920c7dd-1c59-4e13-88fa-6cf4437120f3"}},{"id":"27e7ab57-26b3-474b-9291-6199190d69ff","type":"Feature","feature_type":"anchor","geometry":{"type":"Point","coordinates":[30.373501728800196,60.007225926942041]},"properties":{"unit_id":"243d9b46-d4b6-4b82-b564-77f0c1311037","address_id":"a20506c7-6634-4e2f-afd0-be69060f082d"}},{"id":"a49368c3-6448-4f9a-a239-7e0310b22c86","type":"Feature","feature_type":"anchor","geometry":{"type":"Point","coordinates":[30.374199574596314,60.007106563738652]},"properties":{"unit_id":"ea84aaf0-dc8e-4a09-927f-d95373aaedf0","address_id":"0de73d3b-296f-4a8c-908e-5f834628bc78"}},{"id":"897d385e-1d0c-4c9f-b2d3-487851cced89","type":"Feature","feature_type":"anchor","geometry":{"type":"Point","coordinates":[30.374135747684672,60.007117481131594]},"properties":{"unit_id":"43983372-d092-4c2b-a85b-7a21cd5a7884","address_id":"6758267c-e844-4e6e-a451-19fe15f10690"}},{"id":"6b7288d5-1543-4bb2-94ca-55b5cb94164e","type":"Feature","feature_type":"anchor","geometry":{"type":"Point","coordinates":[30.372577843928077,60.0073839515323]},"properties":{"unit_id":"a33b02e5-7995-4f48-a743-dc0ae1990de0","address_id":"c71e3b18-3aa3-4b1e-84e7-c4c7e701baeb"}},{"id":"fe71e201-ec60-4402-a860-8c21c322fd37","type":"Feature","feature_type":"anchor","geometry":{"type":"Point","coordinates":[30.372514016481105,60.007394868925239]},"properties":{"unit_id":"5e6e7f16-795d-4458-bd87-cdf504155513","address_id":"b78cb036-ee8a-4093-a9a2-fded33a3f3bd"}},{"id":"d0bf7d59-4916-42a3-ac27-da3ad2b52485","type":"Feature","feature_type":"anchor","geometry":{"type":"Point","coordinates":[30.372450188189578,60.007405786318181]},"properties":{"unit_id":"43ece399-24f7-4625-83e1-d760cf24c1c2","address_id":"e9412158-34b3-457d-ae07-24d9de7ceaba"}},{"id":"31e7624f-387a-4c21-a503-1af087a6d3fa","type":"Feature","feature_type":"anchor","geometry":{"type":"Point","coordinates":[30.372386360425971,60.007416703711115]},"properties":{"unit_id":"43d16a92-f8c5-47ed-bf59-22b938d95ab1","address_id":"18236531-2be7-4a4d-bd11-f68247379eb4"}},{"id":"fd8841e1-3dd8-46ca-8216-edf523f4f131","type":"Feature","feature_type":"anchor","geometry":{"type":"Point","coordinates":[30.372322532641306,60.0074276208296]},"properties":{"unit_id":"ca4dafde-b94a-420a-b2c1-f8792da952c9","address_id":"da4867a8-bb6e-4f02-88a7-30a7cdd5502c"}},{"id":"30fa50df-0d01-4f40-84dd-2d153f29598d","type":"Feature","feature_type":"anchor","geometry":{"type":"Point","coordinates":[30.372258704561048,60.007438538497]},"properties":{"unit_id":"60adf93a-a8ab-404d-95a2-83affbbe083f","address_id":"1e8585c7-d4b7-44e2-909f-1d3d1f3d5c97"}},{"id":"33e5a02a-4f87-4858-b995-c621dd0b90c4","type":"Feature","feature_type":"anchor","geometry":{"type":"Point","coordinates":[30.37219487673423,60.007449455889933]},"properties":{"unit_id":"abf61fb5-2485-463a-8500-e56a4ccabfe0","address_id":"688d166f-4ade-47ce-b914-5d1dbe1c54d3"}},{"id":"db17f80b-7820-4676-a005-05c3d2da8d6b","type":"Feature","feature_type":"anchor","geometry":{"type":"Point","coordinates":[30.371539319544745,60.00756158428613]},"properties":{"unit_id":"551201f5-b71f-430a-b581-bfdf73b32225","address_id":"0a76b88c-aeda-4104-abb1-e250a0e3605f"}},{"id":"10139619-bb33-41fd-917a-7835968a6fff","type":"Feature","feature_type":"anchor","geometry":{"type":"Point","coordinates":[30.371632934513304,60.007545572256191]},"properties":{"unit_id":"346cf7c1-a36a-4059-a2e2-edc741621321","address_id":"a6993554-776b-43d0-805d-7a4d81fdd6cd"}},{"id":"2b35a6a7-8c06-4157-906d-541844eb5292","type":"Feature","feature_type":"anchor","geometry":{"type":"Point","coordinates":[30.37169676225114,60.0075346545888]},"properties":{"unit_id":"6002a41a-153b-47a9-a971-636fa84c1167","address_id":"cfa8f521-ba4b-47e3-b290-e30102705389"}},{"id":"aec5c839-32fd-4848-8911-66d59e1e8af9","type":"Feature","feature_type":"anchor","geometry":{"type":"Point","coordinates":[30.371760590242371,60.007523737470315]},"properties":{"unit_id":"9a51fbf4-012c-41a4-a90b-102598be5933","address_id":"10303947-ce3d-43b6-b8ab-df244516e29c"}},{"id":"0abcbc66-b2ed-4c9d-bf36-54077716e27f","type":"Feature","feature_type":"anchor","geometry":{"type":"Point","coordinates":[30.371824418212547,60.007512820077373]},"properties":{"unit_id":"3be966be-63dc-427d-b702-5c92ce762457","address_id":"ad52faa5-447a-43e1-b209-b738e6f14da4"}}]}