{"type":"FeatureCollection","name":"anchor","features":[{"id":"2d31952e-8659-40f1-8f33-7eb17bafbd6c","type":"Feature","feature_type":"anchor","geometry":{"type":"Point","coordinates":[30.374986286605569,60.007466261083742]},"properties":{"unit_id":"9822787d-86e3-468f-9222-9d6399b616d1","address_id":"1f6f1f9b-b0e6-46a8-a501-cadb6071a992"}},{"id":"74f83083-5814-4544-a5b8-932f2c9c0872","type":"Feature","feature_type":"anchor","geometry":{"type":"Point","coordinates":[30.371580420026802,60.0080488108546]},"properties":{"unit_id":"f601fa0e-71a8-4350-ab43-f28b79033490","address_id":"e81b8c1c-c869-4656-809a-caa479281932"}},{"id":"efa847a1-374e-4b47-9fc6-55dce7faa66e","type":"Feature","feature_type":"anchor","geometry":{"type":"Point","coordinates":[30.371452762950394,60.00807064564048]},"properties":{"unit_id":"4c66571c-b2d0-46a5-a579-57bb31980e4a","address_id":"f0fa6b63-a5d0-4a90-9485-03bab10b1721"}},{"id":"9b6d2343-f95e-4674-a788-c445dfcc5d74","type":"Feature","feature_type":"anchor","geometry":{"type":"Point","coordinates":[30.371708077293427,60.008026976068727]},"properties":{"unit_id":"726f6670-e12c-4cdf-8519-553ba438546c","address_id":"8dc5b301-baba-47ac-ab4e-d5dc12502c71"}},{"id":"3e4ab198-5407-4721-aa98-41c7df385ef7","type":"Feature","feature_type":"anchor","geometry":{"type":"Point","coordinates":[30.371554216126263,60.008010520525708]},"properties":{"unit_id":"01255032-0946-4610-88ba-be0ff32cfa4f","address_id":"ac4da411-8c2a-43f7-8d6e-99b8d7d7b6b7"}},{"id":"7ab0dca6-a61f-428e-a2c5-91ab4d3eb54b","type":"Feature","feature_type":"anchor","geometry":{"type":"Point","coordinates":[30.371632827095404,60.0081253915124]},"properties":{"unit_id":"883dba47-b7c3-4cb4-8c9a-e696caf63a03","address_id":"2faba1ae-d961-42e2-9de6-912177febf3a"}},{"id":"4b30a714-2d33-4817-b883-6513ce17f3a0","type":"Feature","feature_type":"anchor","geometry":{"type":"Point","coordinates":[30.375112239716913,60.007444718313906]},"properties":{"unit_id":"40ebdf47-34d0-49c6-8f48-6304c04975fe","address_id":"22158554-25c3-4e8d-b712-fd89886ea70d"}},{"id":"f49675d1-20a4-4c8d-a1ff-630f638b328e","type":"Feature","feature_type":"anchor","geometry":{"type":"Point","coordinates":[30.374856929628628,60.00748838706231]},"properties":{"unit_id":"c6bb63ac-d7f5-45b4-b32d-cb2ef807f15d","address_id":"155ac682-343a-43a0-93e2-06fc60ad7cc9"}},{"id":"2089a719-0124-4211-953f-c7dc92838ac0","type":"Feature","feature_type":"anchor","geometry":{"type":"Point","coordinates":[30.37495837936607,60.007428262221978]},"properties":{"unit_id":"088f17cb-544a-4b86-a1ba-b4a27211623a","address_id":"5b8158c5-dac5-4e0b-91af-2649e9f51dde"}},{"id":"71b478e8-c4e3-49ed-bdbc-b9a9bd76b14e","type":"Feature","feature_type":"anchor","geometry":{"type":"Point","coordinates":[30.375036995829564,60.007543133757579]},"properties":{"unit_id":"bdc0de38-1eca-4a60-be4a-7d597a9e224c","address_id":"9c5047f4-aa77-4596-b87e-799b3ade2cf2"}},{"id":"e5e5e7ca-5118-49bb-a801-f7d4431fd21f","type":"Feature","feature_type":"anchor","geometry":{"type":"Point","coordinates":[30.371087168926447,60.007325259052607]},"properties":{"unit_id":"2f67769a-4d28-4252-a9a4-3af2c955219c","address_id":"4985edff-bd80-48b4-a2da-4ddd14da2fc5"}},{"id":"d62cb3aa-e760-488b-90c1-9aa9457f3492","type":"Feature","feature_type":"anchor","geometry":{"type":"Point","coordinates":[30.371213123073577,60.007303715184968]},"properties":{"unit_id":"658ee3ab-d213-4964-98ac-64c9cb6dada3","address_id":"e026a9a2-c907-4e2c-ac74-19b84d5e0719"}},{"id":"34a31e97-caa5-49da-b7ab-d129cca75c45","type":"Feature","feature_type":"anchor","geometry":{"type":"Point","coordinates":[30.374489598467587,60.006743291667121]},"properties":{"unit_id":"4cc1ad6a-9573-41f4-a1ea-1fcc5c2602de","address_id":"cd40e641-7f0e-475c-b9ba-28e4013e203d"}},{"id":"281ad461-3b62-45d1-b116-9ccaf7b0af8f","type":"Feature","feature_type":"anchor","geometry":{"type":"Point","coordinates":[30.374361944322082,60.00676512617855]},"properties":{"unit_id":"15eccc08-15f7-490c-908e-20768202df4b","address_id":"986eb2bb-d45a-4cce-8438-f061e64efe6b"}},{"id":"d3529ca7-2ae9-465d-b266-909dedbf67c7","type":"Feature","feature_type":"anchor","geometry":{"type":"Point","coordinates":[30.372063789065667,60.007560460134151]},"properties":{"unit_id":"f503c6c4-605b-4057-88f6-de2cd05cabd6","address_id":"5cbe5225-3b75-4da7-a374-f84103756f6f"}},{"id":"2bb68c87-5e71-45f7-abbf-82026e147807","type":"Feature","feature_type":"anchor","geometry":{"type":"Point","coordinates":[30.374006776888489,60.007232407008523]},"properties":{"unit_id":"e40df641-b647-4945-b46f-d4ee56a2dda2","address_id":"dd0182d5-8257-4b79-a14c-f5182e929eaa"}},{"id":"20eefd3e-9963-43d8-b240-4c30577df48d","type":"Feature","feature_type":"anchor","geometry":{"type":"Point","coordinates":[30.374515803428096,60.006781581996023]},"properties":{"unit_id":"af539851-6573-47d7-8d58-21b5df0cf3da","address_id":"66a03381-23de-47c7-b7e5-df401e3dc514"}},{"id":"044ca67a-0f29-44c9-8e8f-79d1fd5f995b","type":"Feature","feature_type":"anchor","geometry":{"type":"Point","coordinates":[30.374617252254328,60.006721456881245]},"properties":{"unit_id":"df6c2436-6db2-4669-9e2d-c2c677ebe4c2","address_id":"d081a548-181d-42c4-b3df-9b1e4be0135b"}},{"id":"5324f873-7e5d-4849-8cfb-f9441e2b31cd","type":"Feature","feature_type":"anchor","geometry":{"type":"Point","coordinates":[30.374428453860705,60.006653947657838]},"properties":{"unit_id":"3706d01d-0210-4e76-a85c-e0f326146e63","address_id":"29580199-c684-4549-8643-623b0e2a9782"}},{"id":"2383bd4b-09e6-4a75-884c-8d4a12c6493d","type":"Feature","feature_type":"anchor","geometry":{"type":"Point","coordinates":[30.371111670397251,60.0073638405742]},"properties":{"unit_id":"6df74e05-46b2-4026-ba54-9418486c8641","address_id":"219e7dce-2f19-41bb-8a60-7e27e9f83769"}},{"id":"9a6c6e47-a771-47dc-acea-ca0aecefb4ab","type":"Feature","feature_type":"anchor","geometry":{"type":"Point","coordinates":[30.370957811195474,60.007347385031174]},"properties":{"unit_id":"98e02e1b-96a6-4e8d-b39f-fa4b6951aefd","address_id":"de2aefe3-3616-4440-8a50-95b70b48d775"}},{"id":"f0c96660-f45b-42d0-8f00-f1363edaf37b","type":"Feature","feature_type":"anchor","geometry":{"type":"Point","coordinates":[30.3710243258061,60.007236205961561]},"properties":{"unit_id":"dde94b7a-cb37-473b-b9f1-b47aa65fe9f5","address_id":"eec07c9e-2606-483a-9f44-990886f7ae44"}},{"id":"3e5bb3f0-10dc-4829-9991-afbad6f857f4","type":"Feature","feature_type":"anchor","geometry":{"type":"Point","coordinates":[30.372102688881093,60.007617303087436]},"properties":{"unit_id":"0285de49-b122-4b98-8232-596520d157db","address_id":"4ad0a8d1-f999-4b15-8ff8-a2b5fb48e92e"}},{"id":"fc6aac52-5191-40b0-9001-e629f1cadd3e","type":"Feature","feature_type":"anchor","geometry":{"type":"Point","coordinates":[30.3721289379572,60.007655658735715]},"properties":{"unit_id":"8a57ec8c-1b2b-4038-a843-ce62159542f5","address_id":"82fe8829-c0d7-4862-af98-2a5c681249d9"}},{"id":"3385ce20-3599-4acd-aeff-592f2f738154","type":"Feature","feature_type":"anchor","geometry":{"type":"Point","coordinates":[30.37233358750731,60.007468502526415]},"properties":{"unit_id":"e9ec1638-39f0-490c-b1f2-afb22e2e62ee","address_id":"c4079954-b293-4bbb-8e72-0e42eeda8b65"}},{"id":"2b4692c1-44bd-49d3-9254-635ef9df995a","type":"Feature","feature_type":"anchor","geometry":{"type":"Point","coordinates":[30.371746369510493,60.007568941772995]},"properties":{"unit_id":"4dc5a9e3-6bcc-41be-bcd5-b1cc2e05b797","address_id":"3bb34d72-17b7-4a96-824d-44b604f8cb12"}},{"id":"76a1246f-aaf9-405b-87b5-4a1c048d6918","type":"Feature","feature_type":"anchor","geometry":{"type":"Point","coordinates":[30.374081693878786,60.007341875149564]},"properties":{"unit_id":"e0b7a6b2-52f4-428a-8043-eb2720913c56","address_id":"2b9dd2d2-4422-4904-9bba-00d4cd183a08"}},{"id":"37a0d092-5785-468d-974c-851cf96d8f8f","type":"Feature","feature_type":"anchor","geometry":{"type":"Point","coordinates":[30.374273948309,60.007136615318]},"properties":{"unit_id":"01bf3a93-0e8b-4b05-ae60-22bd9c740ab8","address_id":"d4ee538e-d723-4faa-b94a-9587ebfce050"}},{"id":"a6402c70-2bd5-4449-aee3-f9547fa0eb16","type":"Feature","feature_type":"anchor","geometry":{"type":"Point","coordinates":[30.37368673620492,60.007237054839024]},"properties":{"unit_id":"8e4be7c7-b3fd-4708-93e0-6204381c0850","address_id":"0700d70d-95fb-4172-8730-5be8b9b27ac1"}},{"id":"72a9cfd4-4fc3-4de6-9aa3-42d7b909394d","type":"Feature","feature_type":"anchor","geometry":{"type":"Point","coordinates":[30.372195069950575,60.007746738648621]},"properties":{"unit_id":"cc56210d-44e1-4e26-af14-b41f470bd780","address_id":"46eec71b-62d8-4e86-93b1-ef3a9e299167"}},{"id":"5dd67d2e-ad74-4520-9e96-d0d928ff00ba","type":"Feature","feature_type":"anchor","geometry":{"type":"Point","coordinates":[30.374132345477211,60.007415886395542]},"properties":{"unit_id":"a7ccc89f-c124-4b30-af69-5a0e7cf95034","address_id":"a8eeafff-0177-43b0-8fc8-44675f3a51ed"}},{"id":"2abba198-f9e9-4a05-a800-e4e3b2dc5a33","type":"Feature","feature_type":"anchor","geometry":{"type":"Point","coordinates":[30.372295410887034,60.007888497890519]},"properties":{"unit_id":"be4bdd50-955f-435f-888b-8a795807baf0","address_id":"d19c3c65-446a-4f7f-b89e-7ef6f71ac5a6"}},{"id":"e6037599-ef19-4ecc-b5a5-b50b36610bbf","type":"Feature","feature_type":"anchor","geometry":{"type":"Point","coordinates":[30.372212434096589,60.007902690309223]},"properties":{"unit_id":"4970ad38-9be4-440a-855e-ef3a3d63074e","address_id":"9d538a51-bebc-4355-a50b-d68366b7a339"}},{"id":"8fca0f14-f5e3-4d11-b7b5-aa35cc258c6e","type":"Feature","feature_type":"anchor","geometry":{"type":"Point","coordinates":[30.372380515560188,60.007873941549569]},"properties":{"unit_id":"9f310d06-bb52-4c19-af55-b8028bd9d348","address_id":"1937a235-472a-492a-b38c-af57d2df626e"}},{"id":"3a0fb762-26e4-4d5d-b282-fea0bed1a6e6","type":"Feature","feature_type":"anchor","geometry":{"type":"Point","coordinates":[30.375026354890512,60.007499804230818]},"properties":{"unit_id":"360868f2-f1bc-46f7-8e66-3eccb0c38370","address_id":"a752a9a1-290a-4f55-a21a-3c4f0dd4b290"}},{"id":"0eb7c82b-680f-4c60-b972-d27e0ae54247","type":"Feature","feature_type":"anchor","geometry":{"type":"Point","coordinates":[30.374814377817252,60.007495665232781]},"properties":{"unit_id":"93bfd330-99b4-446e-90d4-9746c11031d3","address_id":"111047d2-9125-4cdb-99b9-c3565ce0a6e8"}},{"id":"ccebea32-e5bc-43a9-a496-85c4d4b7437b","type":"Feature","feature_type":"anchor","geometry":{"type":"Point","coordinates":[30.374954134773226,60.007609583873936]},"properties":{"unit_id":"0073c898-f4e4-4356-9716-6d5fd1de4a9a","address_id":"fd565815-6bf7-4111-9cb8-96f668450eda"}},{"id":"a74bd464-0e05-4ea6-869c-21e7a8779681","type":"Feature","feature_type":"anchor","geometry":{"type":"Point","coordinates":[30.375123554777829,60.007530703589815]},"properties":{"unit_id":"0c543cfd-141d-435e-8eee-a4aab99deb15","address_id":"23451e83-3604-4dd5-911f-103ab24dec42"}},{"id":"050a2fc3-e74f-45f9-8389-4ff7e0e88635","type":"Feature","feature_type":"anchor","geometry":{"type":"Point","coordinates":[30.374913370639952,60.007550021109594]},"properties":{"unit_id":"3239fa9b-e363-4260-be38-b2feab40a8cc","address_id":"a249d38e-4fc3-4988-8053-268a0db1dfca"}},{"id":"a5515633-c7c8-44a5-bb87-edc64366573d","type":"Feature","feature_type":"anchor","geometry":{"type":"Point","coordinates":[30.374786696008773,60.007094060841325]},"properties":{"unit_id":"98537fce-8874-440a-8236-4f6491ee87bc","address_id":"7c3d95ba-9a98-4640-8957-0e56978f7f99"}},{"id":"c0039c78-8044-4f66-b344-9677ab8d5f40","type":"Feature","feature_type":"anchor","geometry":{"type":"Point","coordinates":[30.374562497447105,60.00676646632359]},"properties":{"unit_id":"1de0c012-7171-4068-8874-a38cf68adbd3","address_id":"59ad5566-b449-452c-814e-163b56f03ebe"}},{"id":"c2e62b88-c05c-41c4-a2b0-02ff9e055d93","type":"Feature","feature_type":"anchor","geometry":{"type":"Point","coordinates":[30.3745828789679,60.006796247842985]},"properties":{"unit_id":"37aa0b63-e6a7-4dd7-8401-d0745158fabc","address_id":"e031102e-8724-400d-8192-b223e7f63daa"}},{"id":"d4f4e2a8-2480-42be-aa5d-0213a0264851","type":"Feature","feature_type":"anchor","geometry":{"type":"Point","coordinates":[30.374603260781548,60.006826028813478]},"properties":{"unit_id":"3ac64708-7c7f-4cde-9c17-478e2c7b1176","address_id":"599f2e6c-0f81-46e3-abcc-1b72fe071946"}},{"id":"f6b13de1-f676-46e4-9e96-9ac04daf1524","type":"Feature","feature_type":"anchor","geometry":{"type":"Point","coordinates":[30.374623642339053,60.006855810058426]},"properties":{"unit_id":"94d7a27d-6d6e-49e7-be86-c555caa828dc","address_id":"128623c8-6eb4-40ca-b494-93c1d2be7ad8"}},{"id":"d0641329-bd46-4ad4-ba2f-9debc33dfec8","type":"Feature","feature_type":"anchor","geometry":{"type":"Point","coordinates":[30.374644023914907,60.00688559157782]},"properties":{"unit_id":"6ee58109-d23f-4b15-a57f-77e463f09fbc","address_id":"c5e43beb-d806-4bbe-a1be-d8e4894d6913"}},{"id":"79aaf033-0fc6-48ed-8a37-825175213954","type":"Feature","feature_type":"anchor","geometry":{"type":"Point","coordinates":[30.374680419896418,60.006938772529189]},"properties":{"unit_id":"e9c80623-f6f2-4314-ae24-ef845c7ce08c","address_id":"11238234-8bd7-4eda-8e97-ac1b412a138f"}},{"id":"4409698f-16ff-47f6-be02-7a1752ed1bc1","type":"Feature","feature_type":"anchor","geometry":{"type":"Point","coordinates":[30.374740836891039,60.00702705276575]},"properties":{"unit_id":"0119dd30-5c62-45ff-8076-939bc2c085bb","address_id":"a6ba321b-4227-48b8-93cd-b1ee6a59175e"}},{"id":"3e25b452-cc28-4662-ae64-7ab805985da5","type":"Feature","feature_type":"anchor","geometry":{"type":"Point","coordinates":[30.374844201919839,60.007178086810363]},"properties":{"unit_id":"ac9aa90c-3e8e-45b1-b78c-09e05da9bd15","address_id":"dbd3a38a-365a-4ac6-b0b4-484241a423ab"}},{"id":"d67a0539-8e7e-4531-ad7b-7f87bf83ae97","type":"Feature","feature_type":"anchor","geometry":{"type":"Point","coordinates":[30.374875502739979,60.0072238224505]},"properties":{"unit_id":"2cb0fa6e-c612-4c29-824a-f72cac0f5fd8","address_id":"08726aef-4793-41ea-9e50-6687e6ea38f1"}},{"id":"2408da51-7a64-40e7-8119-6f078c6fa691","type":"Feature","feature_type":"anchor","geometry":{"type":"Point","coordinates":[30.37489588440538,60.007253603695439]},"properties":{"unit_id":"78f00466-2b5b-4924-a70c-c5aec8c191d0","address_id":"a4ee28fe-9fd2-4242-a678-7923a234dce6"}},{"id":"b797d6c2-9dfe-4ddf-8a38-f91a53712b05","type":"Feature","feature_type":"anchor","geometry":{"type":"Point","coordinates":[30.374916266363631,60.007283384940379]},"properties":{"unit_id":"2a512f42-2878-409b-b808-e3f033baa7a8","address_id":"118d9f51-990d-4619-99dc-bede1de28f67"}},{"id":"55b37751-8de7-4804-99e7-15c2a8db2e2f","type":"Feature","feature_type":"anchor","geometry":{"type":"Point","coordinates":[30.374989058986202,60.007389747392025]},"properties":{"unit_id":"7a9b3075-3151-4194-b82c-2a20ba762c54","address_id":"6ce50099-bf03-4605-b74e-0777d64601f5"}},{"id":"73ae9618-37bc-4a78-b88c-f203ae40c598","type":"Feature","feature_type":"anchor","geometry":{"type":"Point","coordinates":[30.374936648340228,60.007313166734228]},"properties":{"unit_id":"5ca42465-1d9f-43a0-9640-7e1c2a943e80","address_id":"85224e25-75b2-4bfc-b8d6-0d6f2264413e"}},{"id":"c807c865-8179-4e1a-950e-4e3225b5ac66","type":"Feature","feature_type":"anchor","geometry":{"type":"Point","coordinates":[30.374957030060692,60.007342947979176]},"properties":{"unit_id":"0463b3f4-06a1-4a7a-a622-f483d40038e6","address_id":"1155e5a9-3a20-4cd7-ad21-d642025c8c74"}},{"id":"90b7d6e3-8096-4429-b61e-becec6bd0294","type":"Feature","feature_type":"anchor","geometry":{"type":"Point","coordinates":[30.375012353103084,60.007423782904496]},"properties":{"unit_id":"b8f75c45-3920-4bae-bb49-308d345df0c7","address_id":"f6e0c0be-73cb-46c4-9200-c6607ef3679f"}},{"id":"114d493e-7d2b-4847-b001-5796bf0eddab","type":"Feature","feature_type":"anchor","geometry":{"type":"Point","coordinates":[30.375112239716913,60.007444718313906]},"properties":{"unit_id":"7eeec8c5-6ce5-4e38-9854-f64004410609","address_id":"1b082228-2a8e-4e9a-8dba-747a17fa1a8a"}},{"id":"9f921c96-cdac-4a32-9d34-991ebf1b4128","type":"Feature","feature_type":"anchor","geometry":{"type":"Point","coordinates":[30.374640360071723,60.007463647759735]},"properties":{"unit_id":"ee9349e3-241b-4efb-b3ab-577a26162409","address_id":"9babe6b5-08dc-4b50-97d5-15411cb6b6b7"}},{"id":"2e76ef28-f029-4e83-89fc-eaac4f286020","type":"Feature","feature_type":"anchor","geometry":{"type":"Point","coordinates":[30.374383508313727,60.00747728331703]},"properties":{"unit_id":"570c60db-23cf-4de8-8db2-e4663d399d72","address_id":"a19a7f20-843c-423b-9d67-a6936d574433"}},{"id":"91ceb306-8428-4385-960d-261b339258ce","type":"Feature","feature_type":"anchor","geometry":{"type":"Point","coordinates":[30.374402070257187,60.007504405679072]},"properties":{"unit_id":"05759a0d-f585-4595-ba0a-9aac4fb0f412","address_id":"a7e2498e-56d2-4b12-aaf9-62fe12db3061"}},{"id":"acd4dc10-ab50-413f-9319-5ea00988a3e5","type":"Feature","feature_type":"anchor","geometry":{"type":"Point","coordinates":[30.374072853073823,60.007551211404305]},"properties":{"unit_id":"f26d0318-3a35-4245-8ee6-46a2348e9398","address_id":"37791ae9-17d0-4df0-b844-3be3b77224f0"}},{"id":"9159aa0f-cedd-4fe9-8e1b-9dac9768ea93","type":"Feature","feature_type":"anchor","geometry":{"type":"Point","coordinates":[30.374220665789842,60.0075449388229]},"properties":{"unit_id":"9ff34e7f-baab-4b75-9525-dadc9eb91065","address_id":"bbabc003-1c3f-413b-8e4e-c066892509b3"}},{"id":"dd140317-0e13-48f0-8abb-e02b79c9fd2d","type":"Feature","feature_type":"anchor","geometry":{"type":"Point","coordinates":[30.374133316058391,60.007417304484719]},"properties":{"unit_id":"7c21f1a1-3ec6-49d6-afee-6de6a5e9938b","address_id":"3d5707c4-027c-4fd8-a44c-2e0be9532c36"}},{"id":"0c3f0aba-760e-460b-be5a-4f9ff8f9cf1c","type":"Feature","feature_type":"anchor","geometry":{"type":"Point","coordinates":[30.374319393196011,60.006772404349022]},"properties":{"unit_id":"d5effa33-f8eb-4dca-ae14-b7b64885fa2b","address_id":"03413695-4e81-4595-b7b1-a3910bb829d0"}},{"id":"12e230eb-8c16-4817-897c-1cb1ed9dc0db","type":"Feature","feature_type":"anchor","geometry":{"type":"Point","coordinates":[30.374532149556202,60.006736013496649]},"properties":{"unit_id":"2f793ac0-de6f-4191-8b1c-fe43aaec5b2d","address_id":"a418317d-ef4b-4374-80ed-617d525bf582"}},{"id":"7893f9aa-44a0-4357-a05c-b786a8db26d9","type":"Feature","feature_type":"anchor","geometry":{"type":"Point","coordinates":[30.374428453860705,60.006653947657838]},"properties":{"unit_id":"c112613b-f1f2-4fe6-a93b-0d26adecaf20","address_id":"15fb19fc-5f31-4a82-87f2-f9969e036dfa"}},{"id":"5ae8038e-428e-405c-8255-7b962242d4a4","type":"Feature","feature_type":"anchor","geometry":{"type":"Point","coordinates":[30.373277934825108,60.007431501294647]},"properties":{"unit_id":"55b5c1a8-4515-47bd-ac38-142bf73fd68e","address_id":"66157634-02f5-4447-9df7-5708427354fc"}},{"id":"8a77e1c6-bf3c-45e0-aa28-3ed616e3f4c9","type":"Feature","feature_type":"anchor","geometry":{"type":"Point","coordinates":[30.372885789383169,60.007499141705708]},"properties":{"unit_id":"14dccf3c-59c0-45e0-8bb5-4e90421abb2a","address_id":"d64f96ac-b4ba-422b-9fcb-3b3e756e65a4"}},{"id":"64aa19e6-0eed-4ac7-bbff-0c2bf07aad46","type":"Feature","feature_type":"anchor","geometry":{"type":"Point","coordinates":[30.3730872079955,60.007458413152648]},"properties":{"unit_id":"370739d6-54c1-41c8-ae18-ac5c9123a23b","address_id":"fffd52e6-c031-4a99-90ac-728007c3bbbd"}},{"id":"e0f67ae8-c07d-49b7-9a3c-d28c121477f9","type":"Feature","feature_type":"anchor","geometry":{"type":"Point","coordinates":[30.372624091738583,60.007304871996631]},"properties":{"unit_id":"dc26f150-69b8-44f4-8cb6-c3edeef15c44","address_id":"a8f33609-5aa8-40db-84ba-7e834a2a1ba0"}},{"id":"ebedb0ea-c358-412d-8f15-1cd84168f68f","type":"Feature","feature_type":"anchor","geometry":{"type":"Point","coordinates":[30.373265695204395,60.007233031384928]},"properties":{"unit_id":"943f1a58-827a-4a0d-91e7-29268d40336c","address_id":"69020507-d3ab-4a25-914e-c9e6154da085"}},{"id":"d17efb98-79c9-4994-b937-142c68330ed0","type":"Feature","feature_type":"anchor","geometry":{"type":"Point","coordinates":[30.373265695204395,60.007233031384928]},"properties":{"unit_id":"943f1a58-827a-4a0d-91e7-29268d40336c","address_id":"296e8683-e1ae-49b9-87b2-c99e97eb007b"}},{"id":"4a96efcc-019e-4b7e-9734-6f5814d1a9a6","type":"Feature","feature_type":"anchor","geometry":{"type":"Point","coordinates":[30.374059509780754,60.007156660133369]},"properties":{"unit_id":"2359a971-8d19-4c0d-a434-77cc759cdbdf","address_id":"3301caa3-7115-48b2-8462-186b921f124d"}},{"id":"4bd568a1-2a5f-40aa-a516-bd2aa8bcb47e","type":"Feature","feature_type":"anchor","geometry":{"type":"Point","coordinates":[30.373872282348465,60.007188684193238]},"properties":{"unit_id":"a3cc48a8-4367-4ac1-94c8-ec7058a6fb48","address_id":"acb10637-1954-425b-b786-6809e9b3a3d7"}},{"id":"9c605608-13f4-40e2-bb5a-fabad2d5b022","type":"Feature","feature_type":"anchor","geometry":{"type":"Point","coordinates":[30.373920765950079,60.007106727860446]},"properties":{"unit_id":"8b3876ee-76f2-449a-bec4-701e456b4b8d","address_id":"fd4ba917-e7b2-408f-9291-44c18e05657b"}},{"id":"fe99adcc-17c0-4aa9-a638-206f138180a0","type":"Feature","feature_type":"anchor","geometry":{"type":"Point","coordinates":[30.374327229454352,60.007084729227223]},"properties":{"unit_id":"7c80cbb0-a2ad-4c06-b3ff-4daabea4c540","address_id":"8efedca1-2564-4227-a4ff-24fe556b30f1"}},{"id":"be65287a-e3a4-4243-86f2-b1e72476fd94","type":"Feature","feature_type":"anchor","geometry":{"type":"Point","coordinates":[30.374263402310358,60.007095646620165]},"properties":{"unit_id":"dd54e3a3-ddb7-49eb-9353-8d3f26dacf31","address_id":"aeadd300-f84d-4f91-8263-cdf9c12828d8"}},{"id":"4aec7d4b-e4ef-4b0f-9412-67e4b3f8427d","type":"Feature","feature_type":"anchor","geometry":{"type":"Point","coordinates":[30.373411603853935,60.00724134231514]},"properties":{"unit_id":"0cb28623-dfa0-4033-a662-ff53d6adba5a","address_id":"f7e36bc7-0ef4-4934-ac88-a69b3d0b96bf"}},{"id":"1498b9e0-d056-451f-99ea-0460949d2648","type":"Feature","feature_type":"anchor","geometry":{"type":"Point","coordinates":[30.373696700172886,60.007192578106384]},"properties":{"unit_id":"b397f6c0-a776-44b6-aaba-aa1a6ec327d4","address_id":"258be636-700c-4980-934d-7574d0150ea5"}},{"id":"e75c4b6c-f8f8-4a81-84e8-62fde60b18b9","type":"Feature","feature_type":"anchor","geometry":{"type":"Point","coordinates":[30.373940148442998,60.007343413448353]},"properties":{"unit_id":"92e0aee4-6e96-40f8-b471-e61a6ae2a35f","address_id":"a8e720c8-e988-458b-b103-e8bd87071fe2"}},{"id":"31103dd2-fe09-49e2-90a0-87a9a3bb81a7","type":"Feature","feature_type":"anchor","geometry":{"type":"Point","coordinates":[30.372212011512215,60.0077744458661]},"properties":{"unit_id":"3a7f4b6d-a4f8-4ae4-a5c8-f680b54d8f96","address_id":"707dc460-8321-4815-907d-feee9da44df5"}},{"id":"36b66688-f6e2-4d2a-bf7e-4a26c534940a","type":"Feature","feature_type":"anchor","geometry":{"type":"Point","coordinates":[30.372119148001335,60.007488547341787]},"properties":{"unit_id":"600ab4fc-1597-4c23-8982-decf80c15df6","address_id":"72c99aff-e8a6-4aac-918a-f9473128be8b"}},{"id":"3d088042-8755-4e36-925c-0cb650a056bb","type":"Feature","feature_type":"anchor","geometry":{"type":"Point","coordinates":[30.37193191841569,60.00752057167611]},"properties":{"unit_id":"f788c30a-26b8-43db-afea-c4b28d931814","address_id":"7eb823ba-3ad2-42cf-b9a5-a067f5359577"}},{"id":"28226516-20de-42dd-8d0a-da161308fbf0","type":"Feature","feature_type":"anchor","geometry":{"type":"Point","coordinates":[30.372025533231181,60.007504559371725]},"properties":{"unit_id":"548643cd-9c66-44e8-be4f-1026bdbc9253","address_id":"6837fce4-3750-447d-96c6-1c6ca415733a"}},{"id":"82078b2b-e62b-4bec-a841-594fc4431623","type":"Feature","feature_type":"anchor","geometry":{"type":"Point","coordinates":[30.371978463594154,60.00743577861607]},"properties":{"unit_id":"59f145b3-0770-4080-b5ad-b12809d6e311","address_id":"e5691c54-932b-4686-9c78-24e70a8628c5"}},{"id":"a1fc5e82-f5c6-4f28-830f-0379bf1bfeff","type":"Feature","feature_type":"anchor","geometry":{"type":"Point","coordinates":[30.372226780712065,60.007592184493355]},"properties":{"unit_id":"5839610b-f861-4ae6-bd15-5c1bae402c7a","address_id":"3d728256-39b7-4556-a28a-a356d51781af"}},{"id":"3dd12846-32b9-40a8-8250-945ceefc5318","type":"Feature","feature_type":"anchor","geometry":{"type":"Point","coordinates":[30.371110550170464,60.007653931888974]},"properties":{"unit_id":"6f0b1ae9-fcc2-4b61-8030-eed360c68e65","address_id":"e3ee4d2c-aa46-43fe-b839-26819eca7a9b"}},{"id":"b556bf45-82b5-45b5-898f-85a090893adc","type":"Feature","feature_type":"anchor","geometry":{"type":"Point","coordinates":[30.371196438870772,60.007779438681716]},"properties":{"unit_id":"2b04d6bf-1868-4191-ad90-d474e6fa1ca5","address_id":"87e49d7a-d010-4942-8a60-1fe3043d664f"}},{"id":"d4c368d6-9741-4e0c-85b5-96736800fb70","type":"Feature","feature_type":"anchor","geometry":{"type":"Point","coordinates":[30.371154222782891,60.007717749195294]},"properties":{"unit_id":"ce014d48-113f-4707-ab3e-bf8e465c1b2b","address_id":"5cda0851-e06e-46df-821f-7513baec52da"}},{"id":"5d6ca3c5-b645-4657-9bf9-9cc142910c66","type":"Feature","feature_type":"anchor","geometry":{"type":"Point","coordinates":[30.371317265097982,60.007775405896282]},"properties":{"unit_id":"fbd42b37-8340-46bf-85be-f899fe707bb7","address_id":"7bb64fee-3a41-4abc-9574-71fb1499599e"}},{"id":"01e2dc2e-513e-48b9-9029-cbb2abb27f90","type":"Feature","feature_type":"anchor","geometry":{"type":"Point","coordinates":[30.371385348675734,60.0077637603844]},"properties":{"unit_id":"4e6d973d-edca-4674-a592-010936b5437c","address_id":"b88df05f-3f41-4898-85ab-0640e2f39ec1"}},{"id":"a8de9555-90af-4b35-9de5-7e535e80f06c","type":"Feature","feature_type":"anchor","geometry":{"type":"Point","coordinates":[30.371267434025416,60.007591455002157]},"properties":{"unit_id":"2fcdde62-8334-411d-ac3a-b6142d006b73","address_id":"9cf0e88b-0c08-4fe0-8e22-a91bc4ced769"}},{"id":"0ec08fe6-2a65-4674-85d0-bdea562347db","type":"Feature","feature_type":"anchor","geometry":{"type":"Point","coordinates":[30.371199350055306,60.007603099965131]},"properties":{"unit_id":"b794a117-12b7-40e7-b94f-52cae62baad1","address_id":"a1bf53a2-e279-4f8d-aecf-b74bc817f28a"}},{"id":"4797ac8e-7a36-4f94-b3b8-11b6708c791a","type":"Feature","feature_type":"anchor","geometry":{"type":"Point","coordinates":[30.371295988855824,60.007688748489464]},"properties":{"unit_id":"e61799d4-a8a3-4dc7-a133-58c7123d64e0","address_id":"f1fcedcb-1bdf-4484-9edf-a3936f83c7b3"}},{"id":"166b1d01-a579-492e-8be5-601f495004e5","type":"Feature","feature_type":"anchor","geometry":{"type":"Point","coordinates":[30.371508976754075,60.00802776374357]},"properties":{"unit_id":"3881d51e-1021-4e33-a8ea-0ec8f850908a","address_id":"dcd51d55-9e8f-437d-acb4-716bd247da9f"}},{"id":"6f19b394-f46a-442a-8dd4-458794b934dd","type":"Feature","feature_type":"anchor","geometry":{"type":"Point","coordinates":[30.371449899108374,60.007946359880982]},"properties":{"unit_id":"838455fe-76ae-47dc-a654-69cb506b41f7","address_id":"4be0eeec-1f9d-4ca8-b438-b919cfca6de4"}},{"id":"43d818e8-0d34-4f82-a40d-a1a38560cb6c","type":"Feature","feature_type":"anchor","geometry":{"type":"Point","coordinates":[30.371407074493575,60.007878856969953]},"properties":{"unit_id":"e4337c1c-815d-42ec-a84c-6923ddec390e","address_id":"5cd6b9b6-fe02-432f-a8f7-879f4d127046"}},{"id":"0ef8272b-ea8e-420e-ba1e-64d6c74e4b50","type":"Feature","feature_type":"anchor","geometry":{"type":"Point","coordinates":[30.371386693657364,60.007849075176111]},"properties":{"unit_id":"546ae787-662f-4f25-aa1f-8c48d77aebba","address_id":"6e7c137f-df95-40f3-a7e9-810769050a0a"}},{"id":"47118599-0ef3-40df-bdae-cb10a98c917c","type":"Feature","feature_type":"anchor","geometry":{"type":"Point","coordinates":[30.37136631311397,60.007819293931163]},"properties":{"unit_id":"cf5ebd99-892d-4889-ad95-97c53212bc00","address_id":"13aaad40-a792-4d3e-89e5-1b57c51faa38"}},{"id":"b5283be6-3572-4114-a3d6-ff2153cd0b25","type":"Feature","feature_type":"anchor","geometry":{"type":"Point","coordinates":[30.371766673865348,60.008099009070705]},"properties":{"unit_id":"145fb33b-5291-425e-bca8-4640906cd6d9","address_id":"d406bf29-56f5-4189-81fb-36dd44680800"}},{"id":"20223878-27e6-4a9f-802f-66488a40975b","type":"Feature","feature_type":"anchor","geometry":{"type":"Point","coordinates":[30.371557530286253,60.008135728990027]},"properties":{"unit_id":"e30c51d5-20bc-439e-bcc0-888ea22b3cd4","address_id":"f755d1e2-9928-4457-a78b-13dc07a586da"}},{"id":"7e8d0a3d-f4ae-4c61-993b-60beeeae40ac","type":"Feature","feature_type":"anchor","geometry":{"type":"Point","coordinates":[30.371238654105603,60.007299348118011]},"properties":{"unit_id":"a5616f3c-7e4c-4daf-85f4-da385a191789","address_id":"6a0e017f-d606-41c0-a27c-537268c1b68b"}},{"id":"556105d9-c22b-4391-abe7-262a3ff20670","type":"Feature","feature_type":"anchor","geometry":{"type":"Point","coordinates":[30.371032836328951,60.00723475027258]},"properties":{"unit_id":"15e8b74e-a24b-4bf4-9445-8ed51c887ac1","address_id":"123e2da2-8d69-446d-bd96-432d0e56dd87"}},{"id":"033a966e-16b0-43ff-8310-71e3f145785b","type":"Feature","feature_type":"anchor","geometry":{"type":"Point","coordinates":[30.370957811195513,60.007347384482273]},"properties":{"unit_id":"ccbe58fb-bbfa-4c22-8fa1-ec44aa4757bf","address_id":"76c9515e-c97d-4888-acb6-bc43c39541d8"}},{"id":"84faa661-f532-4c10-acf6-b44dff0d7645","type":"Feature","feature_type":"anchor","geometry":{"type":"Point","coordinates":[30.374054701588307,60.007302433498019]},"properties":{"unit_id":"2ab09e6f-74ef-4e78-9791-e56b5c5e2704","address_id":"cf231793-67b4-477a-bdc0-b46d17e01472"}},{"id":"a291d54f-426c-40e0-8304-b2ac03e983a7","type":"Feature","feature_type":"anchor","geometry":{"type":"Point","coordinates":[30.372102689155589,60.007617303087436]},"properties":{"unit_id":"82d94462-af1d-4baa-a169-e56b3140bbae","address_id":"fa3b65ff-01c0-4b1b-97df-bcf26bee8d43"}},{"id":"6fb2fc1e-8247-4d8a-80cd-2cf8d8b74e2b","type":"Feature","feature_type":"anchor","geometry":{"type":"Point","coordinates":[30.374223785679376,60.007471486359492]},"properties":{"unit_id":"535f6e7a-b764-45c5-acfa-173190fc270d","address_id":"bfd2e422-d4fa-45ef-b113-926cff95da82"}},{"id":"cd20a57e-28c1-4a59-9d26-0d2b53141caa","type":"Feature","feature_type":"anchor","geometry":{"type":"Point","coordinates":[30.374145166907219,60.007484933368829]},"properties":{"unit_id":"31ac79bb-98e6-459b-9abc-3c2dd3dff2d1","address_id":"c38e771a-84ce-4829-96de-9ec69b2c1e36"}},{"id":"4f568d70-c745-4003-89af-bee71100c433","type":"Feature","feature_type":"anchor","geometry":{"type":"Point","coordinates":[30.374193266034144,60.007491011364358]},"properties":{"unit_id":"c105eade-342f-4c47-b424-e47584d9ed0a","address_id":"5de09be8-d1e9-4968-bd5b-a7c6162acc52"}},{"id":"afba2293-e9ce-48f8-9982-07f743de1288","type":"Feature","feature_type":"anchor","geometry":{"type":"Point","coordinates":[30.373054507368522,60.007368956069485]},"properties":{"unit_id":"a3b86676-4c56-47c0-a00f-1c7e1ac491a8","address_id":"04ffbfad-6bde-498f-9dac-1c748ed3579b"}},{"id":"51dd00e3-02b2-4387-a90c-80ad56c54914","type":"Feature","feature_type":"anchor","geometry":{"type":"Point","coordinates":[30.371188712169477,60.007559770987278]},"properties":{"unit_id":"d0749baa-4a43-4b9b-ada1-370ac6363577","address_id":"4ec55842-b0f1-42ef-93ed-86a06f2a3427"}},{"id":"7cd7c992-4577-4c96-9e97-2e1ad339b5bf","type":"Feature","feature_type":"anchor","geometry":{"type":"Point","coordinates":[30.37116687602548,60.007527862471342]},"properties":{"unit_id":"f923dcff-480f-4db4-ab48-f268d27b94df","address_id":"09d93328-cea2-4b59-b76f-ec788641cc04"}},{"id":"30f2cc6b-9b6c-49df-a555-9ba0ea9d0beb","type":"Feature","feature_type":"anchor","geometry":{"type":"Point","coordinates":[30.371145040177048,60.007495953955413]},"properties":{"unit_id":"5c66f63c-7861-48d9-bf8c-0061d2c949b5","address_id":"ce306222-c54b-424d-9d42-b7e230fb8c8f"}},{"id":"8ef3d097-acb3-48bc-bb36-33dd2e3bfcbe","type":"Feature","feature_type":"anchor","geometry":{"type":"Point","coordinates":[30.371123203800714,60.00746404516503]},"properties":{"unit_id":"be2b93a8-106b-4775-9a6c-7506b05ff84a","address_id":"609d67d9-a953-406a-a5eb-18dfabf4d5b0"}},{"id":"2c770885-140c-4be8-9e1b-bc88141179ef","type":"Feature","feature_type":"anchor","geometry":{"type":"Point","coordinates":[30.37110136771992,60.007432136649093]},"properties":{"unit_id":"4e15989a-1851-40f4-a149-a4508bd075fe","address_id":"f85a52af-a293-4ef7-9385-31f0552c0368"}},{"id":"f34ca20f-6407-4e5c-bb40-6d51f17fb823","type":"Feature","feature_type":"anchor","geometry":{"type":"Point","coordinates":[30.371079532209183,60.007400228133164]},"properties":{"unit_id":"be806544-6f11-426a-a7cd-48bce3b9f73b","address_id":"1f0698e2-0b59-408e-afe6-feb00f2a7230"}},{"id":"4b58bbdb-fee6-440b-9cb8-ddaa7081db27","type":"Feature","feature_type":"anchor","geometry":{"type":"Point","coordinates":[30.371057696170524,60.007368319617228]},"properties":{"unit_id":"cdda9dc5-f516-472f-a453-3ef6608e540c","address_id":"70fec319-ddcd-4b48-81b6-b45f31f3c0bf"}},{"id":"eedb6e5b-de15-459f-9e1c-f33640869c09","type":"Feature","feature_type":"anchor","geometry":{"type":"Point","coordinates":[30.372932893973186,60.007232925446772]},"properties":{"unit_id":"d7066d75-c1de-4080-a56d-58c3da245343","address_id":"d3eb05cf-1af2-44a6-8869-5e773dc7b02a"}},{"id":"811e61a5-f64c-49f5-bc01-531f591f8e1f","type":"Feature","feature_type":"anchor","geometry":{"type":"Point","coordinates":[30.371452762950394,60.00807064564048]},"properties":{"unit_id":"f4fc2b3e-c5ad-4f1d-8011-228e59c47061","address_id":"83fb4867-990b-4122-86a1-62be45bddef5"}},{"id":"1a053bf9-f9de-408c-b837-0844fe72ed63","type":"Feature","feature_type":"anchor","geometry":{"type":"Point","coordinates":[30.374196914757036,60.007301871422037]},"properties":{"unit_id":"8604e38c-ddff-4d89-90d2-f246b772dbbc","address_id":"a99b2578-4f5e-4c8d-9af5-a6c0b583a3ca"}},{"id":"33dd2ba9-3b39-4c6c-b9ba-d09f779b5899","type":"Feature","feature_type":"anchor","geometry":{"type":"Point","coordinates":[30.371750629788384,60.0080196981727]},"properties":{"unit_id":"d9eeface-6365-41ac-8f84-5c7bfbc81641","address_id":"42be09e6-dad4-412c-8059-23c4d0889041"}},{"id":"458045fb-8971-4f4a-8e8e-5ea61f909ca5","type":"Feature","feature_type":"anchor","geometry":{"type":"Point","coordinates":[30.371988034280481,60.007659331715665]},"properties":{"unit_id":"e96c781f-87fd-449d-9376-0a206e338e8e","address_id":"eae6ba11-8d3f-425d-9ae8-f34c4839520b"}},{"id":"2f0cdb13-db30-4b7a-864b-a9d4a839fe09","type":"Feature","feature_type":"anchor","geometry":{"type":"Point","coordinates":[30.371445705079854,60.007577596316068]},"properties":{"unit_id":"f27a8898-11ce-4677-8bf6-1a6f36964aa7","address_id":"4481af5d-2fbb-4558-a7b6-e70096e38942"}},{"id":"aba1089e-e9ab-4d82-ab6d-462023a0f1d3","type":"Feature","feature_type":"anchor","geometry":{"type":"Point","coordinates":[30.37451871117166,60.007051977048405]},"properties":{"unit_id":"b2de200b-5d20-4102-a837-d84edb00cea3","address_id":"f9e575fc-50b0-4807-b823-7c508340fdf7"}},{"id":"503e387c-76b1-4038-967e-043e2974325f","type":"Feature","feature_type":"anchor","geometry":{"type":"Point","coordinates":[30.374454884090873,60.007062894441347]},"properties":{"unit_id":"4c1e10d8-4a25-46a6-8bac-bda728497620","address_id":"01eec041-3255-41cd-b1b2-f492ff059dec"}},{"id":"f496135a-1ffc-4012-bf53-4c4aa40c6a3b","type":"Feature","feature_type":"anchor","geometry":{"type":"Point","coordinates":[30.374391056851771,60.007073811834289]},"properties":{"unit_id":"241e1537-96bf-422c-8345-0ee3849a26a2","address_id":"3341af40-c4e8-4e33-91cc-3212f25b30f8"}},{"id":"263f5031-fe18-4b79-8c0a-6a8cbd08fe65","type":"Feature","feature_type":"anchor","geometry":{"type":"Point","coordinates":[30.37356555605837,60.0072150095491]},"properties":{"unit_id":"0601ae9a-dd59-4e1c-80a8-eaebd9b92863","address_id":"472e776b-b33b-4c4f-8b9c-4908d2135db9"}},{"id":"c0b39028-1204-48f6-b7e0-d52d70f5ebb0","type":"Feature","feature_type":"anchor","geometry":{"type":"Point","coordinates":[30.373501728800196,60.007225926942041]},"properties":{"unit_id":"e7e698d4-b829-48cd-aae7-3aa0144c5fbf","address_id":"b16b2cde-d222-4491-ad07-3318d54e4c19"}},{"id":"18c6d7c6-9b59-4ab5-8d00-1f8f816504e9","type":"Feature","feature_type":"anchor","geometry":{"type":"Point","coordinates":[30.374199574596314,60.007106563738652]},"properties":{"unit_id":"7e970e9b-1cc1-4dbb-8315-db35f520b5e4","address_id":"17f13863-b47f-48a5-86ad-f85d36e2f3b0"}},{"id":"726c17e6-681b-4c18-b5cc-35180b247278","type":"Feature","feature_type":"anchor","geometry":{"type":"Point","coordinates":[30.374135747684672,60.007117481131594]},"properties":{"unit_id":"415a6e4c-dbf1-49d4-8654-b80e30fb4fa3","address_id":"cfe69066-5a94-41b0-bc8f-0c4450089cfc"}},{"id":"ff3de913-6b11-4505-a1e8-225b31cad4f6","type":"Feature","feature_type":"anchor","geometry":{"type":"Point","coordinates":[30.372577843928077,60.0073839515323]},"properties":{"unit_id":"a8fb8ae1-1516-4e63-8c98-4492786f6923","address_id":"e1a985ff-bae9-4a0e-b76f-3ad21fd74a4e"}},{"id":"73dda311-3326-4120-a622-f8628f68becc","type":"Feature","feature_type":"anchor","geometry":{"type":"Point","coordinates":[30.372514016481105,60.007394868925239]},"properties":{"unit_id":"d160083d-3745-4da0-b49f-79f2057b3c2b","address_id":"896d3773-7db5-44bc-9463-191374abad7e"}},{"id":"5bfd1813-6061-4d15-ba94-39f355121539","type":"Feature","feature_type":"anchor","geometry":{"type":"Point","coordinates":[30.372450188189578,60.007405786318181]},"properties":{"unit_id":"8eda618d-b176-4f07-995e-8f5132ffe6d0","address_id":"cb371049-16d9-433a-9f66-6f4f1250ec07"}},{"id":"98b73e5a-359a-4f4b-98c8-983322a49485","type":"Feature","feature_type":"anchor","geometry":{"type":"Point","coordinates":[30.372386360425971,60.007416703711115]},"properties":{"unit_id":"4eee6791-b5d6-42c8-920f-eced7a2ce79e","address_id":"37b72797-9b86-4552-b3ae-e28d4570f12e"}},{"id":"60a5d843-c545-4eec-ab13-edbcfdf7fc72","type":"Feature","feature_type":"anchor","geometry":{"type":"Point","coordinates":[30.372322532641306,60.0074276208296]},"properties":{"unit_id":"836ea6a7-b2a0-410f-af78-a8e151e588d3","address_id":"95bc9f08-0cf8-43ca-ad75-b21eca7a7abb"}},{"id":"055c7ab1-9d60-4645-b215-0af847a68629","type":"Feature","feature_type":"anchor","geometry":{"type":"Point","coordinates":[30.372258704561048,60.007438538497]},"properties":{"unit_id":"c1d662d8-7d54-4e9b-9ee2-04c56f759581","address_id":"e28f10fd-72c7-417d-b18c-97bca1bc4136"}},{"id":"6c626ab3-8969-4f00-afb9-a1dacdfc6895","type":"Feature","feature_type":"anchor","geometry":{"type":"Point","coordinates":[30.37219487673423,60.007449455889933]},"properties":{"unit_id":"59a8c157-af46-440a-b8d3-c8fee0f09582","address_id":"0a6f7c01-189a-4107-bdab-36e9bf1ec0d2"}},{"id":"154b402a-c0ac-4a81-a725-ab5303734291","type":"Feature","feature_type":"anchor","geometry":{"type":"Point","coordinates":[30.371539319544745,60.00756158428613]},"properties":{"unit_id":"2c74c9d2-93af-4130-ba19-c1a23fd897be","address_id":"42cb6011-ba24-4165-9bf1-be9e43ae2b7b"}},{"id":"540041ac-e96a-4d60-aaa4-c8e0f703c8e4","type":"Feature","feature_type":"anchor","geometry":{"type":"Point","coordinates":[30.371632934513304,60.007545572256191]},"properties":{"unit_id":"85bc0676-0b41-4c4f-b7a7-57a185cf4e39","address_id":"70812bbc-2ee2-499e-a75a-95331e3285da"}},{"id":"80ee6007-c0f4-4094-b96f-7e7b0711a8c5","type":"Feature","feature_type":"anchor","geometry":{"type":"Point","coordinates":[30.37169676225114,60.0075346545888]},"properties":{"unit_id":"0ab7661f-fb5c-4155-a085-392f5cb49656","address_id":"56cba63e-5b31-49bb-bd75-54944385af5e"}},{"id":"ca485863-19ad-4e93-ad93-98b31f656b8c","type":"Feature","feature_type":"anchor","geometry":{"type":"Point","coordinates":[30.371760590242371,60.007523737470315]},"properties":{"unit_id":"d695f12f-c9f4-4d47-a18a-691a8071cf89","address_id":"2f8ea29f-af01-403a-aecb-b02c084621d3"}},{"id":"8be1266d-3f82-4839-80df-d8dd69ce57a9","type":"Feature","feature_type":"anchor","geometry":{"type":"Point","coordinates":[30.371824418212547,60.007512820077373]},"properties":{"unit_id":"80e56511-3097-4acb-b88c-f6cecc619332","address_id":"2810369d-cef2-44d4-b77c-0113fb8436bd"}}]}