{"type":"FeatureCollection","name":"anchor","features":[{"id":"530477d4-d2ae-4e78-b9e2-f3847338a6e9","type":"Feature","feature_type":"anchor","geometry":{"type":"Point","coordinates":[30.374454373578,60.006772993216217]},"properties":{"unit_id":"7eebacaa-c643-4b84-9792-c36affe4ff21","address_id":"fe3a7d46-59e7-4417-afff-ea4a203f422a"}},{"id":"6603fb92-bf4b-4aa3-85a9-71cb51315d0c","type":"Feature","feature_type":"anchor","geometry":{"type":"Point","coordinates":[30.374943353679914,60.00749727643057]},"properties":{"unit_id":"bde5c52c-0e7c-4041-98e0-60c797caf0ba","address_id":"4487d637-9707-4531-bdc3-d1fa9b2d5f54"}},{"id":"3ebc8f9e-0b77-4ec1-bc0c-4dbfbd751c17","type":"Feature","feature_type":"anchor","geometry":{"type":"Point","coordinates":[30.371542885808225,60.00807102016131]},"properties":{"unit_id":"9d73ff3a-14bc-4b1f-b8ee-4a0828e2ee06","address_id":"eaaf00bf-f6f4-4be3-8049-6e39cd4c0eda"}},{"id":"f4bbede2-209e-41b9-8c4d-cc1e966bebd7","type":"Feature","feature_type":"anchor","geometry":{"type":"Point","coordinates":[30.374897571470012,60.007461102394608]},"properties":{"unit_id":"e95d4f90-9198-46cf-b930-9881f8c33333","address_id":"e2b66c12-fe00-438c-919b-e984a56da532"}},{"id":"b3c26cd6-87be-449f-b915-8ca7c97a8d63","type":"Feature","feature_type":"anchor","geometry":{"type":"Point","coordinates":[30.371512020104827,60.008032329133712]},"properties":{"unit_id":"e45bdf9a-51c9-47a8-9995-eb262f01d5bc","address_id":"c00b987c-185c-4505-ae17-762a21d24657"}},{"id":"3f86b357-7392-4cf8-9047-9163a297b287","type":"Feature","feature_type":"anchor","geometry":{"type":"Point","coordinates":[30.370968555256333,60.007339787020079]},"properties":{"unit_id":"9c4456ae-6b07-48df-bcf3-d173e4d6fdf9","address_id":"a031714b-5738-4825-b588-6d375250c2cd"}},{"id":"2fcc4565-bc23-444e-852e-7d517ee50cd6","type":"Feature","feature_type":"anchor","geometry":{"type":"Point","coordinates":[30.374485240552104,60.006811683969367]},"properties":{"unit_id":"53c0a9ad-b19c-4ef2-a979-dcf8b9d555b6","address_id":"b391d385-2ca5-4834-a17d-5bb8c18d55f5"}},{"id":"07c038a7-3aec-4038-a1ed-aaffec27a2d9","type":"Feature","feature_type":"anchor","geometry":{"type":"Point","coordinates":[30.371076282125017,60.007386865275322]},"properties":{"unit_id":"a71fad9b-73f3-493d-bf80-39f9cb3065df","address_id":"6afb85ee-879e-4cd0-b811-dd2af80c78d8"}},{"id":"4054898c-aa95-4a00-8fde-b4e0da44fef7","type":"Feature","feature_type":"anchor","geometry":{"type":"Point","coordinates":[30.37099364612197,60.007271485730612]},"properties":{"unit_id":"a48d92ae-23f7-483d-a12c-d1487d308648","address_id":"f56915f9-8075-4f24-a06e-568273a22dfc"}},{"id":"a724d371-ca0d-406c-ab5e-e8ae019236ca","type":"Feature","feature_type":"anchor","geometry":{"type":"Point","coordinates":[30.374411121948409,60.006694866574996]},"properties":{"unit_id":"663313ee-a19e-4e4b-b74b-6ae01ff8fed6","address_id":"78e7c57f-6fe0-4358-baa9-1ec12693c6c9"}},{"id":"4711e06c-dccb-4183-be03-b2a409411d77","type":"Feature","feature_type":"anchor","geometry":{"type":"Point","coordinates":[30.37423545799756,60.007165865669371]},"properties":{"unit_id":"c73c81a4-bb4c-4c85-8779-2b87f72a0296","address_id":"0b8aa025-de71-45b5-9468-dcdc1a0ee4d3"}},{"id":"1f9ef5b8-2dcc-43c4-8549-02ddb9f5dbee","type":"Feature","feature_type":"anchor","geometry":{"type":"Point","coordinates":[30.3736388909232,60.00726652228127]},"properties":{"unit_id":"a4f31f5c-b716-4278-a7ef-b106a8df113b","address_id":"ce3eabfe-61ee-4bb2-a30e-913a17b33362"}},{"id":"2a0137ff-1ce4-4935-b079-02e19d78698e","type":"Feature","feature_type":"anchor","geometry":{"type":"Point","coordinates":[30.372300869823793,60.007492280870444]},"properties":{"unit_id":"78cb74e5-f231-4b87-bfdc-7f2b7c40e472","address_id":"59e804bb-ec26-4d20-b971-717ce64f8377"}},{"id":"2902288f-6bd6-499c-a8c0-f8d58033447d","type":"Feature","feature_type":"anchor","geometry":{"type":"Point","coordinates":[30.371704296861445,60.00759293775679]},"properties":{"unit_id":"e98461e2-266b-4430-a24a-f46624963bc3","address_id":"a10ad88a-d6f8-4a0f-8c2f-f0e21ceef18b"}},{"id":"eeff471d-b48e-4f30-82f8-b101479f1e81","type":"Feature","feature_type":"anchor","geometry":{"type":"Point","coordinates":[30.374061297956754,60.00745830409052]},"properties":{"unit_id":"7496a739-6d9e-4a0e-9369-8fe3ae8595d0","address_id":"695d9085-971e-45bb-a076-abc585283652"}},{"id":"ac15d1e8-81dc-4bf1-861d-13f2bf3e2aec","type":"Feature","feature_type":"anchor","geometry":{"type":"Point","coordinates":[30.372129826245455,60.007822496945714]},"properties":{"unit_id":"60595c18-7acc-4f81-aa8d-e57f3a8eca52","address_id":"f4ef5643-1cb2-4da4-9d5f-2475f816588a"}},{"id":"36316d30-8611-4e44-8339-afa9e3a6160c","type":"Feature","feature_type":"anchor","geometry":{"type":"Point","coordinates":[30.374020587797066,60.007339748322465]},"properties":{"unit_id":"98bb76e7-ea1d-45bd-af2c-5dbe0c32fbcc","address_id":"48f54af9-49ea-4d48-8371-4615871e30f7"}},{"id":"e4463292-969c-4ce7-bad7-5058a7432fe7","type":"Feature","feature_type":"anchor","geometry":{"type":"Point","coordinates":[30.372085993202738,60.007666163523538]},"properties":{"unit_id":"517b169d-a230-402a-a692-e72e320819ac","address_id":"1f7d620e-b551-47b7-bd00-08ef0dfba05c"}},{"id":"5e7d073f-9c30-43d5-a5fc-97c9243bd599","type":"Feature","feature_type":"anchor","geometry":{"type":"Point","coordinates":[30.372020583365352,60.0076677081347]},"properties":{"unit_id":"297cbcf0-220e-4d48-86bf-9b213c893fc8","address_id":"1129d6be-490e-4345-b5e4-f07b877847d8"}},{"id":"c018385c-0c8c-4aab-8798-909637e0982d","type":"Feature","feature_type":"anchor","geometry":{"type":"Point","coordinates":[30.37395517846489,60.007341292933631]},"properties":{"unit_id":"4dbc7268-70e3-4501-9c0b-1690634d678d","address_id":"2a437004-effc-40be-bcdb-30a29bec6bdd"}},{"id":"c25359c2-6e1e-4a4c-a8c5-57dc38e01a2c","type":"Feature","feature_type":"anchor","geometry":{"type":"Point","coordinates":[30.372653587813438,60.007684295139832]},"properties":{"unit_id":"8bdb5fbf-6940-46cd-ab89-a33c8c80ef80","address_id":"0583393c-5f22-4f4f-b5a9-3adc955d3ae8"}},{"id":"cca09d6e-e86c-433a-9f27-5020ef1a4b89","type":"Feature","feature_type":"anchor","geometry":{"type":"Point","coordinates":[30.372782863017484,60.007664856038183]},"properties":{"unit_id":"7f22de86-8711-4971-82cd-1e73d4babd5e","address_id":"f5dfe751-ec8c-4377-bcec-28339809fab5"}},{"id":"8862626a-7e2c-46c6-8c4c-efb299fc4802","type":"Feature","feature_type":"anchor","geometry":{"type":"Point","coordinates":[30.373426255229187,60.007549180909564]},"properties":{"unit_id":"b85db5ea-6b42-4757-8c55-16e139285380","address_id":"b4ae21d8-d32e-4cfe-bc2b-863196f87653"}},{"id":"1c24dedd-8fbd-4fe6-befd-f02d6955ec92","type":"Feature","feature_type":"anchor","geometry":{"type":"Point","coordinates":[30.375003650819863,60.007572527372467]},"properties":{"unit_id":"29345e28-2a11-41be-bd1a-aa91ec56f7d3","address_id":"f8800483-3e6d-4cf7-847e-27363ca89d38"}},{"id":"11b74998-546b-412e-a102-52703b1e19b9","type":"Feature","feature_type":"anchor","geometry":{"type":"Point","coordinates":[30.371586134949844,60.008149146528076]},"properties":{"unit_id":"907e63d9-198a-4092-8c39-1e37393dff1c","address_id":"4f4552f1-2607-432e-8f4b-07a960be4b69"}},{"id":"f7eb6b10-8abf-408a-be42-ebbd0bf6a55b","type":"Feature","feature_type":"anchor","geometry":{"type":"Point","coordinates":[30.374506785505602,60.006745166612475]},"properties":{"unit_id":"5df5cffc-c570-4598-851c-caedb7b53164","address_id":"7aa3fc26-7e67-47bb-8e74-6ea8d15e8a90"}},{"id":"115efb56-9ad3-48d1-8926-dc7bb8438ab6","type":"Feature","feature_type":"anchor","geometry":{"type":"Point","coordinates":[30.370837894872292,60.007364205489239]},"properties":{"unit_id":"e8157a1f-ffa1-4916-bd85-d1241fe15f18","address_id":"9f5a3b33-0cae-4bce-8f89-91dc75e46210"}},{"id":"b2f9f6d4-e7bc-4ca4-9e16-2aeb45a461b4","type":"Feature","feature_type":"anchor","geometry":{"type":"Point","coordinates":[30.371326839881323,60.008088488703585]},"properties":{"unit_id":"228499e6-dbd6-4b8e-8caa-89d49b819b7e","address_id":"0fc604b6-e763-4ef3-aae9-d33d6106baad"}},{"id":"832c3a66-dc87-4dde-9e9b-5ff6e6ce390c","type":"Feature","feature_type":"anchor","geometry":{"type":"Point","coordinates":[30.37499576611296,60.007469449826829]},"properties":{"unit_id":"8fbd13e8-89a2-41f0-87c7-3f8e40fff599","address_id":"9707d6f0-7e93-4d3e-a403-000192eb49ff"}},{"id":"ddfcda1f-d17f-48e1-a595-62563cc44d44","type":"Feature","feature_type":"anchor","geometry":{"type":"Point","coordinates":[30.373610659481646,60.0074848462628]},"properties":{"unit_id":"d22759f8-c2e6-4db4-b49b-33b45a53374c","address_id":"bfe1aaec-2ce1-4ae9-b8d7-094fe3fd692b"}},{"id":"1b2d6413-0352-4617-98b8-34f74b436991","type":"Feature","feature_type":"anchor","geometry":{"type":"Point","coordinates":[30.372219261552754,60.007705372989392]},"properties":{"unit_id":"e7921a7c-e393-4bf0-a981-760de92fa332","address_id":"835c349d-7bea-47f5-b138-dc731960103f"}},{"id":"e89cc499-8376-4aa0-b64b-f4216172c22f","type":"Feature","feature_type":"anchor","geometry":{"type":"Point","coordinates":[30.372027505831365,60.007737726939567]},"properties":{"unit_id":"e386f2bc-fd5d-43c6-965d-b6095778cb04","address_id":"e55fe401-9f3d-4e7c-a5c1-1269ad43b821"}},{"id":"001e0ab6-755e-457e-834b-958c32d9f618","type":"Feature","feature_type":"anchor","geometry":{"type":"Point","coordinates":[30.3721410655446,60.007803990703579]},"properties":{"unit_id":"ac9fcdb5-fbff-4977-b26e-e42f95db5583","address_id":"5a9e6526-ba0f-4a26-aef1-ed4e79d413e0"}},{"id":"722f2b9f-421b-4810-9462-2ec655c6e01e","type":"Feature","feature_type":"anchor","geometry":{"type":"Point","coordinates":[30.371974478249395,60.007751419857151]},"properties":{"unit_id":"886d5758-e397-4191-8bda-7f60ed78c8a0","address_id":"2775f066-7f9b-4548-90a8-126a90652c85"}},{"id":"d8190d82-19b1-47fe-8a4e-8b78057c4dc4","type":"Feature","feature_type":"anchor","geometry":{"type":"Point","coordinates":[30.372278041624774,60.007700201231614]},"properties":{"unit_id":"b6325dcf-816a-4b8b-ae6c-b1438cf4705a","address_id":"1a482969-ec25-4a31-9adc-71709861cf65"}},{"id":"573d3498-8eb7-48f0-9062-d026a3b6dfbf","type":"Feature","feature_type":"anchor","geometry":{"type":"Point","coordinates":[30.372077474820273,60.007858726146353]},"properties":{"unit_id":"5f2da05a-0a44-4c01-b19d-6846dbfee07d","address_id":"a461617f-08c1-4ebb-8ccc-f1b7938464f4"}},{"id":"f2a1e012-077c-4588-81e8-ea9c16cf2fe7","type":"Feature","feature_type":"anchor","geometry":{"type":"Point","coordinates":[30.3723261775721,60.0078167639353]},"properties":{"unit_id":"fd2f70ca-9771-40b9-9621-d4df0362536c","address_id":"270bb15c-792e-412f-951d-f7ebb6a2859f"}},{"id":"29d3ea03-017f-4469-8fa8-cd3126512021","type":"Feature","feature_type":"anchor","geometry":{"type":"Point","coordinates":[30.372980211429109,60.007619693726532]},"properties":{"unit_id":"342d7c32-8e84-4481-9937-08e80a862bb5","address_id":"866ad83c-1f7f-42de-a98d-42a6f9555100"}},{"id":"d549e5da-40bd-4f96-a8e4-f444df7f9565","type":"Feature","feature_type":"anchor","geometry":{"type":"Point","coordinates":[30.374020587797066,60.007339748322465]},"properties":{"unit_id":"724b9719-90c8-47a8-8199-4f0f099c031a","address_id":"5e1188df-7d7a-434d-8700-37c6424d175d"}},{"id":"638e6c16-357d-414c-af7c-b365d3d1d3a1","type":"Feature","feature_type":"anchor","geometry":{"type":"Point","coordinates":[30.372085993202738,60.007666163523538]},"properties":{"unit_id":"46088961-1490-4233-a4ba-630c0c2a75a7","address_id":"3a978995-3f33-4943-b32e-7b26b7075dd5"}},{"id":"b6570ea9-c652-4f16-8530-919efa2b4fa1","type":"Feature","feature_type":"anchor","geometry":{"type":"Point","coordinates":[30.37213989847108,60.007647576867207]},"properties":{"unit_id":"5d0504aa-782b-4b54-9680-a497b73759f8","address_id":"39d5bb58-84e6-41aa-b0b6-4c94d377d282"}},{"id":"4e621825-29d5-4c0f-80dc-e4fe29cc736a","type":"Feature","feature_type":"anchor","geometry":{"type":"Point","coordinates":[30.372020583365352,60.0076677081347]},"properties":{"unit_id":"ab09f8de-5950-43fd-99fa-f893fd77e0ad","address_id":"3615c863-3d2e-4882-98d2-08b16334ba30"}},{"id":"a57fdbb5-2e12-4352-917d-f6ff339ea7d4","type":"Feature","feature_type":"anchor","geometry":{"type":"Point","coordinates":[30.374074491844031,60.007321161391687]},"properties":{"unit_id":"1c5baeae-f481-4a86-870e-75be31c7e77a","address_id":"5fdc6374-9581-4c85-859b-d42568317540"}},{"id":"4f3fdf1a-1e48-4045-b3cd-77d28707da27","type":"Feature","feature_type":"anchor","geometry":{"type":"Point","coordinates":[30.37395517846489,60.007341292933631]},"properties":{"unit_id":"607f135e-7451-4494-83f5-3a7c26811885","address_id":"5f991c8a-4cec-4faa-902b-e29a18a0582b"}},{"id":"3131afc5-5ccb-4201-a897-b9aae1fa2b5d","type":"Feature","feature_type":"anchor","geometry":{"type":"Point","coordinates":[30.372093183755005,60.007676814698847]},"properties":{"unit_id":"48e505de-c42f-4b6e-a6f0-adaac6ebf01e","address_id":"3d10e819-87bb-48bb-82b5-023cb1cfb151"}},{"id":"1f2c7082-bd56-4ae6-bd81-71fed505f166","type":"Feature","feature_type":"anchor","geometry":{"type":"Point","coordinates":[30.371217996148221,60.007319056076788]},"properties":{"unit_id":"28dd1d1b-9ac3-47d1-81ec-68a376746b59","address_id":"0a807cea-9db5-458e-9417-4c0336a6a2e3"}},{"id":"cd0f1f14-b382-4d3f-a48a-7c373fbc30af","type":"Feature","feature_type":"anchor","geometry":{"type":"Point","coordinates":[30.374582801691865,60.007494042572475]},"properties":{"unit_id":"6fa7c1d0-b2b1-4179-a344-9ce63507a281","address_id":"8cb6fe5d-05b6-4305-b402-7bce79c1afbc"}},{"id":"a980c203-22a8-484a-8d8e-83c2559be860","type":"Feature","feature_type":"anchor","geometry":{"type":"Point","coordinates":[30.374347742992384,60.007536076140831]},"properties":{"unit_id":"5f447638-08f6-47a7-b782-fd185abc8ae4","address_id":"a7479e8a-2319-4541-971a-7f85f5b40b65"}},{"id":"d0f94708-b60b-44c9-9089-9249717f8c6d","type":"Feature","feature_type":"anchor","geometry":{"type":"Point","coordinates":[30.373998323514915,60.00759503209364]},"properties":{"unit_id":"2efb7083-fdde-4ae4-a303-8e328bb20c7d","address_id":"3294aaf6-b384-40fb-b7b5-d3dc7d06fb9d"}},{"id":"7fb0a1b2-e63f-4b65-b442-5fb124cd1715","type":"Feature","feature_type":"anchor","geometry":{"type":"Point","coordinates":[30.3741787857313,60.007574075277041]},"properties":{"unit_id":"e8e9bffd-bf23-46ba-b3d1-07461e4b9e22","address_id":"2a7504eb-0044-435a-a2f9-38f983418d84"}},{"id":"4171ee99-3baf-4144-9e0a-0f8cc3c07cc1","type":"Feature","feature_type":"anchor","geometry":{"type":"Point","coordinates":[30.372653587813438,60.007684295139832]},"properties":{"unit_id":"244b82e1-a155-4cd2-ab2d-a1616826ba24","address_id":"caab82bf-59c5-4d8a-9d1a-9fa623197d2b"}},{"id":"99f74236-b510-4517-8df1-115fdc534c95","type":"Feature","feature_type":"anchor","geometry":{"type":"Point","coordinates":[30.371419966512388,60.00760769115368]},"properties":{"unit_id":"633b7b16-4cee-4e12-a03a-8101622a01c0","address_id":"ba773d1c-ce99-46a0-bcbe-b507aa68826f"}},{"id":"cff9ceb5-10d4-43ef-ac79-40aae203d954","type":"Feature","feature_type":"anchor","geometry":{"type":"Point","coordinates":[30.37447951708052,60.007091465526088]},"properties":{"unit_id":"f05b6cff-38e0-4b71-8319-a3ef6eec63e0","address_id":"84eaf842-d7a2-48b9-9742-3d7bd4f7f160"}},{"id":"b86a6f1d-de7f-4239-8666-fe9f8e804e75","type":"Feature","feature_type":"anchor","geometry":{"type":"Point","coordinates":[30.37170694498564,60.008043339565596]},"properties":{"unit_id":"ad6953da-55bf-4442-9cf3-07f71dfa7e40","address_id":"beab17a9-95c1-460c-89e1-91670d22a670"}},{"id":"c3c6078e-dfa7-4153-b720-4bbc345f4d23","type":"Feature","feature_type":"anchor","geometry":{"type":"Point","coordinates":[30.372782863017484,60.007664856038183]},"properties":{"unit_id":"bb134a28-1fcc-4fa3-b821-b362b44ecfd1","address_id":"bd8c8e2f-3ae2-4e21-986c-678a33d5d702"}},{"id":"6e0eeeae-bbd4-48c1-b5e0-a9ca87f59b44","type":"Feature","feature_type":"anchor","geometry":{"type":"Point","coordinates":[30.373426255229187,60.007549180909564]},"properties":{"unit_id":"eb6a6792-4d18-4294-9a53-4f35ee4893b8","address_id":"afd5cec2-7a43-4d40-a887-df02d370205f"}},{"id":"6b335f8c-36bc-4d06-9d20-72e72f598e59","type":"Feature","feature_type":"anchor","geometry":{"type":"Point","coordinates":[30.371709711873844,60.008128296472982]},"properties":{"unit_id":"5eea5d69-04c5-4007-b9f0-18481c5796d2","address_id":"7eb24ace-8fb8-449e-aec2-a12e1138a350"}},{"id":"d1174a5d-c9c7-4dc0-a45a-66faa4a817f6","type":"Feature","feature_type":"anchor","geometry":{"type":"Point","coordinates":[30.374873684025964,60.007594456020641]},"properties":{"unit_id":"7c602592-2f0f-450f-accc-2ee5f287cbfd","address_id":"94116c1e-81d1-4c40-9784-34030285a712"}},{"id":"2db96e2d-2d30-49c7-9602-c16ff4e9e2af","type":"Feature","feature_type":"anchor","geometry":{"type":"Point","coordinates":[30.375069699507875,60.007561383282862]},"properties":{"unit_id":"49d50405-23e0-40b1-9dc6-fd188228c371","address_id":"cfb11b66-9fb5-4949-b96b-a1361bcf633a"}},{"id":"e5a0fff9-c4fc-431a-a7b1-a41912d19ffc","type":"Feature","feature_type":"anchor","geometry":{"type":"Point","coordinates":[30.371513693306355,60.008161369485215]},"properties":{"unit_id":"a8502902-5079-440a-8892-573ff7c57647","address_id":"fb1eb9dd-f3c8-44ed-aa69-106089b94623"}},{"id":"98dfc9eb-8eeb-483b-a4b5-a48651aeb1b7","type":"Feature","feature_type":"anchor","geometry":{"type":"Point","coordinates":[30.374506785505602,60.006745166612475]},"properties":{"unit_id":"dce85268-d289-4116-b89f-1f95416b3f30","address_id":"ee8f4b49-fad5-489b-8b7b-befd693a4c31"}},{"id":"58824c98-c211-4d7d-a23f-43a8027f1487","type":"Feature","feature_type":"anchor","geometry":{"type":"Point","coordinates":[30.370837894872292,60.007364205489239]},"properties":{"unit_id":"3f7d5b6b-e3f2-4c1a-8146-2d710f128a64","address_id":"b3ee24fe-359a-4465-aa33-67cdf9234fbf"}},{"id":"e2ed4a4f-595a-440e-a1a2-c2a3e690cd86","type":"Feature","feature_type":"anchor","geometry":{"type":"Point","coordinates":[30.371326839881323,60.008088488703585]},"properties":{"unit_id":"73f67dea-8371-472a-80f9-6f18f232a377","address_id":"613cda55-948f-436b-ab08-826209086711"}},{"id":"d2298097-ad07-43b4-80bf-b65a1bafcc52","type":"Feature","feature_type":"anchor","geometry":{"type":"Point","coordinates":[30.37499576611296,60.007469449826829]},"properties":{"unit_id":"d6103052-acdb-4225-b3a4-fe1a40ebe086","address_id":"0874ce7c-f954-49d6-be27-43342f983f64"}},{"id":"2f316be1-6526-4cd1-b0ff-5f7fa2bcd20c","type":"Feature","feature_type":"anchor","geometry":{"type":"Point","coordinates":[30.373044664171154,60.007490174457743]},"properties":{"unit_id":"65591438-984c-4b16-8c44-fea293c22250","address_id":"68d947b1-0562-4fc9-85a5-32956f4e083f"}},{"id":"4c632c31-ff58-4ef9-8b39-f757733481ca","type":"Feature","feature_type":"anchor","geometry":{"type":"Point","coordinates":[30.373610659481646,60.0074848462628]},"properties":{"unit_id":"dcd191a6-7601-48d0-a3ea-6814f1e4573f","address_id":"3698d26c-2463-4a29-8233-35e3e01d03fc"}},{"id":"5f4c8fb5-4e62-4373-8f94-22db2dc4f91a","type":"Feature","feature_type":"anchor","geometry":{"type":"Point","coordinates":[30.374510783345468,60.007088562930555]},"properties":{"unit_id":"c5b0e24c-10c3-4b74-a296-0a5c77ba191f","address_id":"2302090f-2389-444b-9e9f-ff37046a3191"}},{"id":"3bdb87d3-b6f5-4b15-92a4-be746cbaeb4f","type":"Feature","feature_type":"anchor","geometry":{"type":"Point","coordinates":[30.374027778625372,60.007350399497774]},"properties":{"unit_id":"b0c7a8b9-4f53-4c6a-9e62-c9f70b92e3d9","address_id":"a786940d-2a6c-4c21-afa3-8748327a7a35"}},{"id":"db7a4c25-cda5-459d-9387-8e40a6f3cbd3","type":"Feature","feature_type":"anchor","geometry":{"type":"Point","coordinates":[30.374138448282171,60.007514327258171]},"properties":{"unit_id":"5e091fb9-7a92-45d1-857d-c21659efb0f0","address_id":"41b55ec9-e018-410a-8c09-473ce530ec4d"}},{"id":"5932ed8d-cdb9-4496-99f0-8978df34ca43","type":"Feature","feature_type":"anchor","geometry":{"type":"Point","coordinates":[30.374092495909853,60.007446260624448]},"properties":{"unit_id":"6634551a-e557-4598-8447-c45a86663f39","address_id":"a808f67b-38b7-4f16-b31b-da66e99c0528"}},{"id":"e27c87f8-4051-4f48-bb58-717823703605","type":"Feature","feature_type":"anchor","geometry":{"type":"Point","coordinates":[30.374582801691865,60.007494042572475]},"properties":{"unit_id":"1df68e54-ed82-42ab-9426-41064f60393e","address_id":"6cc6d507-fcfe-4cb3-a7aa-b29720459c26"}},{"id":"5b100139-43b3-477f-99f9-4cc2b5230ff6","type":"Feature","feature_type":"anchor","geometry":{"type":"Point","coordinates":[30.374331429898756,60.00750798057495]},"properties":{"unit_id":"15d4bcfe-87af-4507-bf1c-b215e88b02cf","address_id":"5d533c88-c275-465c-8722-3e3f42a90dca"}},{"id":"ec8f10a1-c462-4425-8e16-05e210e866a2","type":"Feature","feature_type":"anchor","geometry":{"type":"Point","coordinates":[30.374353136237541,60.007544064590924]},"properties":{"unit_id":"a4fc509d-75ac-4750-a973-9f48bbe9c816","address_id":"28cd9a6c-1771-4708-b19c-169e89e8dde9"}},{"id":"6b4a8b97-51a1-48bf-b005-85e62294b7e1","type":"Feature","feature_type":"anchor","geometry":{"type":"Point","coordinates":[30.373998323514915,60.00759503209364]},"properties":{"unit_id":"1de90d4c-9442-4619-8c72-4e75c4f1ee87","address_id":"989aa65e-1c1b-4f9d-a3db-980304a5b2cb"}},{"id":"1bba92e9-a99a-4871-9537-b90e60820738","type":"Feature","feature_type":"anchor","geometry":{"type":"Point","coordinates":[30.3741787857313,60.007574075277041]},"properties":{"unit_id":"c7d93abf-e2f1-4f2e-bbfc-a90c5f3a381e","address_id":"9da42d44-8d30-4bdd-a00d-3e544fdd2736"}},{"id":"92d2bb7c-42eb-460f-a218-72229cbe05dc","type":"Feature","feature_type":"anchor","geometry":{"type":"Point","coordinates":[30.372662110194131,60.00768285729017]},"properties":{"unit_id":"7f2aedd7-3bf1-46bc-890b-e50e8a96517f","address_id":"ccf5c63b-f4a8-4efd-99ae-6a586d0bab13"}},{"id":"9c2dfee1-cae5-4ccf-9f14-f80f21c7d777","type":"Feature","feature_type":"anchor","geometry":{"type":"Point","coordinates":[30.371419966512388,60.00760769115368]},"properties":{"unit_id":"999cf1e4-f6eb-4e68-928b-3678dbcaf787","address_id":"ddf60ea9-2442-4df0-8fa1-bff0595806ab"}},{"id":"eecebdcf-99dc-45c5-966b-eac05ecb245b","type":"Feature","feature_type":"anchor","geometry":{"type":"Point","coordinates":[30.37447951708052,60.007091465526088]},"properties":{"unit_id":"0d4f27a3-fe66-4538-aee2-7cafa918b76a","address_id":"1b09da09-f3da-4c7f-be53-34231bb7cfe8"}},{"id":"ad5a46a5-82b9-4f53-9918-467a12be55eb","type":"Feature","feature_type":"anchor","geometry":{"type":"Point","coordinates":[30.374141392788069,60.007328856727938]},"properties":{"unit_id":"73ab527b-ffaa-4337-8f4a-f57e44249013","address_id":"bb9e0f2f-88fa-44df-b920-073c98a4adb0"}},{"id":"bda4a08c-9a31-499d-8e56-6b5c356458ab","type":"Feature","feature_type":"anchor","geometry":{"type":"Point","coordinates":[30.3719766921951,60.007694096888777]},"properties":{"unit_id":"f57c7f98-890c-4bb0-aaa6-ebfd89b327b1","address_id":"48a2fc9c-2d62-4f15-90bc-beccfd328480"}},{"id":"1cf7e768-8b28-4224-8934-45496a38ba24","type":"Feature","feature_type":"anchor","geometry":{"type":"Point","coordinates":[30.37170694498564,60.008043339565596]},"properties":{"unit_id":"e97a7d3f-9f46-4c06-9d50-c0770e59a905","address_id":"db3317cf-79f5-4656-9b1a-79726772d47e"}},{"id":"c58b2481-61bc-4a98-9f75-0bf3627c8d23","type":"Feature","feature_type":"anchor","geometry":{"type":"Point","coordinates":[30.372782863017484,60.007664856038183]},"properties":{"unit_id":"a82eb641-7c08-44a3-a442-50e3263644e5","address_id":"831391ce-5f52-4b11-83bb-9e34e1dc6daa"}},{"id":"ad030f10-ef58-4265-808e-b94b0c1654a5","type":"Feature","feature_type":"anchor","geometry":{"type":"Point","coordinates":[30.372879519307578,60.007245551193215]},"properties":{"unit_id":"0cb515c7-5b8c-4f76-8a16-d1660c72d325","address_id":"3d83ffe9-1de7-4e29-a47e-5132592a1e88"}},{"id":"f629e658-a1d5-48de-88e8-dc95eda5dc7b","type":"Feature","feature_type":"anchor","geometry":{"type":"Point","coordinates":[30.373426255229187,60.007549180909564]},"properties":{"unit_id":"a8dfceff-4f8b-4de1-a21a-1ae1a38739ab","address_id":"34d27d29-ac2b-4b6a-8ee8-b7a8a2bdf5a0"}},{"id":"3d7f8c62-34ca-4a44-a497-001ffdcc731b","type":"Feature","feature_type":"anchor","geometry":{"type":"Point","coordinates":[30.372656949474095,60.007372878969441]},"properties":{"unit_id":"20a15cd8-8366-43fe-b0c0-5bbda805bdd2","address_id":"d8b48083-0ae3-4d52-827a-a4dd25a560f0"}},{"id":"fd6ddce9-8921-464a-bdd3-5528eaf714a1","type":"Feature","feature_type":"anchor","geometry":{"type":"Point","coordinates":[30.373210906737373,60.007279412154737]},"properties":{"unit_id":"bcd6063f-140f-468e-8752-d59722485afc","address_id":"0fcb6b74-6016-4831-b11c-16967bb8b9c9"}},{"id":"bb884802-10f7-469a-8ddf-6e51ef3b32b8","type":"Feature","feature_type":"anchor","geometry":{"type":"Point","coordinates":[30.373210906737373,60.007279412154737]},"properties":{"unit_id":"bcd6063f-140f-468e-8752-d59722485afc","address_id":"bfc48b29-7e20-48a5-9c25-963adf828b81"}},{"id":"23957a9a-17d8-42e4-89f3-a1db4a67e266","type":"Feature","feature_type":"anchor","geometry":{"type":"Point","coordinates":[30.371709711873844,60.008128296472982]},"properties":{"unit_id":"20689b9d-020b-41ae-917a-846ee5129659","address_id":"9b0cce92-6284-4832-83b7-a26273adec8f"}},{"id":"ce710344-a66a-485a-93af-710e33f21fd0","type":"Feature","feature_type":"anchor","geometry":{"type":"Point","coordinates":[30.374915231639033,60.007634904084611]},"properties":{"unit_id":"dc9b8c24-ca44-4b68-97e3-464394802b20","address_id":"96466de2-2022-48f8-92ed-50e8032a9b47"}},{"id":"0d44577b-225b-47a2-9e42-3e11cb4618a8","type":"Feature","feature_type":"anchor","geometry":{"type":"Point","coordinates":[30.374863297348828,60.007576338675811]},"properties":{"unit_id":"414467e9-abee-4c0a-bc1d-9092cebe6af7","address_id":"1f10dbb8-196b-4217-bb51-fa9a1c786cdc"}},{"id":"7acbf0dd-3654-4be9-a3cf-15fadf3483df","type":"Feature","feature_type":"anchor","geometry":{"type":"Point","coordinates":[30.375095730081984,60.00756338211071]},"properties":{"unit_id":"f052ca92-c050-4f20-bdec-c69526006b8f","address_id":"696b5304-1a08-45bf-b1f9-2a054e627494"}},{"id":"5612eebd-59df-4234-8457-426ab10a8c14","type":"Feature","feature_type":"anchor","geometry":{"type":"Point","coordinates":[30.371513693306355,60.008161369485215]},"properties":{"unit_id":"09e3683e-7dbb-4842-bb79-96145d8c2dc9","address_id":"476e2c4e-5312-46fa-a70f-07fb5c70bee7"}},{"id":"bc1ecea3-1fa1-44ca-a113-58f0da3a23ac","type":"Feature","feature_type":"anchor","geometry":{"type":"Point","coordinates":[30.370983043802443,60.007265453842876]},"properties":{"unit_id":"8fbaf950-f505-40be-ab52-4113e7061566","address_id":"6464a8d4-f294-46b6-bb0d-94fccde35105"}},{"id":"c5015f6e-2e41-4bd5-a9f6-d31d60a47486","type":"Feature","feature_type":"anchor","geometry":{"type":"Point","coordinates":[30.374376979347137,60.006693508590629]},"properties":{"unit_id":"5c1b14f2-9529-4e49-af74-91c3926749ac","address_id":"56aad7a9-58d5-4e27-ae57-0c05a6634177"}},{"id":"8afe0ef2-571b-4618-8640-9767aa693f98","type":"Feature","feature_type":"anchor","geometry":{"type":"Point","coordinates":[30.374506785505602,60.006745166612475]},"properties":{"unit_id":"e5df645b-c51b-4bb2-8395-feed249abaae","address_id":"b1f72a01-21ca-41e0-b38d-03fc2994b7c4"}},{"id":"6e3f2405-a64d-48c6-b821-a2a60bf60fe3","type":"Feature","feature_type":"anchor","geometry":{"type":"Point","coordinates":[30.370837894872292,60.007364205489239]},"properties":{"unit_id":"2a0ea54b-00c8-4e38-9fd6-af111001e156","address_id":"fbfcfa7b-260f-49ee-a2eb-62bc4009e07a"}},{"id":"bbce0b24-6bd7-4355-9049-339d2681aa1b","type":"Feature","feature_type":"anchor","geometry":{"type":"Point","coordinates":[30.371326839881323,60.008088488703585]},"properties":{"unit_id":"8dc98064-220c-4ef0-af9c-0e804a154f8e","address_id":"24cf5a4b-c491-4368-84d4-99bdbaf8fc93"}},{"id":"1800c754-8e88-4f7e-af8e-8fd96a2c0481","type":"Feature","feature_type":"anchor","geometry":{"type":"Point","coordinates":[30.37499576611296,60.007469449826829]},"properties":{"unit_id":"28c761bf-6300-4a33-ba1f-1eefe3bcaa59","address_id":"d14d37fa-48b4-4044-9ce8-7862812cbcc9"}},{"id":"c4ba55a8-736d-48ca-b0a3-bfaf272370df","type":"Feature","feature_type":"anchor","geometry":{"type":"Point","coordinates":[30.373044664171154,60.007490174457743]},"properties":{"unit_id":"8baffa1f-f6d6-447f-9f7d-d8c47d98a7d0","address_id":"4a8bf884-2d71-45e5-a9e4-b9110bbe6ca5"}},{"id":"b82b4fdc-3e04-4a9a-a1ee-ef76ba636cf2","type":"Feature","feature_type":"anchor","geometry":{"type":"Point","coordinates":[30.372093183755005,60.007676814698847]},"properties":{"unit_id":"2369da22-be9f-4f73-a6f9-67359d2420fb","address_id":"06fc6512-1c1a-4417-b563-7bdad419fbac"}},{"id":"3f15c9c7-1fe5-448a-8503-0b78e1233aaa","type":"Feature","feature_type":"anchor","geometry":{"type":"Point","coordinates":[30.374027778625372,60.007350399497774]},"properties":{"unit_id":"48ce71b0-4a20-4d92-8ed1-387364c1b193","address_id":"5eca2764-35c1-4e62-b84f-482eabc4c341"}},{"id":"19581313-d371-4518-bb1c-88011d221176","type":"Feature","feature_type":"anchor","geometry":{"type":"Point","coordinates":[30.373573959840979,60.007521886192187]},"properties":{"unit_id":"f5206f43-a822-4532-8a5b-f60fc515e5f6","address_id":"6d783be6-74bd-422b-8311-413148d3a7ff"}},{"id":"c048327c-4942-48c2-94a8-5ccbe519382c","type":"Feature","feature_type":"anchor","geometry":{"type":"Point","coordinates":[30.374510783345468,60.007088562930555]},"properties":{"unit_id":"12b299f8-61f4-487e-be80-4206fb92a7ce","address_id":"f77c9aa1-ebc1-45e6-b453-b4be45ef0109"}}]}