{"type":"FeatureCollection","name":"anchor","features":[{"id":"e5aca843-9d57-48cc-a89d-7267a8c75d8b","type":"Feature","feature_type":"anchor","geometry":{"type":"Point","coordinates":[30.382796243825,60.0072085293776]},"properties":{"unit_id":"d7a3533d-679e-4b6d-9f74-5acabf219e76","address_id":"59cec60d-99c9-46e5-8ed9-836e4ecbd500"}},{"id":"a95a9044-3891-4933-81a9-df5dbd702c31","type":"Feature","feature_type":"anchor","geometry":{"type":"Point","coordinates":[30.380840389955321,60.0075385396145]},"properties":{"unit_id":"e2121968-2cf4-4e5e-b583-c708edecfac5","address_id":"9ab416e8-6caa-4f01-a905-a6d8f0b43be0"}},{"id":"dc3ad36c-af4d-4202-806f-a9dc35890623","type":"Feature","feature_type":"anchor","geometry":{"type":"Point","coordinates":[30.380935438877653,60.007507078179515]},"properties":{"unit_id":"65f2c4aa-794d-4c62-9d07-2bea51b8a546","address_id":"0486ecbc-6143-4664-84b0-d6a3e2d78722"}},{"id":"6932c04e-d271-4109-a60c-0f96a78a2b98","type":"Feature","feature_type":"anchor","geometry":{"type":"Point","coordinates":[30.382796243825,60.0072085293776]},"properties":{"unit_id":"979aa559-bfc8-4317-b4fb-f8d81b55e977","address_id":"3ca00ad3-b298-4932-aa86-93c893ef1678"}},{"id":"fc6ed149-9408-42b5-9865-15d1bc6a2c05","type":"Feature","feature_type":"anchor","geometry":{"type":"Point","coordinates":[30.380840389955321,60.0075385396145]},"properties":{"unit_id":"2cfb6b42-89f0-4872-ab1b-718575466692","address_id":"aa527b7b-81af-41ee-b2fb-ceb2e9b2ee0a"}},{"id":"81955478-c88c-4c0b-a0ed-71463ba05e45","type":"Feature","feature_type":"anchor","geometry":{"type":"Point","coordinates":[30.382796243825,60.0072085293776]},"properties":{"unit_id":"8bb7352c-048b-460c-b95a-005ccf0b0cfe","address_id":"5b853ee4-85a6-4fad-aacf-3caddb495d94"}},{"id":"2ab31152-7400-43f7-9235-b12d5540a2f5","type":"Feature","feature_type":"anchor","geometry":{"type":"Point","coordinates":[30.382656400737289,60.00724043048335]},"properties":{"unit_id":"d47d1c9a-6e1e-4fe3-a62e-8ffdde3f36a9","address_id":"ea704407-b8b5-4967-9a93-db60928e0dfe"}},{"id":"1894c3ca-3364-4ae2-ba33-1af1233f8afd","type":"Feature","feature_type":"anchor","geometry":{"type":"Point","coordinates":[30.380926386047495,60.007532335096982]},"properties":{"unit_id":"b93768b9-fbee-4f8f-98b1-46e92a0d253e","address_id":"f293a706-3e2b-4b96-9d22-9ba6d9012a17"}},{"id":"20d8bfe5-7f72-4475-8d79-109b78b85223","type":"Feature","feature_type":"anchor","geometry":{"type":"Point","coordinates":[30.380840389955321,60.0075385396145]},"properties":{"unit_id":"7f3af2dc-1c1d-42ab-b48d-b7276ddc0559","address_id":"07e88a9e-5781-46d8-bd9a-226c3080090d"}},{"id":"05d858f2-61ab-4e44-800f-d9a01366fd4b","type":"Feature","feature_type":"anchor","geometry":{"type":"Point","coordinates":[30.38244564135049,60.007111071768492]},"properties":{"unit_id":"8cdd56b2-bb26-43c9-b5f1-216039300926","address_id":"e0df1073-5b51-48ed-816d-79c61e022b6f"}},{"id":"0e4128ef-81f9-49e9-a6f2-260798f5e192","type":"Feature","feature_type":"anchor","geometry":{"type":"Point","coordinates":[30.382556905085551,60.007061449899844]},"properties":{"unit_id":"426d62dd-e55c-4023-a6db-25e62d4cdd52","address_id":"8878c67a-ae5f-4e64-a6dd-e122d982b241"}},{"id":"5e20fa7e-6af7-4b50-a9cb-7f7d90f6193e","type":"Feature","feature_type":"anchor","geometry":{"type":"Point","coordinates":[30.38253703778323,60.007067174951175]},"properties":{"unit_id":"1906573f-bd00-44be-b1b7-dff8279d60bc","address_id":"5ff91589-d304-4aa6-a8fb-8e136125d947"}},{"id":"1b66d7ec-554b-4526-b2ae-04452b09d8bc","type":"Feature","feature_type":"anchor","geometry":{"type":"Point","coordinates":[30.381760090688644,60.007290814502888]},"properties":{"unit_id":"151478b1-5c47-434b-a9f3-744872569702","address_id":"99c7145c-dd20-46f0-a3fb-427b31d9e537"}},{"id":"8f0aa2df-f34c-47fc-87fd-ca24a0e6cf16","type":"Feature","feature_type":"anchor","geometry":{"type":"Point","coordinates":[30.381745679841032,60.00726595718632]},"properties":{"unit_id":"359c4967-36b6-4650-b1c6-7e9ada8a51fc","address_id":"c648cc5a-640f-4aa7-ba99-835da91766ee"}},{"id":"6298f2af-8e9b-4a70-b745-000091325843","type":"Feature","feature_type":"anchor","geometry":{"type":"Point","coordinates":[30.382321418746436,60.007078867668653]},"properties":{"unit_id":"6234424c-5838-4601-bc8e-2f9ceb65d71c","address_id":"61183aa8-c81c-46eb-91a5-2f28a28b6788"}},{"id":"dd8ee4b3-27ee-4876-8b92-68e7b25a8a36","type":"Feature","feature_type":"anchor","geometry":{"type":"Point","coordinates":[30.381077557630508,60.007288744317741]},"properties":{"unit_id":"84c6c16d-892a-4332-9350-54efd5f1212c","address_id":"abd0f44a-8548-4cfe-ae9f-916e9a5c646a"}},{"id":"f74a433d-cdc3-4b60-b94b-c38938e6b26e","type":"Feature","feature_type":"anchor","geometry":{"type":"Point","coordinates":[30.382137578891129,60.007094186983849]},"properties":{"unit_id":"c491cf53-d957-48ce-8fa0-afcdb553ce2f","address_id":"22073ff3-ed0e-49cf-afc9-6534fc4c94b3"}},{"id":"c436b0b4-f2f1-446b-b326-7f06073e25dd","type":"Feature","feature_type":"anchor","geometry":{"type":"Point","coordinates":[30.382197412792188,60.007108988684145]},"properties":{"unit_id":"101bab86-8eb1-4141-9e5d-feb7383b1d12","address_id":"56a17a20-3ad4-4608-ad0f-4258c761945d"}},{"id":"a12badfd-e6d5-445d-abdf-61a754152724","type":"Feature","feature_type":"anchor","geometry":{"type":"Point","coordinates":[30.38224997056798,60.007095441774581]},"properties":{"unit_id":"9e8ac422-7084-45fd-88e2-2a0d43db8087","address_id":"1716ec9e-8780-4dab-9a4e-b5d8567f4b68"}},{"id":"7db2e679-59d0-468b-a71e-51cb745c6e40","type":"Feature","feature_type":"anchor","geometry":{"type":"Point","coordinates":[30.382105631979712,60.007124198767769]},"properties":{"unit_id":"0d1d83df-da64-4cb7-b69c-91f2588747cd","address_id":"ac0cf5ff-3ff5-49c0-890d-095129c2e3d0"}},{"id":"6f87e5a6-6c19-4282-85db-a5848d44c820","type":"Feature","feature_type":"anchor","geometry":{"type":"Point","coordinates":[30.382239140295752,60.007167271408242]},"properties":{"unit_id":"321966a6-48ff-4205-9170-75406d7823d4","address_id":"61379201-23ee-4ca4-87da-d298d148107b"}},{"id":"b8124a49-bdbd-4cd0-818f-95105c808c7a","type":"Feature","feature_type":"anchor","geometry":{"type":"Point","coordinates":[30.382266311564184,60.007207510889323]},"properties":{"unit_id":"6fd543ec-6483-472a-b28a-a5f4af96fff0","address_id":"b9edafcd-462c-4704-ab82-32fa80bd884b"}},{"id":"3e634bce-b11d-45cd-8fb1-9e53d9f8e177","type":"Feature","feature_type":"anchor","geometry":{"type":"Point","coordinates":[30.38230963824325,60.007180292194917]},"properties":{"unit_id":"281a057f-7341-43ec-9950-d352cebfb23a","address_id":"37350202-dbff-4107-a9e9-f3dfa46e0e72"}},{"id":"919d622e-c134-4699-bb31-cabf3582b294","type":"Feature","feature_type":"anchor","geometry":{"type":"Point","coordinates":[30.381387097282143,60.007241034824823]},"properties":{"unit_id":"b797499a-69b3-491d-8310-49509a3d17b9","address_id":"50840ef6-400d-4eda-8728-38058578f585"}},{"id":"f82d2971-0ec7-4ab6-86c5-c8ef0160296c","type":"Feature","feature_type":"anchor","geometry":{"type":"Point","coordinates":[30.381845166316694,60.007163744436305]},"properties":{"unit_id":"ef6219a0-dbea-4e15-8531-3914605bc0df","address_id":"13b2e572-ab7e-4c47-8d56-46644cf16967"}},{"id":"82cb766e-5bea-4cbc-8ec6-50813ec599b7","type":"Feature","feature_type":"anchor","geometry":{"type":"Point","coordinates":[30.381689635959084,60.007189987456819]},"properties":{"unit_id":"93b1e1f4-8f44-4274-bf67-ce4b043a5010","address_id":"60c92abb-82ab-4d37-b23c-110ac54e129e"}},{"id":"24497cc7-9867-4985-a30e-96a7c3268da3","type":"Feature","feature_type":"anchor","geometry":{"type":"Point","coordinates":[30.382376431630849,60.007173768216248]},"properties":{"unit_id":"40e295e9-7ffb-4273-a788-8018e259c2e6","address_id":"09e7cc79-d16b-4006-a0c4-3cfab965fd61"}},{"id":"ce45e913-9886-4726-854b-2028c9d9d0e4","type":"Feature","feature_type":"anchor","geometry":{"type":"Point","coordinates":[30.381132186811804,60.007383709361356]},"properties":{"unit_id":"a0bc4b6e-7f77-4652-b435-b58ef13baa87","address_id":"83191163-a32f-4257-822c-0e58d59ba4e4"}},{"id":"359a7ced-6e42-40fd-9166-4912c4c5bb80","type":"Feature","feature_type":"anchor","geometry":{"type":"Point","coordinates":[30.38216620550649,60.007135013790425]},"properties":{"unit_id":"6473fc68-7cf8-49f1-b1e3-b43f34bc9029","address_id":"dd7d44c2-bf43-497d-a047-3c1fe6f55a8e"}},{"id":"f4f6fbb6-2dc4-4bf4-a3bb-eb7413620543","type":"Feature","feature_type":"anchor","geometry":{"type":"Point","coordinates":[30.38200069655095,60.0071375019647]},"properties":{"unit_id":"09aa55ae-cb28-48d1-8caf-eafcaea9ea8c","address_id":"c96719e4-ea8e-41ac-ab6d-888203cd6d2b"}},{"id":"431ae7a7-4ccb-4011-8581-6f54b28af670","type":"Feature","feature_type":"anchor","geometry":{"type":"Point","coordinates":[30.3821818052387,60.007201861586523]},"properties":{"unit_id":"bc249616-3946-4612-a6b0-5c4f0827b1f4","address_id":"1871f7ad-54b6-46a9-826f-dffcd3b11ccf"}},{"id":"8af6a27f-4e53-411f-ac93-aef17010f388","type":"Feature","feature_type":"anchor","geometry":{"type":"Point","coordinates":[30.382058232797558,60.007222711916064]},"properties":{"unit_id":"ef5f25ea-fd57-42c5-94bf-7690d4cee011","address_id":"fd7ef575-7cf8-4909-bfe7-ab6b87ed82b3"}},{"id":"1adc36b9-4c49-437f-97ad-25b946f83c46","type":"Feature","feature_type":"anchor","geometry":{"type":"Point","coordinates":[30.381902702934763,60.00724895438767]},"properties":{"unit_id":"14ccc7d8-f5e3-4ffa-862d-e7262461b6c8","address_id":"79d4c431-b4ed-4fce-b69a-0efb33b22680"}},{"id":"efb815fa-7cda-419a-a9ed-b96396df1def","type":"Feature","feature_type":"anchor","geometry":{"type":"Point","coordinates":[30.381205999862832,60.00727159111986]},"properties":{"unit_id":"402c9b3c-7a54-4d62-be47-f449e23c412d","address_id":"a9053587-5d5c-42f6-b656-e9d207efe917"}},{"id":"5f07884c-7a84-49c0-8131-223c81832db5","type":"Feature","feature_type":"anchor","geometry":{"type":"Point","coordinates":[30.381286971323433,60.007352846504368]},"properties":{"unit_id":"98095969-c8f1-47ba-8271-885c30f981cd","address_id":"b25e32a6-fb28-4f9c-9400-e7f083da713f"}},{"id":"eaad46c8-0d09-4833-9f35-b1ffeba837ba","type":"Feature","feature_type":"anchor","geometry":{"type":"Point","coordinates":[30.381542638416366,60.007309707995617]},"properties":{"unit_id":"4b316e3c-8c9a-4f69-b46f-e831c05c2cfa","address_id":"ae0472d4-2976-44e8-a727-0164fb7591d2"}},{"id":"1662c5cc-5611-4943-a1c2-3d30ce93d1ab","type":"Feature","feature_type":"anchor","geometry":{"type":"Point","coordinates":[30.381538366678956,60.007215510866367]},"properties":{"unit_id":"6ebfa8a4-28bd-40bc-9a34-a840380e4a0c","address_id":"c08e4987-f6b8-46f0-8e7e-b71188fe624f"}},{"id":"ba6dc7f7-a211-4275-ab47-bba1846bd86c","type":"Feature","feature_type":"anchor","geometry":{"type":"Point","coordinates":[30.381809872217048,60.007211395745578]},"properties":{"unit_id":"f3c0b9c7-4452-49a4-84bb-fe64feaf328e","address_id":"88d0a963-0171-4b5e-b362-4875d1862f41"}},{"id":"1a50c506-fc68-4aff-82ae-8c0cc15481bd","type":"Feature","feature_type":"anchor","geometry":{"type":"Point","coordinates":[30.381690258044337,60.007271749203731]},"properties":{"unit_id":"1368d7ce-f64f-436c-9d8a-21f605d402db","address_id":"5b468d27-3907-4ca7-87f3-7406ade5862d"}},{"id":"aff94985-169f-40d2-8ab8-20b5955cfae9","type":"Feature","feature_type":"anchor","geometry":{"type":"Point","coordinates":[30.381760090688644,60.007290814502888]},"properties":{"unit_id":"5f426e02-d3d3-47a8-8bbf-5fff5cd69fcf","address_id":"bb1d0896-8373-4109-88a4-fa56d091292f"}},{"id":"4e887d49-a224-4a06-bb61-a471f1041bcf","type":"Feature","feature_type":"anchor","geometry":{"type":"Point","coordinates":[30.381745679841032,60.00726595718632]},"properties":{"unit_id":"b09d19f1-b1bb-449a-8821-6c673f22b4b7","address_id":"fadc5f33-2092-4d0d-9b0f-6e160743ab76"}},{"id":"ae368aa7-6207-4d02-b9a2-b445ca2398b0","type":"Feature","feature_type":"anchor","geometry":{"type":"Point","coordinates":[30.382321418746436,60.007078867668653]},"properties":{"unit_id":"486ec39e-59a1-4c26-9b41-16c26e56f4ca","address_id":"ba29cd24-35df-4503-b92a-ed750af82393"}},{"id":"53c6cdd2-3151-4824-8758-d23dce24e9d6","type":"Feature","feature_type":"anchor","geometry":{"type":"Point","coordinates":[30.381077557630508,60.007288744317741]},"properties":{"unit_id":"350d9501-a45d-48c2-8e08-f9327679f1d4","address_id":"bfd30250-6284-4d63-b7f1-3ca42f19ccc3"}},{"id":"0abb6c7b-c13c-49b3-985e-8bc0ca5eda6a","type":"Feature","feature_type":"anchor","geometry":{"type":"Point","coordinates":[30.381387097282143,60.007241034824823]},"properties":{"unit_id":"bdd874ec-7278-4d59-b23b-567f857858ab","address_id":"17c362ac-9d71-4647-ac38-8e4d6f8cffa2"}},{"id":"156f91e8-8972-4610-bc03-329177477434","type":"Feature","feature_type":"anchor","geometry":{"type":"Point","coordinates":[30.381845166316694,60.007163744436305]},"properties":{"unit_id":"a9391f27-9b60-4095-a1a7-36b905712553","address_id":"451aca38-d1c8-4936-8a68-ebbbdf53298a"}},{"id":"d59ef88b-6d8a-4f23-a877-8872d9c6aab0","type":"Feature","feature_type":"anchor","geometry":{"type":"Point","coordinates":[30.381689635959084,60.007189987456819]},"properties":{"unit_id":"23cf9941-8c9b-435e-9062-da3f7fb82024","address_id":"c945cf98-dfe9-471c-a06f-810a97d76d05"}},{"id":"8fdae8e6-14d8-427a-86c0-aea93ab7fea8","type":"Feature","feature_type":"anchor","geometry":{"type":"Point","coordinates":[30.382376431630849,60.007173768216248]},"properties":{"unit_id":"77780932-e1a1-4389-af89-3cb707c0914c","address_id":"8153532b-cfd7-4cc5-a11a-454339ebe36f"}},{"id":"c00a1019-d4b8-4ae7-b2b6-6782b935e9ef","type":"Feature","feature_type":"anchor","geometry":{"type":"Point","coordinates":[30.381132186811804,60.007383709361356]},"properties":{"unit_id":"1019eac0-c247-4dfd-92dc-00fb305f5962","address_id":"4db94747-6981-46a7-8083-673bb0f768b4"}},{"id":"4f9b9a29-49e1-43b2-9c59-fda3f5187195","type":"Feature","feature_type":"anchor","geometry":{"type":"Point","coordinates":[30.38217966264256,60.007107305200691]},"properties":{"unit_id":"c129e09c-b8ea-4fb6-b14d-73d2aa685324","address_id":"1bcdf633-b532-494a-a2a8-b2d1694f209a"}},{"id":"3ce87665-d613-42da-9dd2-ab82a4a2c905","type":"Feature","feature_type":"anchor","geometry":{"type":"Point","coordinates":[30.38200069655095,60.0071375019647]},"properties":{"unit_id":"fdbf69bf-a001-425a-bb61-b0bd06e78804","address_id":"c45e2052-afe7-4dca-8df8-73f74d25279d"}},{"id":"8b32aac2-f8c1-47ed-9a6c-c947a556c994","type":"Feature","feature_type":"anchor","geometry":{"type":"Point","coordinates":[30.382260635647093,60.007188560310752]},"properties":{"unit_id":"95392eda-6079-44c2-ab54-b40fccecb901","address_id":"8f9dd36d-a226-4bdc-ba27-44baa859c653"}},{"id":"1348739d-0382-4461-ad74-9491f62f8f96","type":"Feature","feature_type":"anchor","geometry":{"type":"Point","coordinates":[30.38208166937266,60.007218757623662]},"properties":{"unit_id":"c3e8ac6c-3b4f-4e77-96b4-cfaea3468507","address_id":"87ac48c9-b2d0-4037-8cec-4745fb419b61"}},{"id":"7751f3e3-e646-4d58-af51-20ae5b2b1350","type":"Feature","feature_type":"anchor","geometry":{"type":"Point","coordinates":[30.381902702934763,60.00724895438767]},"properties":{"unit_id":"ca4189d4-3519-4285-86b8-b15c761a622c","address_id":"db628010-8ed2-47aa-913e-39e647288655"}},{"id":"d588230d-c781-41d8-8f8c-a870d91794fe","type":"Feature","feature_type":"anchor","geometry":{"type":"Point","coordinates":[30.381600164152552,60.007300001755681]},"properties":{"unit_id":"4fd96e55-2a7c-47b7-b0ce-68e7df40f7a1","address_id":"d89539a7-c26f-49e6-896a-f6884e93c039"}},{"id":"7c87c2aa-6731-4615-8f91-6d3e2269c506","type":"Feature","feature_type":"anchor","geometry":{"type":"Point","coordinates":[30.381205999862832,60.00727159111986]},"properties":{"unit_id":"4d613d50-68b4-4763-b19a-62aad61b3c37","address_id":"aae7c886-de4a-4643-b952-58f7a7fe2b69"}},{"id":"49f5509d-271a-4c1a-8ff3-067813b297f3","type":"Feature","feature_type":"anchor","geometry":{"type":"Point","coordinates":[30.381286971323433,60.007352846504368]},"properties":{"unit_id":"71ede3a2-e587-4a92-a286-6aa04a002056","address_id":"ef0157a6-30e1-449d-8d48-620d414b4e66"}},{"id":"fe455088-6e56-44be-895d-dd42f125ef67","type":"Feature","feature_type":"anchor","geometry":{"type":"Point","coordinates":[30.381470691911737,60.007321254156182]},"properties":{"unit_id":"4573c91d-ef13-4416-9eca-9e9492d41acf","address_id":"05fd7523-e8e7-49e9-a6f4-58cbc30b1faa"}},{"id":"c97976cf-5099-4b39-a655-d9578a03643a","type":"Feature","feature_type":"anchor","geometry":{"type":"Point","coordinates":[30.381538366678956,60.007215510866367]},"properties":{"unit_id":"2de5c039-1742-49f4-80a6-40a3d41b151c","address_id":"2219157c-96cd-4269-b945-b0eb2ad34ae7"}},{"id":"4ca01dcc-ae9e-44a6-9660-e584461b048a","type":"Feature","feature_type":"anchor","geometry":{"type":"Point","coordinates":[30.381809872217048,60.007211395745578]},"properties":{"unit_id":"d744f3de-9010-43bc-b930-c6ea07db539b","address_id":"cfa026fa-f874-4e3d-b579-cf3a4d7bafd9"}},{"id":"eb344216-e8d5-4df8-8904-533f2dd4c6f7","type":"Feature","feature_type":"anchor","geometry":{"type":"Point","coordinates":[30.381690258044337,60.007271749203731]},"properties":{"unit_id":"5e4c32ee-a7d3-4b88-9bee-3fcdd2f5eca6","address_id":"e61d9d45-fa63-4e6c-a64d-1308bb8f9ffb"}},{"id":"c6204c4d-196a-4a4d-9746-6da5a67b575e","type":"Feature","feature_type":"anchor","geometry":{"type":"Point","coordinates":[30.381760090688644,60.007290814502888]},"properties":{"unit_id":"2e878ccd-d103-4c32-ab2f-c0a666c721aa","address_id":"f3e8db7d-f82e-4acb-a362-5b034d1d1be5"}},{"id":"c0762783-7a77-4ec9-99d9-b892c44debfd","type":"Feature","feature_type":"anchor","geometry":{"type":"Point","coordinates":[30.381745679841032,60.00726595718632]},"properties":{"unit_id":"2d6fe7e4-9922-456c-9a30-210cc386d574","address_id":"d5991da5-5c4f-4f26-b468-51f68cbee076"}},{"id":"d48229c2-c427-4d91-93d5-12ffd57647ee","type":"Feature","feature_type":"anchor","geometry":{"type":"Point","coordinates":[30.382321418746436,60.007078867668653]},"properties":{"unit_id":"4d769d50-9195-4f52-9785-a5bda2aae8b6","address_id":"fa6f33c0-963e-46dd-ae95-84c9c5d66940"}},{"id":"a62fa372-3ca0-4131-8684-c627580c59c8","type":"Feature","feature_type":"anchor","geometry":{"type":"Point","coordinates":[30.381077557630508,60.007288744317741]},"properties":{"unit_id":"f2040ce9-5d90-4fad-97fa-ba976088c4b8","address_id":"e5fc070e-d3fe-4ef0-b0e9-60d7f2142104"}},{"id":"388cf4e9-0622-45ea-ab46-8ae9409933b2","type":"Feature","feature_type":"anchor","geometry":{"type":"Point","coordinates":[30.38135940000187,60.007245708179276]},"properties":{"unit_id":"91a3c445-1f7e-43fc-a5a2-992c2187fa72","address_id":"30d9210d-8f51-44f3-a740-a880c842db19"}},{"id":"cfa6da38-8ce8-4234-8421-ccae8d53b233","type":"Feature","feature_type":"anchor","geometry":{"type":"Point","coordinates":[30.382232926374492,60.007098318022805]},"properties":{"unit_id":"cbeb5c27-f516-4ab8-8e46-3ac500e8ec1d","address_id":"caed5b6d-835a-482f-90d0-3c02c81fe5f4"}},{"id":"3fa417cc-f49c-4db2-a110-23945bda7082","type":"Feature","feature_type":"anchor","geometry":{"type":"Point","coordinates":[30.381791902479392,60.00717273161419]},"properties":{"unit_id":"0014c034-7526-4df1-af47-2ef310654a46","address_id":"9e346d24-c4c8-4344-9bb0-398f031076a6"}},{"id":"0b2aa4c1-c893-43be-8a72-b2d10f519dca","type":"Feature","feature_type":"anchor","geometry":{"type":"Point","coordinates":[30.381715202594179,60.007185673633387]},"properties":{"unit_id":"4ea0709b-0cd5-418f-aba0-c6a0fcc8631b","address_id":"fbfd0253-cc75-433e-b278-b3ea8e232c4c"}},{"id":"579287e9-9d6d-4214-8539-8320229e6de0","type":"Feature","feature_type":"anchor","geometry":{"type":"Point","coordinates":[30.381638502678893,60.007198615103675]},"properties":{"unit_id":"ac0f3f22-68f1-43da-92ca-dce95138a290","address_id":"d81328b9-83e8-4d5c-a320-b732b7bae3a2"}},{"id":"89a45c4c-7725-4c64-9496-fb962a47cbfb","type":"Feature","feature_type":"anchor","geometry":{"type":"Point","coordinates":[30.382376431630849,60.007173768216248]},"properties":{"unit_id":"84357a0f-d246-4918-b6bf-4d9ff4eba402","address_id":"aee11566-a49a-45ff-9173-0352b23330ed"}},{"id":"9940e442-b992-448c-8ca7-402a078bc7a1","type":"Feature","feature_type":"anchor","geometry":{"type":"Point","coordinates":[30.381132186811804,60.007383709361356]},"properties":{"unit_id":"e2455f21-cd80-44b7-85dc-44614b9b7bbc","address_id":"620f36e1-4de2-4eb7-96d7-b7c450cc4eae"}},{"id":"3c647cf5-dba1-41f8-bb13-8bfb8103ad92","type":"Feature","feature_type":"anchor","geometry":{"type":"Point","coordinates":[30.382666782214773,60.007203084266465]},"properties":{"unit_id":"18235972-f70c-40a4-a754-30b8240206c0","address_id":"7884f5a4-c3cf-4262-af77-934bc0cb43da"}},{"id":"615ec89f-6e3c-4194-abf2-57c17d03e490","type":"Feature","feature_type":"anchor","geometry":{"type":"Point","coordinates":[30.382776824795787,60.007179771286609]},"properties":{"unit_id":"47c4302a-de50-4e7e-b371-dd2eb0b9ebf0","address_id":"01a6d9ca-773b-406f-9a1d-acb3b6e3585c"}},{"id":"408410a8-de55-4d56-9f67-3ede91a7bcb0","type":"Feature","feature_type":"anchor","geometry":{"type":"Point","coordinates":[30.382686201203018,60.00723184263191]},"properties":{"unit_id":"e6e5dd8b-9b6d-46cc-ba92-da0e7fec49b3","address_id":"2558cbd5-30b3-459c-b35b-9f296b8633a4"}},{"id":"0908e950-dc6d-45e9-b601-a1fc23c057dd","type":"Feature","feature_type":"anchor","geometry":{"type":"Point","coordinates":[30.380820971679551,60.007509781249048]},"properties":{"unit_id":"5a3a044c-fb35-4913-95fa-953a5a52d011","address_id":"227ebe82-020d-4c96-a838-50502dce4417"}},{"id":"2e7526f9-4657-4ced-9899-ddc97e4cfeba","type":"Feature","feature_type":"anchor","geometry":{"type":"Point","coordinates":[30.380948383693624,60.00752625051463]},"properties":{"unit_id":"d6d3d46d-4ab6-46b3-8c8f-bd1a8be3fabe","address_id":"12bf3e43-319c-4db3-838c-ce5ce0a02dd2"}},{"id":"d7326951-516f-400a-9cef-bd5b28b63348","type":"Feature","feature_type":"anchor","geometry":{"type":"Point","coordinates":[30.382126399445145,60.007116292378576]},"properties":{"unit_id":"31912670-5f2b-4244-8b6f-7e8f5783b253","address_id":"cc443d8d-e445-424d-8ce6-ae0871800348"}},{"id":"cb6874cd-c033-4a3e-9fd6-a01a5c6c61c6","type":"Feature","feature_type":"anchor","geometry":{"type":"Point","coordinates":[30.381998565955513,60.007137861495728]},"properties":{"unit_id":"0b9a635f-3bc0-4a8d-a6d8-937377655a9e","address_id":"978ec4b5-603d-4e04-942e-cece3f3decec"}},{"id":"3e1245be-f618-4bcc-b2fc-ee6ae9f012db","type":"Feature","feature_type":"anchor","geometry":{"type":"Point","coordinates":[30.3818707329315,60.007159430612873]},"properties":{"unit_id":"ffa9ddc9-567f-4ae2-862a-4f71ef6afd56","address_id":"f4608a91-bf62-4ff0-a812-fe65493816fe"}},{"id":"cf4b89c2-8a54-4396-be96-6956890c2aea","type":"Feature","feature_type":"anchor","geometry":{"type":"Point","coordinates":[30.38229046288615,60.007183527699716]},"properties":{"unit_id":"63b9d43f-676e-4a79-9659-2b2211b311f1","address_id":"c74ee5e4-e588-4fbc-86ea-6baa2aa4119a"}},{"id":"73962938-4256-4203-92f8-c3f3147a1b70","type":"Feature","feature_type":"anchor","geometry":{"type":"Point","coordinates":[30.382109366041629,60.007214084269208]},"properties":{"unit_id":"046bb336-02e8-4241-9b5a-81d68059fa8e","address_id":"69fbbc87-4751-471d-b6bd-258243884136"}},{"id":"f4ec73c0-1648-469e-8c19-c40b041217c8","type":"Feature","feature_type":"anchor","geometry":{"type":"Point","coordinates":[30.381902702934763,60.00724895438767]},"properties":{"unit_id":"9c8400a2-552a-4e59-b938-4f09209d8231","address_id":"ebdcdc19-c146-455c-a02a-aa5c800f6823"}},{"id":"94d8ab85-4fbf-46c4-b71e-02e09dd7311d","type":"Feature","feature_type":"anchor","geometry":{"type":"Point","coordinates":[30.381602294206388,60.007299642224652]},"properties":{"unit_id":"530f2cf0-ed98-44de-829e-a30dcbce0ac8","address_id":"4c0fc02f-2734-49a0-aa32-3f99b3479e09"}},{"id":"53820b08-aebb-4e54-bf89-6a046a664cae","type":"Feature","feature_type":"anchor","geometry":{"type":"Point","coordinates":[30.381178302556965,60.007276264474314]},"properties":{"unit_id":"81570ee7-00c8-4551-b394-980f59c801ed","address_id":"11edef43-efe7-44c9-97f6-bd9dfc64eb90"}},{"id":"1b0d276e-b2f2-40e8-a534-6570f0457cdb","type":"Feature","feature_type":"anchor","geometry":{"type":"Point","coordinates":[30.381214532344647,60.007365069187053]},"properties":{"unit_id":"62d2b26b-c100-44dd-9574-f41c5fc94c3b","address_id":"69c8cbbf-28e1-4c70-9b1e-174f324fdcbd"}},{"id":"e1d1bd04-d7cc-4366-808c-df84d4650752","type":"Feature","feature_type":"anchor","geometry":{"type":"Point","coordinates":[30.381397760621,60.007334153360993]},"properties":{"unit_id":"8dad0322-b6be-4e06-bcee-54e0f36ee682","address_id":"38a7d1fc-a6f2-4a0a-ae81-c7575292b7d4"}},{"id":"44f149e7-8d61-4c66-b819-a2c68968887f","type":"Feature","feature_type":"anchor","geometry":{"type":"Point","coordinates":[30.381538366678956,60.007215510866367]},"properties":{"unit_id":"4ee329e8-bf2f-4cc8-8e32-032993e3dae7","address_id":"6923d199-f7b1-4d56-9ca3-93f409593531"}},{"id":"2515adac-79bf-4dfa-a514-2a6361a224af","type":"Feature","feature_type":"anchor","geometry":{"type":"Point","coordinates":[30.381809872217048,60.007211395745578]},"properties":{"unit_id":"6a22f957-48ae-4e84-95de-243561332482","address_id":"755ce22d-fbd8-4159-b620-526f102cf8ae"}},{"id":"6d303380-53fc-4281-b669-53802b5af04e","type":"Feature","feature_type":"anchor","geometry":{"type":"Point","coordinates":[30.381690258044337,60.007271749203731]},"properties":{"unit_id":"5682f7c7-526f-4ea7-85a8-deb38a5ab06f","address_id":"a7b0a966-c3e7-4f6f-ae66-5e23a597bb49"}},{"id":"fe2f5d28-9f54-49d0-8627-b720627a0f9b","type":"Feature","feature_type":"anchor","geometry":{"type":"Point","coordinates":[30.381760090688644,60.007290814502888]},"properties":{"unit_id":"0da63cc2-3169-4a52-a7ed-1f2439e9a456","address_id":"4fd5db80-afe8-404c-8ad2-3e29bf7d41e0"}},{"id":"28334d4c-75f3-4166-89f4-5770d72fc876","type":"Feature","feature_type":"anchor","geometry":{"type":"Point","coordinates":[30.381745679841032,60.00726595718632]},"properties":{"unit_id":"90577e9a-b3f5-4ca2-bf07-aaf4bb850504","address_id":"90d5fc75-09aa-4b6d-83d0-4eddd94f65a0"}},{"id":"beb758db-5a20-4537-bfc4-15920f3a8e16","type":"Feature","feature_type":"anchor","geometry":{"type":"Point","coordinates":[30.382321418746436,60.007078867668653]},"properties":{"unit_id":"482f14c6-a118-4573-9b49-a44bf99cd54c","address_id":"299a4c38-00d9-4502-be15-6a53ce91141b"}},{"id":"f55cb0c2-35ac-48dc-971e-2f4c9c6771b6","type":"Feature","feature_type":"anchor","geometry":{"type":"Point","coordinates":[30.381077557630508,60.007288744317741]},"properties":{"unit_id":"95dd1070-56ab-4166-a06b-e3eaf26541be","address_id":"448beda7-a8eb-4cc7-a3f4-1d76a7e174cc"}},{"id":"7d5c76fd-2d92-407b-9b21-6a334dad8ee0","type":"Feature","feature_type":"anchor","geometry":{"type":"Point","coordinates":[30.38079488272286,60.007351636998081]},"properties":{"unit_id":"567659db-d5d6-48dc-b6e4-5be96a8481f4","address_id":"c21f6708-1d96-45ab-ac4a-0c8941663b5a"}},{"id":"0b05a64e-8e8e-4412-b710-f983324b85c1","type":"Feature","feature_type":"anchor","geometry":{"type":"Point","coordinates":[30.382526005829412,60.00701920445519]},"properties":{"unit_id":"e64216d5-0d94-43e8-b730-a07fb4023c18","address_id":"b3769055-b884-44de-a10c-c0ec8cf22545"}},{"id":"80c49d3d-26a8-4904-bac5-620dd8014c4c","type":"Feature","feature_type":"anchor","geometry":{"type":"Point","coordinates":[30.380975953327567,60.007317525737086]},"properties":{"unit_id":"8ed7ca0f-d785-4dee-9137-623c4cef6703","address_id":"3341ebc5-89e1-4cec-aae5-0399d7722119"}},{"id":"e9a10e6f-4721-4dd4-8307-d93d6be47607","type":"Feature","feature_type":"anchor","geometry":{"type":"Point","coordinates":[30.381025577444593,60.007391019093717]},"properties":{"unit_id":"ded69c9c-879f-4069-8070-7dfa1719c98f","address_id":"5fa33e43-dca3-4eeb-a2b2-94a1adf26650"}},{"id":"5f85445f-b3a7-42e3-8d46-4380ed99a5b1","type":"Feature","feature_type":"anchor","geometry":{"type":"Point","coordinates":[30.381131429804189,60.007284173059119]},"properties":{"unit_id":"e2592796-b387-4f8f-9d6b-6b0ad45c0251","address_id":"90792903-d798-440c-83dc-2b33bb9e96c0"}},{"id":"245088ae-0dc1-456a-940f-098bf3160172","type":"Feature","feature_type":"anchor","geometry":{"type":"Point","coordinates":[30.382470094210234,60.007147285874325]},"properties":{"unit_id":"fee45ab1-f83e-42ae-9c21-ffec688ad68b","address_id":"8e6c4f92-c27f-470a-a0f3-36f2a7ba611a"}},{"id":"dffd7e3b-744a-4cb5-a4e5-8ca4f1e4a0fc","type":"Feature","feature_type":"anchor","geometry":{"type":"Point","coordinates":[30.382252101709675,60.007095082243552]},"properties":{"unit_id":"7bc829f9-3379-4bf9-9341-43772c246d6e","address_id":"e3532c59-0429-4a8a-8151-bc436f456920"}},{"id":"0d9d8b0d-4063-4f77-8c8a-9f6ac567786e","type":"Feature","feature_type":"anchor","geometry":{"type":"Point","coordinates":[30.381740769225935,60.007181359809955]},"properties":{"unit_id":"5161ebad-eea8-4267-9755-5c4b01032368","address_id":"db0e1fb1-f8e5-41dc-a5e0-a75422860ca5"}},{"id":"5d2b45f9-f3e6-447f-a2cd-963fab9959c9","type":"Feature","feature_type":"anchor","geometry":{"type":"Point","coordinates":[30.381615066633426,60.007202569396078]},"properties":{"unit_id":"2b795c68-98bd-42a7-840d-ac2360f41bd8","address_id":"3c90d14e-76ed-47e8-ae4e-020ffa078a76"}},{"id":"177215c9-a5b0-4d49-957a-e3a485e1534e","type":"Feature","feature_type":"anchor","geometry":{"type":"Point","coordinates":[30.380834437902269,60.0074102185995]},"properties":{"unit_id":"87438890-b1ff-47ff-9d64-93574d1628eb","address_id":"d49ac573-57c6-401e-86c4-5e27b85faf4f"}},{"id":"d65916d3-fe42-4eaf-88ca-66c25b431266","type":"Feature","feature_type":"anchor","geometry":{"type":"Point","coordinates":[30.382376431630849,60.007173768216248]},"properties":{"unit_id":"b624fcfc-2316-4478-a048-8ed36cb4723f","address_id":"eba04877-f5b0-477e-af58-f22790f726a4"}},{"id":"4f6cc7f0-0aaa-4be0-9d1b-76b2409df78f","type":"Feature","feature_type":"anchor","geometry":{"type":"Point","coordinates":[30.381132186811804,60.007383709361356]},"properties":{"unit_id":"35275057-8451-4cf2-809d-caaa347eacdf","address_id":"1f23738c-a419-4f0a-a891-d7abc01462fc"}},{"id":"34db1fa2-e154-455f-acb0-9b64fca7b945","type":"Feature","feature_type":"anchor","geometry":{"type":"Point","coordinates":[30.382776824795787,60.007179771286609]},"properties":{"unit_id":"ec4866bd-bde3-4747-98c8-58019db2f62c","address_id":"561dd97b-3792-47b4-b9ba-09aec46171f6"}},{"id":"bf82bcf1-78e7-4a4b-bc99-487ff3c2fa1d","type":"Feature","feature_type":"anchor","geometry":{"type":"Point","coordinates":[30.382676132055227,60.0072169308767]},"properties":{"unit_id":"c12f76bf-4ab9-4bbf-89b8-e2ec8cab7824","address_id":"29ce9ee4-e957-4665-9071-53a5691ce296"}},{"id":"b21c01a3-b680-4cc9-a21a-d1914ec0afd5","type":"Feature","feature_type":"anchor","geometry":{"type":"Point","coordinates":[30.382645410626736,60.007104653727971]},"properties":{"unit_id":"343dcf40-fe5e-4fca-870d-fd9582b2397c","address_id":"49e5e487-72ac-4984-af34-90f0beea1bae"}},{"id":"63250d69-4017-45fb-ab2d-6c0a62daba54","type":"Feature","feature_type":"anchor","geometry":{"type":"Point","coordinates":[30.382636793669004,60.007000511311816]},"properties":{"unit_id":"1691b163-6594-40dc-9187-ebe0fb570876","address_id":"e0fe68b1-3cb3-4905-9f4a-f7919e128a1f"}},{"id":"1aa7befd-ab1c-4972-ac6b-fd954f1fa228","type":"Feature","feature_type":"anchor","geometry":{"type":"Point","coordinates":[30.380791170846429,60.007518369100495]},"properties":{"unit_id":"15ae4b3b-c3cc-4485-9a34-9b114333a51a","address_id":"f99e5757-4a70-452d-9ac3-4b62b5321ab6"}},{"id":"9f5a847c-95cc-45f2-b968-219a054cc0a6","type":"Feature","feature_type":"anchor","geometry":{"type":"Point","coordinates":[30.380936769096571,60.0074949888801]},"properties":{"unit_id":"24f3eb39-1f54-4581-899b-7b06807730e9","address_id":"086da99e-7d66-48f7-a15f-5651c72a401a"}},{"id":"fa1f8fc3-64f5-49e9-b312-61f97ae9fd71","type":"Feature","feature_type":"anchor","geometry":{"type":"Point","coordinates":[30.380770429606752,60.007315422892255]},"properties":{"unit_id":"3ec06e39-065a-43f1-87e7-0c2d00891db3","address_id":"dee6774a-3d68-4d22-9bef-45195cb99c1d"}},{"id":"a0b05179-8c96-467a-94f2-e08ec286962b","type":"Feature","feature_type":"anchor","geometry":{"type":"Point","coordinates":[30.382147704286609,60.0071126970683]},"properties":{"unit_id":"49daeadc-c295-44e2-8475-e5e7e0aec760","address_id":"a0d50249-7d15-4928-a782-5de1f7898d96"}},{"id":"4173813d-fb91-49ee-97c0-4186cbb31f3b","type":"Feature","feature_type":"anchor","geometry":{"type":"Point","coordinates":[30.381998565955513,60.007137861495728]},"properties":{"unit_id":"7ae33883-4cdc-4d76-954c-d97cb6b6401d","address_id":"3e069e53-2e7a-418f-8d1f-cd6b37f7b829"}},{"id":"1610e3e2-de24-4ad3-8e21-cfb2b1c58699","type":"Feature","feature_type":"anchor","geometry":{"type":"Point","coordinates":[30.3818707329315,60.007159430612873]},"properties":{"unit_id":"4383ccbe-0c73-4b76-b087-8ec11e738f2c","address_id":"8b6dfabe-1984-4506-be83-da3f833258dd"}},{"id":"b42c0c47-be22-4900-9c50-273e84e3fe16","type":"Feature","feature_type":"anchor","geometry":{"type":"Point","coordinates":[30.382260635647093,60.007188560310752]},"properties":{"unit_id":"950bc103-fd3b-4dcf-ba7c-04dc4829b928","address_id":"f1c02108-4468-4a45-8932-80128b3480eb"}},{"id":"dd9585e7-3e27-41bd-b7cb-5b2a8e114dee","type":"Feature","feature_type":"anchor","geometry":{"type":"Point","coordinates":[30.38208166937266,60.007218757623662]},"properties":{"unit_id":"f5afef26-3e09-400f-bab0-a76b415923ca","address_id":"d319f940-b9e4-4e70-99a2-3a313e9e8826"}},{"id":"f9b27bd4-00dc-4ac4-ae8e-e766e096c805","type":"Feature","feature_type":"anchor","geometry":{"type":"Point","coordinates":[30.381902702934763,60.00724895438767]},"properties":{"unit_id":"24ff2165-e547-4e27-b808-9534a6b5d8a7","address_id":"58c54620-ee2a-43a8-add8-5eb89bb0c98a"}},{"id":"e977d528-dfff-4f33-8fc7-0caa010e05e3","type":"Feature","feature_type":"anchor","geometry":{"type":"Point","coordinates":[30.381600164152552,60.007300001755681]},"properties":{"unit_id":"2990e938-d930-4a2b-9de0-c3239e5a4716","address_id":"689c03cc-ad6a-4524-820f-e30ad92c36f6"}},{"id":"ad199b09-84b6-46dc-8113-0cd91f2f7877","type":"Feature","feature_type":"anchor","geometry":{"type":"Point","coordinates":[30.381233696615791,60.0072669177654]},"properties":{"unit_id":"6bc39d08-c602-4ec9-9cbd-98155f1df927","address_id":"79aaa39e-c82f-4c25-bbb3-e21d7a8c3c6d"}},{"id":"ac0f470c-53da-48b7-9865-d59a342467eb","type":"Feature","feature_type":"anchor","geometry":{"type":"Point","coordinates":[30.381212401737606,60.007365428718082]},"properties":{"unit_id":"29ff6f5b-9221-4457-bf05-9ac92bd08214","address_id":"46481b8b-c56c-4caf-891a-cfcc71a4db45"}},{"id":"f9c1a250-e401-40ea-af74-def46e973a6f","type":"Feature","feature_type":"anchor","geometry":{"type":"Point","coordinates":[30.381384966680038,60.007241394355852]},"properties":{"unit_id":"45ac42ab-2a9a-4b5d-bff4-134382800f6d","address_id":"4992859b-14f8-4314-86e6-f0f6ca8c3ccf"}},{"id":"3b90291d-00d9-48e6-85f1-7e672476d0ab","type":"Feature","feature_type":"anchor","geometry":{"type":"Point","coordinates":[30.381468068927806,60.007322290209331]},"properties":{"unit_id":"869ddf7b-1e73-4b32-9241-66f0d688b052","address_id":"99b562e5-7a5f-406c-9684-b584a2c2110a"}},{"id":"00afd477-e876-40f2-b05f-4b34d9282f90","type":"Feature","feature_type":"anchor","geometry":{"type":"Point","coordinates":[30.381340235923371,60.007343859326483]},"properties":{"unit_id":"8ffba11f-b843-4340-a0a6-fcaf06aedf57","address_id":"3d744748-d7bd-42c5-92e6-1a45822746d9"}},{"id":"7eef0a2a-645e-4c95-80aa-1a8175aca04b","type":"Feature","feature_type":"anchor","geometry":{"type":"Point","coordinates":[30.381514930621517,60.007219465158769]},"properties":{"unit_id":"c9f34b74-a66c-4dcb-9815-e541ae09b0ae","address_id":"0eafa9d9-555c-485f-92a6-954fb66481d2"}},{"id":"1cda563e-63e6-4800-9dc2-1ca47624e1cb","type":"Feature","feature_type":"anchor","geometry":{"type":"Point","coordinates":[30.381809872217048,60.007211395745578]},"properties":{"unit_id":"a7929593-e9c7-41b6-b506-4b89f98f9658","address_id":"3d6f6c8b-6c95-4c74-a86c-de49bbf93954"}},{"id":"9dabee23-8528-49b6-b924-1f96d1373fab","type":"Feature","feature_type":"anchor","geometry":{"type":"Point","coordinates":[30.381690258044337,60.007271749203731]},"properties":{"unit_id":"abad0f4e-ba69-4139-8d98-58177a9d917a","address_id":"b587eaef-113e-433f-9d23-a8bcd7b43583"}},{"id":"241a80f2-4ee3-4df9-8f9e-8fb91b2536ed","type":"Feature","feature_type":"anchor","geometry":{"type":"Point","coordinates":[30.381760090688644,60.007290814502888]},"properties":{"unit_id":"7dabecb5-fe79-4d39-806e-bae7b5551cba","address_id":"17ea48e0-9502-4504-ac97-0e3b2c1e4fac"}},{"id":"65a74061-e29e-4b3f-90dc-2b089e7434e9","type":"Feature","feature_type":"anchor","geometry":{"type":"Point","coordinates":[30.381745679841032,60.00726595718632]},"properties":{"unit_id":"bf694e3d-f86d-4e5d-b4ba-c8ff10143e90","address_id":"74f00e02-2eeb-4709-b73d-75da255d5dd7"}},{"id":"6af2c3c3-2755-418d-a1a8-1b841b7a670f","type":"Feature","feature_type":"anchor","geometry":{"type":"Point","coordinates":[30.382321418746436,60.007078867668653]},"properties":{"unit_id":"b5ec6cb2-a7d7-4cd3-89c5-0577ebdf0ed3","address_id":"34c1cd4f-5f88-4f1d-8b1c-6dd90a8afba2"}},{"id":"a83ca958-6c9b-49fc-abba-4aeddd68aa9b","type":"Feature","feature_type":"anchor","geometry":{"type":"Point","coordinates":[30.381077174988963,60.007288809088216]},"properties":{"unit_id":"ccccf398-0d35-49d7-8a23-57a5d41c1d3f","address_id":"ce0f8827-699e-4f33-97c7-dc2beb920750"}},{"id":"cbaa57af-5521-468b-9845-b568986b5db9","type":"Feature","feature_type":"anchor","geometry":{"type":"Point","coordinates":[30.380789111319988,60.007434477063626]},"properties":{"unit_id":"36352926-8db2-452e-8ee2-0ecff6cefc80","address_id":"1a564f1f-917a-4aaa-8ed9-614b870da774"}},{"id":"70181eb0-7372-4f4d-9752-2f3df0bb3b21","type":"Feature","feature_type":"anchor","geometry":{"type":"Point","coordinates":[30.380925072847528,60.0074530628966]},"properties":{"unit_id":"10c581fd-a7d0-46e1-83cd-ad1a856c61a2","address_id":"14f33ef4-0da4-462c-830c-cfc71878290c"}},{"id":"21fce975-8159-4c80-b45e-f3fadb66b35a","type":"Feature","feature_type":"anchor","geometry":{"type":"Point","coordinates":[30.380840738006164,60.0073035597406]},"properties":{"unit_id":"a5c87fd3-f305-4dab-ada0-b7868a9437ee","address_id":"19bf9a36-f0ad-4216-a402-aa2b0b292c78"}},{"id":"69e3567d-fc69-4781-8f5f-aebffb4083ab","type":"Feature","feature_type":"anchor","geometry":{"type":"Point","coordinates":[30.380770429606752,60.007315422892255]},"properties":{"unit_id":"9fe4249c-d6c7-42cb-aa69-c625ab302b6e","address_id":"58af45af-653f-40c3-a5f7-0c1990e4414f"}},{"id":"0a7f83f9-c8e9-428c-aa11-3ebf3b9ef46e","type":"Feature","feature_type":"anchor","geometry":{"type":"Point","coordinates":[30.382776824795787,60.007179771286609]},"properties":{"unit_id":"e05f456a-d85c-4e67-96f7-180de4a10441","address_id":"0be60fdd-d6bf-41e4-9d68-1bc5124d47c3"}},{"id":"d03fea19-c685-4874-86f8-06e70f37851a","type":"Feature","feature_type":"anchor","geometry":{"type":"Point","coordinates":[30.382667720301626,60.007046311447972]},"properties":{"unit_id":"455cafa2-2e8d-458c-a159-5d217fd7d324","address_id":"c11a8860-dcba-4f72-ad2d-b335aabe22d5"}},{"id":"7ea56321-6a44-48c5-be44-f510c361eb4a","type":"Feature","feature_type":"anchor","geometry":{"type":"Point","coordinates":[30.382703653678021,60.007096012633006]},"properties":{"unit_id":"d41bdf21-4bbf-4ddf-9ba3-189b53900783","address_id":"31670bf0-74c6-4503-8021-9bf65fd4eb0f"}},{"id":"0a7c7dcc-2e24-4e8a-863f-60130e5d68c4","type":"Feature","feature_type":"anchor","geometry":{"type":"Point","coordinates":[30.380820971679551,60.007509781249048]},"properties":{"unit_id":"e8a14470-e16a-4831-a9e4-afea16219765","address_id":"0700e7b4-2c5a-497e-88c6-2f0b68408045"}},{"id":"8e97b3f8-1e48-4c9a-92dd-651726fe7b8b","type":"Feature","feature_type":"anchor","geometry":{"type":"Point","coordinates":[30.380736610888309,60.007356723127096]},"properties":{"unit_id":"ee13f025-0aa5-4e02-84ad-37350b2a89e0","address_id":"ffc79208-9710-4dad-bb83-a89378453f17"}},{"id":"c893d97b-8249-491e-927a-b90271c57b33","type":"Feature","feature_type":"anchor","geometry":{"type":"Point","coordinates":[30.380763220725843,60.00739613266785]},"properties":{"unit_id":"08237c2f-74eb-4228-b073-9cdafe489bad","address_id":"947153f6-72cb-46cc-a819-670e0c6f50d0"}},{"id":"4f1d2e89-a040-4d19-8956-f2866c705d5b","type":"Feature","feature_type":"anchor","geometry":{"type":"Point","coordinates":[30.380975953327567,60.007317525737086]},"properties":{"unit_id":"ec0b3abd-b935-40da-8f61-121b18a02917","address_id":"d46689ce-826c-4c15-980e-9fae353358d0"}},{"id":"a913d54e-81c9-4398-931a-8f5a20c47a71","type":"Feature","feature_type":"anchor","geometry":{"type":"Point","coordinates":[30.381025577444593,60.007391019093717]},"properties":{"unit_id":"3f3678e4-3cdc-425b-9c3f-30535f3413d5","address_id":"a176b81d-5c8a-4ed2-9e7b-e83fdc04b4a9"}},{"id":"05d4175f-7335-44b5-bc34-acd666ad1ea8","type":"Feature","feature_type":"anchor","geometry":{"type":"Point","coordinates":[30.382376431630849,60.007173768216248]},"properties":{"unit_id":"d1215926-5167-46c6-a2ec-132951c27c8a","address_id":"9df7ed9b-a984-4993-a3f7-49af6e1c3d24"}},{"id":"4008c979-4373-465e-bfe0-986e395220e4","type":"Feature","feature_type":"anchor","geometry":{"type":"Point","coordinates":[30.381132186811804,60.007383709361356]},"properties":{"unit_id":"2ab6e777-bd0b-4bef-84f5-2687855e43a4","address_id":"43d9f1e2-33ab-46ce-91cc-713b6cc4646c"}},{"id":"6c12555d-40a0-4552-9fbe-3b7bc2184d28","type":"Feature","feature_type":"anchor","geometry":{"type":"Point","coordinates":[30.382666782214773,60.007203084266465]},"properties":{"unit_id":"4eec0b53-94d5-4046-943a-38ee0e3efd79","address_id":"a3a0a73c-c83a-48f9-9dd7-1330209e62fe"}},{"id":"af183dc5-4043-4ec2-a5bf-b3ed4e29921d","type":"Feature","feature_type":"anchor","geometry":{"type":"Point","coordinates":[30.382607996680562,60.007140628237934]},"properties":{"unit_id":"ac6ffd20-7279-4f30-90c1-3400e0ad014b","address_id":"da3d2051-3db8-4a37-9616-48112718a009"}},{"id":"d6b09926-1e47-4592-b077-b764e412e913","type":"Feature","feature_type":"anchor","geometry":{"type":"Point","coordinates":[30.382738176369063,60.007147138494048]},"properties":{"unit_id":"aaa72a01-913d-4f02-9e2d-61a6246bea2a","address_id":"cd72bd58-44d3-4149-a696-81d219151ee9"}},{"id":"d6c22ca8-c4bd-4272-9b52-c492f35edfdc","type":"Feature","feature_type":"anchor","geometry":{"type":"Point","coordinates":[30.382581400031548,60.00700985802073]},"properties":{"unit_id":"9820c064-a523-4722-8fbd-0c61cb71b626","address_id":"47fd5755-0910-47d6-96d3-09569266d2f9"}},{"id":"e051514d-33c5-4d28-9374-776e6d6d7716","type":"Feature","feature_type":"anchor","geometry":{"type":"Point","coordinates":[30.380842159968079,60.007397050981453]},"properties":{"unit_id":"791df296-f6f9-4046-871b-3ad372dcec6c","address_id":"393d0dce-3154-4d47-bd6e-3de25b2dbd93"}},{"id":"cbb6aaeb-eb48-4751-8155-4e49d22c493e","type":"Feature","feature_type":"anchor","geometry":{"type":"Point","coordinates":[30.380814283766227,60.00747175631443]},"properties":{"unit_id":"212a7533-fd54-4400-8fb1-9d8acffff659","address_id":"0e01eedb-4142-426e-b631-443274292174"}},{"id":"f5dad017-f4e0-40b5-bc8b-2460a438398a","type":"Feature","feature_type":"anchor","geometry":{"type":"Point","coordinates":[30.380936769096571,60.0074949888801]},"properties":{"unit_id":"5cd644de-ea84-4957-8a05-23cf73729ac4","address_id":"6238ecfc-70db-43be-a3d2-99f582b82e9e"}},{"id":"380a462a-2605-48bd-bae8-e9434b746a53","type":"Feature","feature_type":"anchor","geometry":{"type":"Point","coordinates":[30.380874486202554,60.0073465107992]},"properties":{"unit_id":"e569a5e6-1257-40e5-b405-54be6bbefb03","address_id":"0eb5593e-185e-462d-90df-a6e73beb77d5"}},{"id":"72096ba0-cc12-4a83-9200-d3ec70d0f320","type":"Feature","feature_type":"anchor","geometry":{"type":"Point","coordinates":[30.380700121182123,60.00732728604391]},"properties":{"unit_id":"513e2ccc-e17b-4f85-a506-3206fc5ccbe3","address_id":"7f2385b6-6534-48a9-a81c-fb149e5e44f3"}},{"id":"db92e0f8-fa80-4bca-9fea-ba0ac8d3671a","type":"Feature","feature_type":"anchor","geometry":{"type":"Point","coordinates":[30.382177532598,60.007107664182818]},"properties":{"unit_id":"7bc5e91b-e9b5-4bf2-98cb-09f968fd454b","address_id":"f2f95cca-fcba-48e9-80b1-c0de7ea8d954"}},{"id":"ffd8ec15-0c57-4536-b351-9159859db3c0","type":"Feature","feature_type":"anchor","geometry":{"type":"Point","coordinates":[30.381998565955513,60.007137861495728]},"properties":{"unit_id":"eeb98eb4-bf0a-4e67-8c36-ea8ea29274a8","address_id":"f0cb4956-58df-4a24-a5ec-77c146813d7e"}},{"id":"163f3562-eb2a-4593-9eb5-dc25923a059a","type":"Feature","feature_type":"anchor","geometry":{"type":"Point","coordinates":[30.3818707329315,60.007159430612873]},"properties":{"unit_id":"bfd8206f-9d89-4794-a9c6-3b2cf41f3c25","address_id":"39568adb-8eaf-4ea3-83a6-84921b271bf5"}},{"id":"f733b926-bb45-473f-8531-861d0260311c","type":"Feature","feature_type":"anchor","geometry":{"type":"Point","coordinates":[30.382260635647093,60.007188560310752]},"properties":{"unit_id":"a14ad507-58da-44ae-b7d4-4d4da6d69027","address_id":"1cb0a3e1-b8d7-4d28-a1df-b0579740977e"}},{"id":"e84d9f3b-b2b0-45ca-84e0-1cce0ed86638","type":"Feature","feature_type":"anchor","geometry":{"type":"Point","coordinates":[30.38208166937266,60.007218757623662]},"properties":{"unit_id":"9f18d6d8-1f32-49bf-ad7c-d227420ffd65","address_id":"fd5493dc-f9cc-4317-a644-8048671af9c0"}},{"id":"dca969e6-0f14-4e4a-92e6-3c432c22ce6a","type":"Feature","feature_type":"anchor","geometry":{"type":"Point","coordinates":[30.381902702934763,60.00724895438767]},"properties":{"unit_id":"d000fac5-e40e-4fca-8f61-dc2a7ee793a6","address_id":"c35ac38c-d629-48e1-86df-6d4820125943"}},{"id":"fa3a083c-2118-400a-a42f-09746bfdba1c","type":"Feature","feature_type":"anchor","geometry":{"type":"Point","coordinates":[30.381600164152552,60.007300001755681]},"properties":{"unit_id":"59b6b4e3-4ac2-4c88-8dbd-b854255be2c0","address_id":"2653e53e-2e4c-49e1-82de-167302aa16b8"}},{"id":"bbcc7970-8e10-497a-991e-addec2c7be84","type":"Feature","feature_type":"anchor","geometry":{"type":"Point","coordinates":[30.381156997061083,60.007279859235688]},"properties":{"unit_id":"e8b584c4-847b-4548-8c65-5f82777d1528","address_id":"a6d411db-32a7-40d7-8189-003c0974a361"}},{"id":"2dc84669-c1a4-4e6b-a8f6-f03f59283ef3","type":"Feature","feature_type":"anchor","geometry":{"type":"Point","coordinates":[30.381191096214859,60.007369023479455]},"properties":{"unit_id":"e01b3819-3972-4d3b-9313-fef4839f9da7","address_id":"eb45e962-576e-46df-a63f-3b2ed5d223b1"}},{"id":"0fea8a8d-29b6-4734-b25f-6e1a58470652","type":"Feature","feature_type":"anchor","geometry":{"type":"Point","coordinates":[30.38131892986555,60.007347454362311]},"properties":{"unit_id":"378ff5ad-610c-4cf4-97b7-493bf7776103","address_id":"b47b940e-70c7-4b39-a2ff-99ff722955d3"}},{"id":"866558a6-ef69-4431-a36f-a5931fd5a572","type":"Feature","feature_type":"anchor","geometry":{"type":"Point","coordinates":[30.381433742520873,60.007231384298464]},"properties":{"unit_id":"18aab98e-1d08-4780-802f-91e7750e1efb","address_id":"5355833e-aecc-4ca2-87ae-c3bacd20de2c"}},{"id":"d5f50201-f8e5-4a12-8089-66788f52ce32","type":"Feature","feature_type":"anchor","geometry":{"type":"Point","coordinates":[30.381468068927806,60.007322290209331]},"properties":{"unit_id":"49e9d84d-abf5-4d73-bb0e-5d8e7b48e564","address_id":"93d6d07d-c4fc-4a8c-98c6-4678140f98e2"}},{"id":"3c69dfeb-1920-4e58-bb37-9e82d2024f2d","type":"Feature","feature_type":"anchor","geometry":{"type":"Point","coordinates":[30.381312527292398,60.007253616764082]},"properties":{"unit_id":"4fbf70bc-6d51-426f-a72c-7870a6957c94","address_id":"9048b780-029d-4069-aed7-a368237edfbc"}},{"id":"4a98fb9a-4556-4e9f-aa46-5411600626cb","type":"Feature","feature_type":"anchor","geometry":{"type":"Point","coordinates":[30.381312527292398,60.007253616764082]},"properties":{"unit_id":"4fbf70bc-6d51-426f-a72c-7870a6957c94","address_id":"9048b780-029d-4069-aed7-a368237edfbc"}},{"id":"3e2a19b5-d0eb-4703-9d2f-905988778c46","type":"Feature","feature_type":"anchor","geometry":{"type":"Point","coordinates":[30.381514930621517,60.007219465158769]},"properties":{"unit_id":"285c9a27-9015-4cf1-9727-c19fd4b18a5a","address_id":"664968f8-69e2-44c9-8c0e-4b7ba3167fc1"}},{"id":"8fc8e4b5-559d-4202-afe5-72f0faa91a60","type":"Feature","feature_type":"anchor","geometry":{"type":"Point","coordinates":[30.381809872217048,60.007211395745578]},"properties":{"unit_id":"3b24fdc2-4fa6-44de-b458-f466db50206b","address_id":"c439248c-a03b-47fe-895c-16a79d807288"}},{"id":"055ab3be-e362-429b-b553-dac9760487c6","type":"Feature","feature_type":"anchor","geometry":{"type":"Point","coordinates":[30.371390913567073,60.007793169094093]},"properties":{"unit_id":"d59ada79-1301-4165-aad4-baf0f6fe80f5","address_id":"fe5c63c1-2af3-419f-9af8-51055a34aca1"}},{"id":"a789aca3-c391-4406-b2d2-0d4eda69104a","type":"Feature","feature_type":"anchor","geometry":{"type":"Point","coordinates":[30.374511593009174,60.007082731392174]},"properties":{"unit_id":"98a8143f-c61b-4e0a-b629-e16cf64ccbe1","address_id":"ff9ff110-460c-425f-852c-4035c9aae2b2"}},{"id":"fc922d78-bcbb-43bc-875b-73992d6d7d08","type":"Feature","feature_type":"anchor","geometry":{"type":"Point","coordinates":[30.373045473694546,60.007484342644908]},"properties":{"unit_id":"df5de287-0829-4932-8faa-f4490bf770c3","address_id":"be073bdd-f29c-41ed-8fe5-3034d3077fad"}},{"id":"c042398e-7c84-40be-b6e3-5040c6b6389c","type":"Feature","feature_type":"anchor","geometry":{"type":"Point","coordinates":[30.374411931616084,60.006689034762168]},"properties":{"unit_id":"5f280f1d-bcce-403a-abf8-bfea082bb50b","address_id":"51594f6b-c321-49f4-9d10-7ac1d053bb7a"}},{"id":"c759ff12-59c9-4738-a992-311acd28fce7","type":"Feature","feature_type":"anchor","geometry":{"type":"Point","coordinates":[30.370983853093108,60.007259622030048]},"properties":{"unit_id":"fe6051d8-4569-4f3a-a1ff-cc3c8c71db43","address_id":"43b6271c-29af-415a-9b3c-1a80fe10efbe"}},{"id":"dc471d59-7c72-41dc-b221-a88136da35e4","type":"Feature","feature_type":"anchor","geometry":{"type":"Point","coordinates":[30.371514502835709,60.008155537397933]},"properties":{"unit_id":"f3535eb4-f48a-4b6f-8c45-dd9b231f43a8","address_id":"5f240a4f-4f37-4ac1-b359-92c88b38a1a6"}},{"id":"3040d851-563b-4aed-bc53-833428f8f07f","type":"Feature","feature_type":"anchor","geometry":{"type":"Point","coordinates":[30.375096539562684,60.007557550572329]},"properties":{"unit_id":"a29d5b0d-4ff4-4091-b679-cd48c04bef97","address_id":"1a5970c4-11ee-4206-86cb-749e3da99255"}},{"id":"d35b8603-679d-4190-95ce-c0f059d8f717","type":"Feature","feature_type":"anchor","geometry":{"type":"Point","coordinates":[30.374864106575682,60.007570507411884]},"properties":{"unit_id":"aad8b86f-6d7e-473b-bc3d-a4b7b433593a","address_id":"7e71e31f-78fb-42b3-aa4a-90b2ab22fd5b"}},{"id":"29f5d69e-e02e-45ed-92d7-33783a81c855","type":"Feature","feature_type":"anchor","geometry":{"type":"Point","coordinates":[30.374916041136522,60.00762907254623]},"properties":{"unit_id":"9e1bfd93-4220-4dca-a975-24e4c1cceead","address_id":"cf40f039-23f6-4ebe-b485-2cfaef2936a7"}},{"id":"5b0051f2-407f-4316-a1e3-5ff255b078f4","type":"Feature","feature_type":"anchor","geometry":{"type":"Point","coordinates":[30.37171052193451,60.008122464385707]},"properties":{"unit_id":"e492787e-41e6-40cb-90a7-ab4608daba68","address_id":"a49a5827-f498-4ca2-9aed-3de4f368294b"}},{"id":"fd93560d-65b9-45ae-b07b-c159689bfd7f","type":"Feature","feature_type":"anchor","geometry":{"type":"Point","coordinates":[30.373201649499805,60.007258668861148]},"properties":{"unit_id":"4d97de61-37e0-4e69-9ada-d081474e8c4e","address_id":"7858b5ce-3790-44f2-8984-3966224c8cd7"}},{"id":"58deaab0-0b5f-4e85-afb7-87c34ab3fa4a","type":"Feature","feature_type":"anchor","geometry":{"type":"Point","coordinates":[30.373201649499805,60.007258668861148]},"properties":{"unit_id":"4d97de61-37e0-4e69-9ada-d081474e8c4e","address_id":"788b8388-a17d-4c24-90d6-8df67adfc09e"}},{"id":"7c796d1f-7ce4-4d5c-a8f5-38e810b1772f","type":"Feature","feature_type":"anchor","geometry":{"type":"Point","coordinates":[30.372647692259918,60.007352135675852]},"properties":{"unit_id":"bfc76e77-c1ec-4f1e-96ea-6d664d6b932d","address_id":"4b57c552-7c2b-456f-9392-7896ffb0207e"}},{"id":"abdf5024-58e0-41a1-b205-c70f1064832c","type":"Feature","feature_type":"anchor","geometry":{"type":"Point","coordinates":[30.372880328842527,60.007239719654834]},"properties":{"unit_id":"83995ed7-3ce3-4536-b5f4-f4e3d06c9174","address_id":"1a950357-a7fc-462c-8d74-163cb376218b"}},{"id":"32446303-58bc-4b11-9d7b-2f7a94c18ac5","type":"Feature","feature_type":"anchor","geometry":{"type":"Point","coordinates":[30.371707754771009,60.008037507478313]},"properties":{"unit_id":"432f45fe-c1c3-4063-94b2-1906a2c5cae4","address_id":"a17b4a9a-d6b2-47f7-ba03-e51ebcbbe6d3"}},{"id":"2b0e4f15-8178-4677-b323-b8f867779cb5","type":"Feature","feature_type":"anchor","geometry":{"type":"Point","coordinates":[30.371977501677886,60.007688265350396]},"properties":{"unit_id":"23dd09b2-c892-42dd-a730-0ad065273cc1","address_id":"937fdceb-e61b-4bd1-ad3f-2958fa7ed324"}},{"id":"c6d19605-e30c-496b-b709-375305cc6dc1","type":"Feature","feature_type":"anchor","geometry":{"type":"Point","coordinates":[30.374142202487281,60.007323025189557]},"properties":{"unit_id":"b9c9d891-8a52-4c63-a5af-0576956aa33d","address_id":"faf09e4d-b20a-4b80-b897-1230d988ab18"}},{"id":"fd3a426e-45d2-4316-a28e-310338776491","type":"Feature","feature_type":"anchor","geometry":{"type":"Point","coordinates":[30.374179595567472,60.007568243464213]},"properties":{"unit_id":"16af718c-f38d-458b-a92a-2710aa0c2324","address_id":"b9771b17-715b-4e6f-bb90-07ed066e607a"}},{"id":"dc139599-1b48-4698-a96b-8c47864174a7","type":"Feature","feature_type":"anchor","geometry":{"type":"Point","coordinates":[30.373999132818255,60.007589200555259]},"properties":{"unit_id":"d723717d-8f20-4dce-9e9f-4d98a153bf7c","address_id":"0c06b2c9-3ac0-4195-8d41-86cbe84e9b61"}},{"id":"e7ba2a2d-d87c-49f6-b959-21c92e7c2d1d","type":"Feature","feature_type":"anchor","geometry":{"type":"Point","coordinates":[30.374353945508975,60.007538233052543]},"properties":{"unit_id":"77e507fb-77f2-4d74-bb93-f88a09c551af","address_id":"c9b51eef-ecf0-4896-8bbd-ba9689f06cfd"}},{"id":"7e22dc40-918f-48d6-a36a-daeb3f2c8cbd","type":"Feature","feature_type":"anchor","geometry":{"type":"Point","coordinates":[30.374332239446158,60.007502149311023]},"properties":{"unit_id":"a6925505-9fbe-43a0-b531-b8d9131ec62d","address_id":"1841e8dc-f0fe-48e8-89ed-d403d2339694"}},{"id":"684d3870-03a4-472b-8b3d-88534213bc2e","type":"Feature","feature_type":"anchor","geometry":{"type":"Point","coordinates":[30.374583611216938,60.0074882110341]},"properties":{"unit_id":"8c6710d9-24ca-4a72-9142-2819111f29d5","address_id":"18b439ee-b656-4e6d-a52a-4ff75bf21558"}},{"id":"29dccd12-e9ef-4ad5-8884-469a96b6b3f8","type":"Feature","feature_type":"anchor","geometry":{"type":"Point","coordinates":[30.374093305477572,60.007440428811613]},"properties":{"unit_id":"536ecd58-5d89-4e21-b0ee-b4ccb0f62c08","address_id":"9e67f6f3-0921-4070-9522-b7424ad2df02"}},{"id":"897154b8-4bff-43de-94bb-f044d5837d9f","type":"Feature","feature_type":"anchor","geometry":{"type":"Point","coordinates":[30.374139257846672,60.007508495445336]},"properties":{"unit_id":"fe621698-4abe-4fe6-b684-fb76ecae9e70","address_id":"ba3602ae-e4ae-4202-8b8c-32c1cff46762"}},{"id":"336bc4c8-38f6-485a-bc9a-f9e03a746511","type":"Feature","feature_type":"anchor","geometry":{"type":"Point","coordinates":[30.372187111040635,60.00780891655311]},"properties":{"unit_id":"b3db7083-f542-4967-bd90-407b9bad2e91","address_id":"120a7458-86f2-42fb-bec5-aab4f6558bd3"}},{"id":"a5896dd9-9313-4561-b9aa-dbb98822f42e","type":"Feature","feature_type":"anchor","geometry":{"type":"Point","coordinates":[30.371185442068427,60.007798176181169]},"properties":{"unit_id":"b49b35c1-24e2-4d0a-8575-8ef31cb65eff","address_id":"87b24b8f-ab13-4b30-be04-13749153dc17"}},{"id":"dbc88828-c7cd-420e-8d36-e3899342c134","type":"Feature","feature_type":"anchor","geometry":{"type":"Point","coordinates":[30.371093405315644,60.007661840643216]},"properties":{"unit_id":"56973e88-dac8-4044-88a8-18d3781d41d4","address_id":"7d85c5e0-7824-4d9d-9b8f-75f968458d88"}},{"id":"6f1dd630-b78c-4046-b7eb-a2c873a54da9","type":"Feature","feature_type":"anchor","geometry":{"type":"Point","coordinates":[30.371033426076227,60.007724163837388]},"properties":{"unit_id":"681c6d99-00a1-4b18-9e60-83bd6aac54db","address_id":"95886178-ff78-4a58-a37a-da08c3e01b63"}},{"id":"8cbb34d8-2cb9-42e4-bc4f-a46f0b4aeb3b","type":"Feature","feature_type":"anchor","geometry":{"type":"Point","coordinates":[30.371292110209861,60.007703059914959]},"properties":{"unit_id":"314c353a-7b50-49b4-8633-e803414950ac","address_id":"388b695f-2923-46da-a585-d1892ceb2fd5"}},{"id":"abeeea1f-c022-41f1-9aa3-9d79b2499b7a","type":"Feature","feature_type":"anchor","geometry":{"type":"Point","coordinates":[30.371322760332419,60.007808227680684]},"properties":{"unit_id":"33f0de84-31cf-4578-ab38-1b230c4af6ee","address_id":"99e6a024-4185-42b0-9d82-be3264243372"}},{"id":"df2260e4-339a-4299-a40f-1a65e9389b18","type":"Feature","feature_type":"anchor","geometry":{"type":"Point","coordinates":[30.371306941197293,60.007784795040116]},"properties":{"unit_id":"c3bedb8a-e5f8-4548-b1bb-70683b0471b3","address_id":"c9531ef9-79bb-4050-aae8-bf2e8d1a6c3d"}},{"id":"5c80ed10-fc86-4652-9c76-08f628f32016","type":"Feature","feature_type":"anchor","geometry":{"type":"Point","coordinates":[30.371199085428508,60.007625026587142]},"properties":{"unit_id":"8a9c95ad-9e89-44c0-86c9-a59675da0d19","address_id":"bfca7445-3a7a-4478-932a-b808b8059c6b"}},{"id":"ff47a699-e915-40dd-9183-796aba75dbc0","type":"Feature","feature_type":"anchor","geometry":{"type":"Point","coordinates":[30.371260820068326,60.007607491627681]},"properties":{"unit_id":"0016a7fe-e76d-4df5-8dae-279b9a2cf505","address_id":"a0927912-1c9d-4221-bdc0-3d99eb693222"}},{"id":"4e8bd060-2183-494c-8312-0f3f3bebe662","type":"Feature","feature_type":"anchor","geometry":{"type":"Point","coordinates":[30.371163545842997,60.007579412803324]},"properties":{"unit_id":"95ec5e33-d343-4e04-bbc0-74cdf4a8a33b","address_id":"63339136-de39-44cb-a58d-83270b9b03ea"}},{"id":"ece305a3-1629-4139-a0cc-e27c3d37e299","type":"Feature","feature_type":"anchor","geometry":{"type":"Point","coordinates":[30.371141255827542,60.007546394132426]},"properties":{"unit_id":"27894f95-8308-449f-b423-5df31616d933","address_id":"1770533c-a0ce-4e6a-974c-2c58ac72fc73"}},{"id":"1c67926b-095e-48ef-8a66-74f258d62d53","type":"Feature","feature_type":"anchor","geometry":{"type":"Point","coordinates":[30.371118965834356,60.007513375187074]},"properties":{"unit_id":"c17ade86-afb4-4686-ac80-8ac35c68c6b0","address_id":"112657a7-fcc6-44c2-9f6a-675042d3ed6f"}},{"id":"9dfcf0fc-2184-4f75-bf65-7fe3e00bbf18","type":"Feature","feature_type":"anchor","geometry":{"type":"Point","coordinates":[30.371096675588909,60.007480356516176]},"properties":{"unit_id":"94927d6b-16c6-457d-806e-dbe4f4018692","address_id":"b768ffc8-d4db-4fe6-848a-86194f51bd03"}},{"id":"93a35cf9-7cc4-4721-9e5b-e9a1236493fd","type":"Feature","feature_type":"anchor","geometry":{"type":"Point","coordinates":[30.371074385640231,60.007447337570824]},"properties":{"unit_id":"f8496048-a53a-40bd-83be-1ce1a5e4e070","address_id":"9a9d3419-e94c-439b-b540-b6cc292d71f6"}},{"id":"812e3f16-8321-466f-b2a1-24c6695c9995","type":"Feature","feature_type":"anchor","geometry":{"type":"Point","coordinates":[30.371052095439289,60.007414318899926]},"properties":{"unit_id":"9fece7ad-973c-4fbb-9989-8cb528895040","address_id":"15b46425-00e2-451f-8836-a5ba89d1a49f"}},{"id":"0bd8aee9-e14c-4eb8-a445-4794a43f000e","type":"Feature","feature_type":"anchor","geometry":{"type":"Point","coordinates":[30.371030165093792,60.007381832664286]},"properties":{"unit_id":"6d0659bc-9a01-4557-983e-7479857c9e20","address_id":"797e0b1d-9a6c-4dbb-a258-de5f3214738c"}},{"id":"412d3ba8-8c64-46a0-bcf1-a50e97cb8c34","type":"Feature","feature_type":"anchor","geometry":{"type":"Point","coordinates":[30.371341148738317,60.007842498123352]},"properties":{"unit_id":"52baec95-477f-4916-bf22-b59b03eac5fe","address_id":"742e2737-5963-4e0c-b71b-a558fc989cfe"}},{"id":"2d762eba-ff60-4978-a74a-c44124f39c85","type":"Feature","feature_type":"anchor","geometry":{"type":"Point","coordinates":[30.371363438953342,60.00787551679425]},"properties":{"unit_id":"62749613-4c7f-4170-bfce-7ac616fad5d1","address_id":"81c1ad39-3136-4764-96b7-d56b88212bf5"}},{"id":"a6540e6c-265e-457d-9850-4c8d42ff633c","type":"Feature","feature_type":"anchor","geometry":{"type":"Point","coordinates":[30.371385729190603,60.0079085357396]},"properties":{"unit_id":"004848c2-26ba-4bb9-97d8-c4c57c4ae5d1","address_id":"54d5fc10-b391-4ddf-8b7e-9fcb42f01165"}},{"id":"84865ec0-86e2-4f63-bead-50cd595c96bf","type":"Feature","feature_type":"anchor","geometry":{"type":"Point","coordinates":[30.371474171779553,60.008039545552677]},"properties":{"unit_id":"485743f0-40ec-43d4-9478-7cafbae823e9","address_id":"5330978e-c62f-4cd5-a131-35a64d993bba"}},{"id":"9d66791f-c2e5-4f4e-8d0d-0aca6126fbd3","type":"Feature","feature_type":"anchor","geometry":{"type":"Point","coordinates":[30.3714299504413,60.007974040371685]},"properties":{"unit_id":"d5d32ec6-a389-4854-a26d-a3b95203d66c","address_id":"0c196375-6086-479f-96c5-22cec8711552"}},{"id":"24cafd72-7051-4917-9b42-c5ebe850029d","type":"Feature","feature_type":"anchor","geometry":{"type":"Point","coordinates":[30.371218806242318,60.00731322426396]},"properties":{"unit_id":"966a17c6-6391-42e2-ba23-d432602c301e","address_id":"4fe5cefb-ef34-4e4c-8fd5-ee917abb1069"}},{"id":"2fb0a7f4-c99f-4353-9378-78839e7b7108","type":"Feature","feature_type":"anchor","geometry":{"type":"Point","coordinates":[30.372207609256726,60.00764944039063]},"properties":{"unit_id":"8df2ffed-f613-48d2-9cd0-9320a8540fa1","address_id":"4ba6689d-2da1-4892-829e-1b7d762d021c"}},{"id":"ebf1677f-e8b6-44c2-b1f1-440fa6f7884c","type":"Feature","feature_type":"anchor","geometry":{"type":"Point","coordinates":[30.371961741143735,60.007482110533573]},"properties":{"unit_id":"57c6c9a8-55fa-4a41-89c6-bbf691f41989","address_id":"ba3ea5db-e7b0-4b73-bf13-dbf1e1fbfe5a"}},{"id":"536a4854-21c8-4cee-8c4d-7c1f99e493e3","type":"Feature","feature_type":"anchor","geometry":{"type":"Point","coordinates":[30.372012021568583,60.007549559377722]},"properties":{"unit_id":"fdc49d32-9d9b-401c-8637-6992ae0e359a","address_id":"f8328747-c7d3-49ba-887c-89da489ecb67"}},{"id":"057411b2-2b74-442f-839b-08ed776f51a5","type":"Feature","feature_type":"anchor","geometry":{"type":"Point","coordinates":[30.371884184492409,60.007571128494874]},"properties":{"unit_id":"f1de1845-2c56-42b8-9722-f56d808df720","address_id":"af80ab79-0c9f-4149-bb48-f3cecc1a1f83"}},{"id":"fccdaa2d-901d-46ec-a700-95322836ef36","type":"Feature","feature_type":"anchor","geometry":{"type":"Point","coordinates":[30.372135597238149,60.007528709048181]},"properties":{"unit_id":"ab115978-8444-4af7-b981-33ce4716ec2f","address_id":"b07cc868-d22d-4097-bbf1-80e72a0e9564"}},{"id":"d79bc29f-c944-4ce0-be8d-d85ab6c1cc53","type":"Feature","feature_type":"anchor","geometry":{"type":"Point","coordinates":[30.371794060451212,60.00754836853411]},"properties":{"unit_id":"03fde7d9-6446-4889-902a-3242cf57a194","address_id":"46c63624-455f-4ec2-a02e-899fbbdbbb18"}},{"id":"611a6aef-1596-4915-8e33-869975eb7888","type":"Feature","feature_type":"anchor","geometry":{"type":"Point","coordinates":[30.371728011498806,60.007559512623715]},"properties":{"unit_id":"070cb719-5e52-4d63-ba8c-279de50b1f71","address_id":"8a6475bd-98bc-480d-a560-97676bf49b00"}},{"id":"896e4227-a696-4ee6-89a4-7f963ac8c53c","type":"Feature","feature_type":"anchor","geometry":{"type":"Point","coordinates":[30.371661961975153,60.00757065671332]},"properties":{"unit_id":"abf8af45-37fc-4703-941e-9e5eb62416ca","address_id":"4a615285-3809-43e1-b3f8-1f2138b985e3"}},{"id":"e699c77f-150d-4513-b3bc-d6e1671ff6fe","type":"Feature","feature_type":"anchor","geometry":{"type":"Point","coordinates":[30.37151281862225,60.007595820866293]},"properties":{"unit_id":"40b8279f-4f3c-40de-8d32-d49e12f86912","address_id":"5820a3e4-194b-47c6-83d4-0f17a50531dd"}},{"id":"22ad10e1-feb3-4d2e-8c47-4209a538ba21","type":"Feature","feature_type":"anchor","geometry":{"type":"Point","coordinates":[30.371429724231039,60.007609840929668]},"properties":{"unit_id":"7f2fea9c-293a-4462-9399-ddffd92fb43b","address_id":"254808c7-3adc-4c73-92e6-dc4a6013c442"}},{"id":"cec3d23f-8597-4395-92ec-82be4ee38534","type":"Feature","feature_type":"anchor","geometry":{"type":"Point","coordinates":[30.372183963365657,60.00748258204068]},"properties":{"unit_id":"9fb5932d-28dc-4318-ba9f-0f54df5ccdcf","address_id":"5924706f-de11-4a9e-a4e4-f706e1c0b95a"}},{"id":"99acaa6c-5430-427c-aa73-e0be50de1609","type":"Feature","feature_type":"anchor","geometry":{"type":"Point","coordinates":[30.372250012164422,60.007471437951075]},"properties":{"unit_id":"60679c26-769f-433d-9e3e-501da850bc65","address_id":"2b1dabcb-f608-4008-a483-a0423e823871"}},{"id":"0bc59000-87f1-4136-ac5e-afb3eb4bd37b","type":"Feature","feature_type":"anchor","geometry":{"type":"Point","coordinates":[30.372382110244175,60.007449149771872]},"properties":{"unit_id":"36ec1a2e-a595-4fa6-9850-705cfa788a30","address_id":"0457ac6f-7e42-4ee5-8b22-5700720726d4"}},{"id":"ef6fdd51-4af4-4a5e-9ec5-1e1ffb41fd09","type":"Feature","feature_type":"anchor","geometry":{"type":"Point","coordinates":[30.372316061489922,60.007460293861477]},"properties":{"unit_id":"ffdf5e3b-a80f-4f90-9871-81d34bf91f86","address_id":"20a275ea-c23f-4d2f-b290-2298281a5e52"}},{"id":"186c4824-2228-4811-98aa-f00ba6a3cde3","type":"Feature","feature_type":"anchor","geometry":{"type":"Point","coordinates":[30.372448159525174,60.00743800540782]},"properties":{"unit_id":"7a7bfb81-5304-46ca-8125-b406495267e8","address_id":"416b0f8b-abd6-43aa-acdc-fe2be7c7b7ef"}},{"id":"5808ecdc-0d7c-4b25-9bc5-523b701e5e93","type":"Feature","feature_type":"anchor","geometry":{"type":"Point","coordinates":[30.372514208234914,60.007426861318216]},"properties":{"unit_id":"07775b7b-d0f8-4646-9360-5e2e76bb7118","address_id":"e5edde7b-39bc-4948-bc33-55ecce1438a7"}},{"id":"f5260cb3-8356-487c-99b6-af6a173f1943","type":"Feature","feature_type":"anchor","geometry":{"type":"Point","coordinates":[30.372581322524692,60.0074155374631]},"properties":{"unit_id":"86a6eb70-7438-4596-8104-af36841be536","address_id":"87e5b8e5-c919-43d9-9f2c-6b62991f6fcb"}},{"id":"4471d4fc-d159-4b36-ac3c-9ce8898502be","type":"Feature","feature_type":"anchor","geometry":{"type":"Point","coordinates":[30.372698026431355,60.007426694177454]},"properties":{"unit_id":"69801f35-a0cd-42b8-a633-f796cd6e6bfa","address_id":"b805fc79-b247-4ad7-ba82-0af42ef45df3"}},{"id":"a3a151b9-5991-4010-8511-bda5a43cdfbc","type":"Feature","feature_type":"anchor","geometry":{"type":"Point","coordinates":[30.373251984224535,60.007333227362757]},"properties":{"unit_id":"95cad370-776e-485b-8afb-ba3d0242725b","address_id":"ef05bd1f-feb1-4ca5-bf12-b027b2698e0c"}},{"id":"772f7094-d538-4943-8f2a-c1897169e877","type":"Feature","feature_type":"anchor","geometry":{"type":"Point","coordinates":[30.373451675142775,60.007268686603169]},"properties":{"unit_id":"9895e276-f790-4068-8d7a-4060ae652924","address_id":"4212b30f-1dff-40f9-a626-37c44047afc7"}},{"id":"13f7c608-9052-478c-920a-eabfc5983e25","type":"Feature","feature_type":"anchor","geometry":{"type":"Point","coordinates":[30.373517723788872,60.00725754223911]},"properties":{"unit_id":"95257c81-0c9f-4207-918a-4bb2ac96d36a","address_id":"77c50669-f800-42b8-ae5c-c5f03d6f0efa"}},{"id":"2f660619-33b5-49da-af40-728e49beb420","type":"Feature","feature_type":"anchor","geometry":{"type":"Point","coordinates":[30.373357928612574,60.007284504047227]},"properties":{"unit_id":"c5f2074e-fea3-4bbd-b81a-fad46c260265","address_id":"ef7b92d8-f51f-4920-9074-5a56a0e7ffdc"}},{"id":"627c0b9b-cc0f-4465-bf93-5df47f015799","type":"Feature","feature_type":"anchor","geometry":{"type":"Point","coordinates":[30.37365621267158,60.007234175741274]},"properties":{"unit_id":"be7675f0-5869-4233-839e-18e0cbb37afc","address_id":"9353311d-ab86-4f34-b28c-eb5a457ca454"}},{"id":"5b05da23-726a-4658-8ddd-0a0e59f2fa18","type":"Feature","feature_type":"anchor","geometry":{"type":"Point","coordinates":[30.373896331105339,60.007155695058053]},"properties":{"unit_id":"52e1ae38-dc62-4cac-9997-bc44e4ae6e03","address_id":"f948d125-3d2b-45d9-bb5a-8684dd3d3725"}},{"id":"4d95e4bd-8082-41e2-b4a9-fabcf5f03c10","type":"Feature","feature_type":"anchor","geometry":{"type":"Point","coordinates":[30.373946613254784,60.0072231439022]},"properties":{"unit_id":"a0713931-1463-4245-b551-850516d298cc","address_id":"6354eb2d-a118-452b-bb71-f8cb0300ae90"}},{"id":"d67bdb96-5669-4c0f-98e4-f491b8cc0af4","type":"Feature","feature_type":"anchor","geometry":{"type":"Point","coordinates":[30.373847540299963,60.007239860173833]},"properties":{"unit_id":"8e239e43-dd4c-4b5e-be86-ad6776e4999d","address_id":"59557760-0113-411c-9a72-c848581bcfab"}},{"id":"cb99e8c9-d722-4909-b198-ceca944f1f4d","type":"Feature","feature_type":"anchor","geometry":{"type":"Point","coordinates":[30.374045685885037,60.007206427630571]},"properties":{"unit_id":"e05e213b-1f71-44e0-8f9d-5188a48398e1","address_id":"6ece3ed1-96e9-4552-a25a-4b038d87ad5b"}},{"id":"5f5427af-d98c-4857-9099-a8dc78920d2f","type":"Feature","feature_type":"anchor","geometry":{"type":"Point","coordinates":[30.37159591297824,60.007581800802917]},"properties":{"unit_id":"3571fc30-8a8c-493a-ac07-d58b67804640","address_id":"4fa077ae-3079-498f-a69a-38e364a9351e"}},{"id":"c429a79f-def3-4302-bc5f-023d250bc7a4","type":"Feature","feature_type":"anchor","geometry":{"type":"Point","coordinates":[30.374118552244418,60.00715616656516]},"properties":{"unit_id":"86517bd5-445f-4a7d-b02a-a7dda8056bc5","address_id":"b6cc90dc-cfae-450f-8041-aa4294b0d7cf"}},{"id":"fa1269c8-9b28-49ac-8b1f-0e629473846a","type":"Feature","feature_type":"anchor","geometry":{"type":"Point","coordinates":[30.374180339389447,60.007145741537613]},"properties":{"unit_id":"72a81a25-3f32-4993-90d6-b379a737e6b7","address_id":"fb0a4db1-781a-44b5-9401-b479862f5cdf"}},{"id":"74052633-6ce6-49a0-b1f9-92393617d476","type":"Feature","feature_type":"anchor","geometry":{"type":"Point","coordinates":[30.374242126515,60.007135316235612]},"properties":{"unit_id":"d035cdfc-4444-4d9c-8b2d-64d5aed4b325","address_id":"d9db0aab-f651-4e29-926f-f128e0acc69e"}},{"id":"47b58dcf-1411-4166-82ce-bbe91d6e7791","type":"Feature","feature_type":"anchor","geometry":{"type":"Point","coordinates":[30.374303913621077,60.007124891208065]},"properties":{"unit_id":"286e3c63-6a50-452d-9a15-0b95c3bf3ac0","address_id":"e06c773c-a52c-4da7-aacc-5b9a38228c5d"}},{"id":"6999f0f4-458a-46f6-b40a-fc582af8e786","type":"Feature","feature_type":"anchor","geometry":{"type":"Point","coordinates":[30.374365700982175,60.007114465906064]},"properties":{"unit_id":"50efe979-640f-4253-a40b-d6235432c172","address_id":"41e4a32b-7b90-4718-bcc8-b50c38c81af8"}},{"id":"379ea9b3-5f99-4b89-804a-a322e6966a8d","type":"Feature","feature_type":"anchor","geometry":{"type":"Point","coordinates":[30.374427488049296,60.007104040878517]},"properties":{"unit_id":"7de0e1f5-ac80-4f72-9159-5b83b6f0b3db","address_id":"dc95f110-d648-4f53-8d1f-5500dc8046fc"}},{"id":"86ba29de-7d1e-4196-bd2e-cf400036d882","type":"Feature","feature_type":"anchor","geometry":{"type":"Point","coordinates":[30.37448607914466,60.007094154873066]},"properties":{"unit_id":"ec85e72a-0e5f-4054-b494-425e6e0eb80f","address_id":"023e2e78-e351-4c6d-88fa-d09a47caa216"}},{"id":"327f75a3-3310-4ee7-bf31-7f30fb37ec7a","type":"Feature","feature_type":"anchor","geometry":{"type":"Point","coordinates":[30.373912097728535,60.007361849874876]},"properties":{"unit_id":"a607e432-1ef9-4098-ab66-7863b74fb43f","address_id":"785da1b5-b06c-4418-a92c-7188247e9fc7"}},{"id":"feee9279-0db8-4a97-8c4f-1a1ae9617d44","type":"Feature","feature_type":"anchor","geometry":{"type":"Point","coordinates":[30.3744594730313,60.007054745332312]},"properties":{"unit_id":"82739836-a218-472b-a9f7-3362dcf1de91","address_id":"ff798aef-3b67-4533-9a6f-68a4f857204b"}},{"id":"f702a045-06c4-4146-b226-2c3fcc468ffc","type":"Feature","feature_type":"anchor","geometry":{"type":"Point","coordinates":[30.374301115254291,60.006799089405348]},"properties":{"unit_id":"3010ec00-e181-4193-848e-bb2dc370b8cc","address_id":"e5e71206-fd04-4deb-b160-28091e020609"}},{"id":"c0a00f1f-ef18-4275-84bf-fab7fca60532","type":"Feature","feature_type":"anchor","geometry":{"type":"Point","coordinates":[30.374524706889943,60.006792804199193]},"properties":{"unit_id":"b5ac505e-c1eb-4da3-a127-0e42d7d92273","address_id":"0358555a-5ea5-4845-be62-43403b304db4"}},{"id":"843cdcb0-e314-4239-b1df-695bd05890ce","type":"Feature","feature_type":"anchor","geometry":{"type":"Point","coordinates":[30.374546998340413,60.006825823144545]},"properties":{"unit_id":"37d87cc5-5732-4832-b390-a7fde2ff81ba","address_id":"20cc1459-963a-4bf1-998c-f12399dd0d2c"}},{"id":"4e548778-608b-4583-8a5c-1b564b508797","type":"Feature","feature_type":"anchor","geometry":{"type":"Point","coordinates":[30.374569289950387,60.006858841815443]},"properties":{"unit_id":"798e3241-0648-4fe4-9de4-0df398734ea3","address_id":"10a16bb9-49bd-40d0-af1e-a1bb1d2348a5"}},{"id":"1bc36125-3a02-49dc-b3f8-42fd17180922","type":"Feature","feature_type":"anchor","geometry":{"type":"Point","coordinates":[30.374591581582614,60.006891860760796]},"properties":{"unit_id":"08403602-574f-47da-afcb-0cd4c934acbd","address_id":"d8092f92-5377-4109-88ee-ba8b753bcc65"}},{"id":"f551d1a6-ec7b-4edb-8669-deea9b17e103","type":"Feature","feature_type":"anchor","geometry":{"type":"Point","coordinates":[30.374613873237095,60.006924879431693]},"properties":{"unit_id":"6d2f3eca-ff45-40c6-8f3e-b7a7465e54a1","address_id":"e65d3a4d-d8bd-4bd0-9a85-c9e6a15bab08"}},{"id":"acfe26c5-2312-4347-8094-9fcc7e61a6ff","type":"Feature","feature_type":"anchor","geometry":{"type":"Point","coordinates":[30.374707713878941,60.007063877969316]},"properties":{"unit_id":"429d9654-da48-46f1-ad36-03bc8138cc60","address_id":"e9dfb612-e865-4aba-ad13-c8a557ca3dd6"}},{"id":"d2f9a730-91d2-41a4-8ca6-3e4603eb5b70","type":"Feature","feature_type":"anchor","geometry":{"type":"Point","coordinates":[30.374752297442047,60.007129915585566]},"properties":{"unit_id":"da4248e0-275b-4445-bd0c-1cf882aba19b","address_id":"dc2e0130-6715-4da0-8c7b-a26de4854b1b"}},{"id":"e480adf8-1634-4292-8a82-a8357db9d3b8","type":"Feature","feature_type":"anchor","geometry":{"type":"Point","coordinates":[30.374651265584795,60.006980265872635]},"properties":{"unit_id":"0841883b-0fd9-45fa-96ca-ef9eae482e1b","address_id":"bcd4f938-6742-4454-b74d-1ce1f30da7ac"}},{"id":"a915bb58-3b02-46e9-b596-54762e12fe82","type":"Feature","feature_type":"anchor","geometry":{"type":"Point","coordinates":[30.374796880956929,60.007195953201816]},"properties":{"unit_id":"c9d663af-5d4b-4fdd-acf8-bdbe4eeee082","address_id":"db3f51bb-5460-4fe5-b10d-cae5ace60922"}},{"id":"f023e506-c776-4f92-8e80-b6459a1daedd","type":"Feature","feature_type":"anchor","geometry":{"type":"Point","coordinates":[30.374838228674342,60.007257197528446]},"properties":{"unit_id":"86541214-1044-47ff-a688-b2100023263c","address_id":"98d1f831-8635-4257-8c95-da5add29c625"}},{"id":"cdb1ba9e-d93a-45be-8cfd-66017bdc1b70","type":"Feature","feature_type":"anchor","geometry":{"type":"Point","coordinates":[30.374882812498054,60.007323235144696]},"properties":{"unit_id":"a7ad5112-da5d-41c2-998c-b81188e25222","address_id":"462b1df1-cd1c-46bb-a6b2-4211263a2dd9"}},{"id":"e3cc6b68-3837-4b04-a304-b2a2c2e9e0e5","type":"Feature","feature_type":"anchor","geometry":{"type":"Point","coordinates":[30.374905104306045,60.007356254090048]},"properties":{"unit_id":"be1603cc-5393-4b6a-aeea-aa24c64610ef","address_id":"7c94145b-c74d-4535-a86a-8dd4fac37cd5"}},{"id":"0a2863a8-979e-403b-8ae8-f8a036698d50","type":"Feature","feature_type":"anchor","geometry":{"type":"Point","coordinates":[30.374860520575073,60.0072902164738]},"properties":{"unit_id":"b08b782e-b13c-4377-a31e-cd185f2ded33","address_id":"f1369389-2f6c-45ed-a547-7996013a8def"}},{"id":"4ac3d3d1-be87-488a-ae04-0205dfe0eb83","type":"Feature","feature_type":"anchor","geometry":{"type":"Point","coordinates":[30.37496838477913,60.007449984926772]},"properties":{"unit_id":"7914f295-b317-483a-b15c-f362a31d0c90","address_id":"08b75408-2ae4-4742-8a41-56f41d971597"}},{"id":"14faea7d-b689-4e5a-911b-64801f3d0c40","type":"Feature","feature_type":"anchor","geometry":{"type":"Point","coordinates":[30.374936744657418,60.007403119371183]},"properties":{"unit_id":"17895583-d5c6-45bb-a849-38f2607932fa","address_id":"17ef7a39-e3f3-4997-acdb-9cb96e6b3dda"}},{"id":"d3a293f0-1cc2-42bf-868f-32feb240c521","type":"Feature","feature_type":"anchor","geometry":{"type":"Point","coordinates":[30.373025746592678,60.007572304518121]},"properties":{"unit_id":"dd4c03b6-da81-497f-9de9-d7cd49521477","address_id":"e36d5026-6dbb-4abf-b1f6-3dc4579758a0"}},{"id":"61504868-28b1-4479-a33d-03d191f75e8b","type":"Feature","feature_type":"anchor","geometry":{"type":"Point","coordinates":[30.372993990972073,60.007636589214769]},"properties":{"unit_id":"b795d4ad-b115-4a73-b7f6-cae2777d1223","address_id":"471f1855-da6a-48ff-9502-7e8ae87591f3"}},{"id":"430e134d-e383-4a63-9935-43eb2f36f10b","type":"Feature","feature_type":"anchor","geometry":{"type":"Point","coordinates":[30.373271085057976,60.007590025281019]},"properties":{"unit_id":"4b55a781-715b-4815-a7db-ce6bbe9ac281","address_id":"b1bd2ce8-bf22-4e89-83d5-f533f4f45958"}},{"id":"1867881c-68ac-4145-93d0-33de7133d184","type":"Feature","feature_type":"anchor","geometry":{"type":"Point","coordinates":[30.373201511326631,60.007715474164563]},"properties":{"unit_id":"2475eeb4-fa83-46d1-ba83-b9cdee6ac06f","address_id":"d5339ff1-21be-4afd-a810-0d0ba2415e8b"}},{"id":"df420b1d-ce3a-45bb-aa15-102f40f81dff","type":"Feature","feature_type":"anchor","geometry":{"type":"Point","coordinates":[30.373277789010341,60.007550739243285]},"properties":{"unit_id":"8eaaefdb-d1ee-409a-99e8-c7829f046122","address_id":"1e2b8e08-0e51-41a5-9093-18f5d27c41de"}},{"id":"6e3fd651-340a-4be4-b60a-4d6c9ea658f6","type":"Feature","feature_type":"anchor","geometry":{"type":"Point","coordinates":[30.373143181458214,60.007442753138541]},"properties":{"unit_id":"dc041240-cd57-4ae5-a1e9-406a31cf6455","address_id":"6ef6fa9d-5164-4643-98c0-e55513bb2553"}},{"id":"c84d1066-5e1f-41a6-bacd-66d016912fdc","type":"Feature","feature_type":"anchor","geometry":{"type":"Point","coordinates":[30.373240266424038,60.007474066095448]},"properties":{"unit_id":"105c26db-6ea8-4875-95f8-6e4a96d16749","address_id":"3063bcc6-cf6c-4220-bb9d-c5b64cc2c929"}},{"id":"99d9c5e7-cee6-446f-a8ab-561709ced32f","type":"Feature","feature_type":"anchor","geometry":{"type":"Point","coordinates":[30.372917336733835,60.007480858761809]},"properties":{"unit_id":"669de416-f07b-4717-9a9e-9bffda3e0788","address_id":"08416839-31b9-4b52-b59a-2bf354645b35"}},{"id":"d35f958c-5c20-4223-9379-d15047bd71b9","type":"Feature","feature_type":"anchor","geometry":{"type":"Point","coordinates":[30.372172819143753,60.007942430184173]},"properties":{"unit_id":"a981fbeb-e749-4151-952f-2c1f80f0ada7","address_id":"6b87c276-4ecf-4127-8127-eef81cbc942b"}},{"id":"7e1762ec-cd0e-4804-833d-764356a44d6e","type":"Feature","feature_type":"anchor","geometry":{"type":"Point","coordinates":[30.372360314042083,60.007910795296048]},"properties":{"unit_id":"633e537b-74ea-494d-93d3-7d073b259d64","address_id":"36f116bb-d129-44c5-8738-d6dedfb216f3"}},{"id":"a5b65495-182e-4aa1-a426-5f97b5207f31","type":"Feature","feature_type":"anchor","geometry":{"type":"Point","coordinates":[30.372266566615338,60.007926612740114]},"properties":{"unit_id":"98a21c1d-c7c7-4a42-a878-e69bd88b52f6","address_id":"a05e7e3c-c986-4b0d-b0d0-eb7dafad4f2b"}},{"id":"b21604d5-3520-4745-bacd-747fcc52ae43","type":"Feature","feature_type":"anchor","geometry":{"type":"Point","coordinates":[30.374996575326826,60.007463618288448]},"properties":{"unit_id":"4916303a-6ee3-4055-839f-f4d6bb582eb0","address_id":"301944a3-3e44-4de7-aed0-5beb19cc2e6f"}},{"id":"ecb529eb-f9bc-43f6-9a48-22c1a328cfe9","type":"Feature","feature_type":"anchor","geometry":{"type":"Point","coordinates":[30.371327649700717,60.008082657439658]},"properties":{"unit_id":"84d508b5-1249-4041-bff3-23ed5d771b3f","address_id":"fe1fd0aa-eb2e-4c8a-9733-1216374d5533"}},{"id":"b5a28c85-5e0c-4e5a-b22f-00af65155110","type":"Feature","feature_type":"anchor","geometry":{"type":"Point","coordinates":[30.370838704725919,60.007358374225305]},"properties":{"unit_id":"b00edf9d-2d23-4411-bc04-21f41a17f88e","address_id":"ac3ce38a-4f10-4c7c-8d03-88f42a99793f"}},{"id":"8b32da77-6f73-4a85-b384-55dbb40de2aa","type":"Feature","feature_type":"anchor","geometry":{"type":"Point","coordinates":[30.374507594890964,60.0067393350741]},"properties":{"unit_id":"7977b9bd-291a-4f2e-b3d9-0c8980354013","address_id":"feb3a6cc-5fc7-48df-82ce-226f89873e93"}},{"id":"465d4713-84ce-4935-bfa3-4073e1f6bf7f","type":"Feature","feature_type":"anchor","geometry":{"type":"Point","coordinates":[30.374790094008198,60.0075233726197]},"properties":{"unit_id":"30738ec6-d209-4efc-bf17-c09bb8abe2dc","address_id":"ad453168-318d-4404-a545-f6a6d9f143ec"}},{"id":"b07fa4e6-4926-4b37-9710-543fbc3a6c73","type":"Feature","feature_type":"anchor","geometry":{"type":"Point","coordinates":[30.37209399350181,60.007670983160466]},"properties":{"unit_id":"acc16099-dd47-453f-b369-ee77c54d4c61","address_id":"cb361745-6d0d-4d81-8299-6525f96595c8"}},{"id":"93394323-1081-44da-801c-2c72ee2dc791","type":"Feature","feature_type":"anchor","geometry":{"type":"Point","coordinates":[30.37209399350181,60.007670983160466]},"properties":{"unit_id":"0fa9181b-68fc-4ea1-8fa2-42431c0907ba","address_id":"9ff61e81-ef9d-4c4d-8f94-4229175b3bf5"}},{"id":"17267c1d-514c-49a4-bfbf-ef8c58abb484","type":"Feature","feature_type":"anchor","geometry":{"type":"Point","coordinates":[30.374028588197625,60.007344567684946]},"properties":{"unit_id":"fdc31285-bb32-4328-a2f5-9d950390c420","address_id":"fa93637a-0caa-4a27-bd90-bf5ca1704c22"}},{"id":"dc889c40-7f7b-4716-bb67-1489c8cc8d65","type":"Feature","feature_type":"anchor","geometry":{"type":"Point","coordinates":[30.374028588197625,60.007344567684946]},"properties":{"unit_id":"162c8e79-aad8-4902-bcf2-cf5ba3a7637f","address_id":"c3918c40-ef3f-4fda-a27a-452f280c80e2"}},{"id":"1bb03a54-46c1-45ff-9ab4-1d5be04666aa","type":"Feature","feature_type":"anchor","geometry":{"type":"Point","coordinates":[30.3744594730313,60.007054745332312]},"properties":{"unit_id":"65cfa8fa-2f16-4371-852b-61b1d5d4ef02","address_id":"15218961-b42a-48da-9722-9c454e61d0ac"}},{"id":"4e327ed6-f65c-4aab-96b8-9efaaceff0ea","type":"Feature","feature_type":"anchor","geometry":{"type":"Point","coordinates":[30.374511593009174,60.007082731392174]},"properties":{"unit_id":"72a1339f-af06-42fb-aa4c-8c2735c628ad","address_id":"9fe411fd-d2aa-4bae-8975-6044386514f7"}},{"id":"9f2a30aa-c341-4d79-a8a1-83f097f68d67","type":"Feature","feature_type":"anchor","geometry":{"type":"Point","coordinates":[30.373045473694546,60.007484342644908]},"properties":{"unit_id":"ba4efc0b-4b91-4ecc-bc11-930250808f26","address_id":"70c48169-9f39-4b56-b5ce-6546fdb730ae"}},{"id":"158a9d2c-a45f-45ec-b274-57843c0af0fe","type":"Feature","feature_type":"anchor","geometry":{"type":"Point","coordinates":[30.374996575326826,60.007463618288448]},"properties":{"unit_id":"322b5e24-d3f8-4b3e-a438-da3b45b6cda7","address_id":"5dd53c4a-0220-4cc9-b8cd-edcfc4bfe090"}},{"id":"83d4b5f3-c44b-4054-9d20-bb5e478b85d9","type":"Feature","feature_type":"anchor","geometry":{"type":"Point","coordinates":[30.371327649700717,60.008082657439658]},"properties":{"unit_id":"73148e79-5be4-46a6-871d-3e12fc443362","address_id":"56b5a1e0-b5c2-4618-a606-b152ce8917ef"}},{"id":"0b4b916f-89b1-4c59-bf2a-8142e3d17451","type":"Feature","feature_type":"anchor","geometry":{"type":"Point","coordinates":[30.370838704725919,60.007358374225305]},"properties":{"unit_id":"0f2ddb2c-60ad-4788-a4b8-1b9a028a78e2","address_id":"51f69333-9463-4ec1-bb6a-e7879758096e"}},{"id":"82659ed2-e973-4fdc-9694-29ccb2e1c048","type":"Feature","feature_type":"anchor","geometry":{"type":"Point","coordinates":[30.374507594890964,60.0067393350741]},"properties":{"unit_id":"d2011ab9-6f0d-4c93-8b01-175b4fe8a4c6","address_id":"89382e42-a31d-4af5-bbb4-9e3e9ad92f4e"}},{"id":"3c11ef53-b5b1-46b5-85c5-50c7b0911d98","type":"Feature","feature_type":"anchor","geometry":{"type":"Point","coordinates":[30.371514502835709,60.008155537397933]},"properties":{"unit_id":"6d3c60c2-f047-446e-9dbb-2621478fc453","address_id":"edc48e1f-fa00-43a4-a51b-d1371b00e6e8"}},{"id":"0abcbee0-e0fb-48c5-8e92-857e9cf6f685","type":"Feature","feature_type":"anchor","geometry":{"type":"Point","coordinates":[30.375070509265345,60.007555551470034]},"properties":{"unit_id":"1f82d0b9-fa47-40d6-8092-68ec1755dd4f","address_id":"4a713b3e-bf8e-462a-95d5-580b4574a1f6"}},{"id":"04bcb3ba-3258-4598-8153-d6e66bb99469","type":"Feature","feature_type":"anchor","geometry":{"type":"Point","coordinates":[30.374874493801116,60.007588624482267]},"properties":{"unit_id":"d9db81c5-f83e-4653-8f70-e3a16e3b345d","address_id":"58e6c2e6-76ff-40b2-8839-e3ad82f1e24b"}},{"id":"3e6761bb-1e3c-41a7-bea4-30e0507cc8de","type":"Feature","feature_type":"anchor","geometry":{"type":"Point","coordinates":[30.37171052193451,60.008122464385707]},"properties":{"unit_id":"eed76ea1-ba5f-4bf4-bd36-e784854ef737","address_id":"bc185709-c5c6-42b2-8bb8-d07112a4d46b"}},{"id":"9b6bd468-642f-4c03-a294-b4c3e2627191","type":"Feature","feature_type":"anchor","geometry":{"type":"Point","coordinates":[30.371707754771009,60.008037507478313]},"properties":{"unit_id":"71335841-bedf-4204-92db-929218ce6b39","address_id":"206a1f71-c0a2-4f69-9070-a09c2c4474e3"}},{"id":"c579ef71-1186-4923-ab79-123c5f2033e2","type":"Feature","feature_type":"anchor","geometry":{"type":"Point","coordinates":[30.374493989054109,60.007105871193346]},"properties":{"unit_id":"733bf6b5-1c52-4cfd-8444-a66ba375ab4a","address_id":"4fa93509-689f-4544-9238-c19e4653dee1"}},{"id":"9487f0ee-c6a7-4e23-af7f-ddd2400325b9","type":"Feature","feature_type":"anchor","geometry":{"type":"Point","coordinates":[30.371427061033135,60.007610290480677]},"properties":{"unit_id":"44f12423-7a58-4383-83af-9507eaf90580","address_id":"12cef260-a30c-494c-8243-dba71687c194"}},{"id":"a2ede2e4-ee3f-4493-9849-ef19349bb47a","type":"Feature","feature_type":"anchor","geometry":{"type":"Point","coordinates":[30.374179595567472,60.007568243464213]},"properties":{"unit_id":"4c640e97-8aec-423c-8e76-77942373325d","address_id":"8e2eac64-c113-47e3-acb7-6a29638831cc"}},{"id":"c481e58f-9c43-4768-a903-a052cbdba10f","type":"Feature","feature_type":"anchor","geometry":{"type":"Point","coordinates":[30.373999132818255,60.007589200555259]},"properties":{"unit_id":"802666e1-68ea-4f96-82c0-f0793664260b","address_id":"14ba01ca-6b89-41c6-b300-f6f61a1a385f"}},{"id":"536b6242-8895-4ab0-9983-88437561ed41","type":"Feature","feature_type":"anchor","geometry":{"type":"Point","coordinates":[30.3743485522642,60.007530244602449]},"properties":{"unit_id":"ed6558d1-2a2d-4e23-ae28-e9c5f126a5d9","address_id":"1abe0866-c5dd-4a9a-8dc3-ce54a30899a4"}},{"id":"8cb93a27-23d6-4595-bf67-a311681409a0","type":"Feature","feature_type":"anchor","geometry":{"type":"Point","coordinates":[30.374583611216938,60.0074882110341]},"properties":{"unit_id":"23d85377-8820-45ba-91c9-2b3a01548ada","address_id":"afb541ef-b4ba-46a9-9c9f-3728f938e447"}},{"id":"a93c43d0-a0fc-43b4-bf4f-8f0e6f8b3844","type":"Feature","feature_type":"anchor","geometry":{"type":"Point","coordinates":[30.371218806242318,60.00731322426396]},"properties":{"unit_id":"d5e0df5b-1c3e-4c6e-bb5c-e15e7e98c906","address_id":"2c926edf-3c13-4ad0-996e-007fc0ea2449"}},{"id":"f421d345-814d-4781-88dd-111debc645a8","type":"Feature","feature_type":"anchor","geometry":{"type":"Point","coordinates":[30.372086802950044,60.007660331985157]},"properties":{"unit_id":"0aa9636f-c3ea-4ea5-8d8f-5a2c33da803d","address_id":"22945245-f3d8-4ad6-82b7-73d908a958f7"}},{"id":"0c9f41d5-84f6-4310-9b51-4b5a5b4361fa","type":"Feature","feature_type":"anchor","geometry":{"type":"Point","coordinates":[30.37402139736982,60.007333916509637]},"properties":{"unit_id":"d1d9e9b5-d7a8-43d2-8ee9-7bf8a7f0ca85","address_id":"0aacd42b-8fb5-4397-9220-f06204ba0ed7"}},{"id":"3df45df6-e212-470d-858a-9a9deecb7dcc","type":"Feature","feature_type":"anchor","geometry":{"type":"Point","coordinates":[30.37298102123426,60.007613862188151]},"properties":{"unit_id":"4b287f11-5324-406a-b8f1-eea67b37d26a","address_id":"37bce4b1-0dd9-40e9-8bff-46d6578680e4"}},{"id":"f2e183e6-2a32-4b89-8432-173b5b96edc8","type":"Feature","feature_type":"anchor","geometry":{"type":"Point","coordinates":[30.372316855347343,60.007795923760447]},"properties":{"unit_id":"c2695e81-d5d9-4526-875d-dad026ea96bd","address_id":"fa3d5f62-5932-440e-a611-4470a2053682"}},{"id":"863e6454-c1eb-4266-9464-f6c954972d14","type":"Feature","feature_type":"anchor","geometry":{"type":"Point","coordinates":[30.372068927857036,60.007837755332744]},"properties":{"unit_id":"b70645f0-375c-446e-bcc7-1d838434a1a5","address_id":"9018c212-193f-4933-bd11-b22bf657934a"}},{"id":"35dab587-936b-4690-b97d-460eb70f35a7","type":"Feature","feature_type":"anchor","geometry":{"type":"Point","coordinates":[30.372278851355578,60.007694369418786]},"properties":{"unit_id":"a21baf6f-6d09-4c3b-a973-2d584b44e125","address_id":"83a8c5c0-f3ac-4204-ab7e-c26870904eb4"}},{"id":"f16c518b-7c43-4427-95d6-fc7ce334f5a6","type":"Feature","feature_type":"anchor","geometry":{"type":"Point","coordinates":[30.37197528800759,60.007745588044315]},"properties":{"unit_id":"cf5ed5ee-596f-4df4-a168-166af041c6af","address_id":"01ae436d-d5a3-4acb-adf5-47b697d3f89e"}},{"id":"a40c8de8-e712-4d2f-bc07-ea45dbbffea5","type":"Feature","feature_type":"anchor","geometry":{"type":"Point","coordinates":[30.372141875563237,60.0077981591652]},"properties":{"unit_id":"3bba2ea8-f1c6-49ef-b5ba-f4285dc8bd52","address_id":"d4e75515-9d46-432a-8428-5f53d92b35d9"}},{"id":"7cc0828b-c112-4a0a-903d-6d52f213999d","type":"Feature","feature_type":"anchor","geometry":{"type":"Point","coordinates":[30.372028315859204,60.007731895401186]},"properties":{"unit_id":"a56d0650-d796-445d-8a52-c55d7e1b8658","address_id":"234bf386-544f-487a-b751-341f85870d53"}},{"id":"a2ea28de-c8c8-43db-be4b-d0d8ae487dab","type":"Feature","feature_type":"anchor","geometry":{"type":"Point","coordinates":[30.372220071563291,60.007699541451011]},"properties":{"unit_id":"27d9494e-f9f9-484d-9045-8300332bdd57","address_id":"b85dcc37-9e6f-4207-8497-c32b8a2cc6c8"}},{"id":"fc25e08c-c2da-4ce5-b008-536672598bdf","type":"Feature","feature_type":"anchor","geometry":{"type":"Point","coordinates":[30.371794060451212,60.00754836853411]},"properties":{"unit_id":"df492c74-e70e-42ad-98a9-cce6f4f2d4b1","address_id":"c3c6493c-2b38-4e85-a7f9-8f014ae3b4f4"}},{"id":"24206b02-6a3d-4377-a2da-5b4c0f714871","type":"Feature","feature_type":"anchor","geometry":{"type":"Point","coordinates":[30.371983259755527,60.007506954402039]},"properties":{"unit_id":"1cbe883c-61c6-4668-808a-3907668bf4e6","address_id":"063733f7-7f79-4102-a108-3d3bd7c344b6"}},{"id":"fd4aa10d-467e-4595-a244-1e1c11425273","type":"Feature","feature_type":"anchor","geometry":{"type":"Point","coordinates":[30.373662604603169,60.007233097148195]},"properties":{"unit_id":"8e525377-204a-4e7f-bff7-68614b542645","address_id":"e22669db-9582-4c58-87f4-f0c7a9cc8649"}},{"id":"01f19688-b3b9-4d41-b7e4-d32f33f49bc5","type":"Feature","feature_type":"anchor","geometry":{"type":"Point","coordinates":[30.373728653178187,60.00722195305859]},"properties":{"unit_id":"e018fcf4-890d-4057-a978-d975dda9eb1c","address_id":"3a75ea12-0c13-4346-a656-aa607638ed46"}},{"id":"8f75cf51-9c4d-4ccd-ac3b-848d5c02613b","type":"Feature","feature_type":"anchor","geometry":{"type":"Point","coordinates":[30.37346232809859,60.007266888948031]},"properties":{"unit_id":"148c77a9-61d5-43e4-a56e-e67d32bfe045","address_id":"63df80f7-1697-44aa-be2b-d33c40b62551"}},{"id":"7d6e133a-6247-4f6a-a551-7e441f0b485a","type":"Feature","feature_type":"anchor","geometry":{"type":"Point","coordinates":[30.373330231021306,60.007289177401681]},"properties":{"unit_id":"451a11b8-4099-492d-8b86-21f99aa94aeb","address_id":"819f1bf1-46bb-41f4-bb5d-c43c13321049"}},{"id":"a1862bd7-543e-4be5-aa21-c15f8c08426f","type":"Feature","feature_type":"anchor","geometry":{"type":"Point","coordinates":[30.372642659082342,60.007344679661017]},"properties":{"unit_id":"7cbacd7f-84b8-4aae-86e6-d73086315410","address_id":"020e98ed-d207-432b-be11-57dcec867b93"}},{"id":"d6242d78-19e5-4092-b5a4-6b1de90afcd1","type":"Feature","feature_type":"anchor","geometry":{"type":"Point","coordinates":[30.37173227227948,60.007558793561657]},"properties":{"unit_id":"fe3f6b2e-ccfc-4b39-9676-3b9d72eb35a3","address_id":"e78f9efe-e475-43d1-ae0e-4b538ec8652e"}},{"id":"eab451d1-0d63-41ba-9f13-5d3d4c338ab1","type":"Feature","feature_type":"anchor","geometry":{"type":"Point","coordinates":[30.371670484637256,60.007569218863658]},"properties":{"unit_id":"5d6ec619-9439-4835-92af-b62e3aae0783","address_id":"c5f8c767-dc52-4979-9984-42ad5bd9b7e9"}},{"id":"a3ce9208-e437-4fe9-bd05-94bb84e0a5b4","type":"Feature","feature_type":"anchor","geometry":{"type":"Point","coordinates":[30.371608696426577,60.007579643891205]},"properties":{"unit_id":"67e3d787-eb3a-4b58-8b27-e30b02eb50a3","address_id":"45886d34-c58f-4c0f-b770-1aae6828051e"}},{"id":"b0500f31-84be-40c7-b1c5-0bf1ea64fc81","type":"Feature","feature_type":"anchor","geometry":{"type":"Point","coordinates":[30.371546908745398,60.007590069193206]},"properties":{"unit_id":"6d40cbb1-5b21-4063-b4b0-441443f01127","address_id":"50e15178-81e0-4928-8b4e-bbf786b53a7f"}},{"id":"687eb2fa-7802-42ed-b589-58240ec8bc37","type":"Feature","feature_type":"anchor","geometry":{"type":"Point","coordinates":[30.371485120495763,60.007600494220753]},"properties":{"unit_id":"80466f10-2eeb-4fec-9bcb-5f0bf677413e","address_id":"263aca89-f0f9-423c-9b4e-679cdae77d26"}},{"id":"bdaae184-19fa-4a35-8283-eaf22fea5673","type":"Feature","feature_type":"anchor","geometry":{"type":"Point","coordinates":[30.3712214914761,60.007708943324609]},"properties":{"unit_id":"38e64533-e4c1-4f09-a132-edc544b7b5bd","address_id":"1726716a-5064-489d-ab4d-fb99f60dff78"}},{"id":"2d18d352-08b9-43ce-9578-8f33cd31e925","type":"Feature","feature_type":"anchor","geometry":{"type":"Point","coordinates":[30.371308863483776,60.007661080687939]},"properties":{"unit_id":"26aa8a1b-9292-48f0-874b-237d8f1fd9fc","address_id":"3e06c3e9-7065-4077-8150-158904b3e34f"}},{"id":"0d1687bf-0ef8-43b8-be9e-d1eb3bbf1d17","type":"Feature","feature_type":"anchor","geometry":{"type":"Point","coordinates":[30.371273683639611,60.007615999339386]},"properties":{"unit_id":"1fa6354a-2f41-466d-a5ad-2f728560d4db","address_id":"0f5172e8-e89e-4851-a253-a57499a64462"}},{"id":"4e86ecdc-f52a-4101-8fab-56f84f092cc7","type":"Feature","feature_type":"anchor","geometry":{"type":"Point","coordinates":[30.371144968546545,60.007615174339179]},"properties":{"unit_id":"121cb846-9f41-4a59-8fca-387315258a35","address_id":"33235788-648e-40e5-9dd5-fca683271f0b"}},{"id":"938b677f-e617-4861-a3ae-abaaf2973929","type":"Feature","feature_type":"anchor","geometry":{"type":"Point","coordinates":[30.371283023880011,60.007819677783331]},"properties":{"unit_id":"f0d78bff-0066-4c21-a47e-1556017c03ec","address_id":"2e9ca421-f2c6-4b71-8770-0ce91c47aaa6"}},{"id":"a8389b2b-07d7-41df-85d5-0f97f5b6120f","type":"Feature","feature_type":"anchor","geometry":{"type":"Point","coordinates":[30.371382977554042,60.007777897807856]},"properties":{"unit_id":"560eed01-2cb8-4bf9-a5d4-8cf16418e1ff","address_id":"0447af22-f629-4790-b186-137d86c01469"}},{"id":"64fa9cd9-34e0-49be-b603-72a307ca6128","type":"Feature","feature_type":"anchor","geometry":{"type":"Point","coordinates":[30.371357758539926,60.007733509174045]},"properties":{"unit_id":"d42d6045-99f6-47a7-9c16-2a70650e839f","address_id":"c3f14c56-989a-4081-a7ee-b2d0a592dda5"}},{"id":"7ea81b90-f223-431f-a059-efc1122f43fa","type":"Feature","feature_type":"anchor","geometry":{"type":"Point","coordinates":[30.371163545842997,60.007579412803324]},"properties":{"unit_id":"f1b22b6e-7bd8-49e7-893e-2d3578fc48b0","address_id":"792274ba-9420-404f-ac41-99fd3b910a06"}},{"id":"20b19d15-e311-4e50-89f3-b8592301ca53","type":"Feature","feature_type":"anchor","geometry":{"type":"Point","coordinates":[30.371141255827542,60.007546394132426]},"properties":{"unit_id":"df062306-385e-4884-a589-28a664c78f97","address_id":"a162a691-c184-4cb6-97a2-3b74949cb291"}},{"id":"ad46dbd6-074c-4530-9806-d492f43d372b","type":"Feature","feature_type":"anchor","geometry":{"type":"Point","coordinates":[30.371118965834356,60.007513375187074]},"properties":{"unit_id":"cf310519-e7b8-403d-aeaf-032d766a499a","address_id":"90bd2ec9-9edc-4fc5-8003-68c186d8a978"}},{"id":"8049dd32-f72b-4566-92b4-16d2b82e2f11","type":"Feature","feature_type":"anchor","geometry":{"type":"Point","coordinates":[30.371096675588909,60.007480356516176]},"properties":{"unit_id":"d300288b-9b95-40dc-9593-4b51eccc0912","address_id":"7ecfb336-42e9-4027-8d93-3e231d35d6fc"}},{"id":"74fb0db9-a788-4944-9aeb-d81d24b9348a","type":"Feature","feature_type":"anchor","geometry":{"type":"Point","coordinates":[30.371074385640231,60.007447337570824]},"properties":{"unit_id":"3407dbc7-8145-464e-af47-e9c155e1b517","address_id":"0210f422-0b56-4af7-8455-a78d987f4820"}},{"id":"908f399c-cbd0-48a5-a2db-3e29f6f12b90","type":"Feature","feature_type":"anchor","geometry":{"type":"Point","coordinates":[30.371052095439289,60.007414318899926]},"properties":{"unit_id":"133e4311-b6ae-4ab1-b170-91ae4bb5cbeb","address_id":"88297876-2685-469a-b805-f8f2ce54f30f"}},{"id":"69044ca6-c6b1-4bbf-a722-34c11c18cf0a","type":"Feature","feature_type":"anchor","geometry":{"type":"Point","coordinates":[30.37102980553512,60.007381299954574]},"properties":{"unit_id":"c9af1cda-0d44-4973-8aab-ed536fc2d88e","address_id":"bd3f7e78-a515-48ff-a5b6-3b76fb4d5c26"}},{"id":"9bd6aaf2-a925-4b35-8b0d-b6b46d57c9c8","type":"Feature","feature_type":"anchor","geometry":{"type":"Point","coordinates":[30.371474890911248,60.0080406104232]},"properties":{"unit_id":"e53899a0-da95-4d4e-ab7a-f35602a5e364","address_id":"31c97d9a-b4a5-4d5d-a490-322d6316991f"}},{"id":"ee4c9172-98b0-4067-ac88-50652c73c493","type":"Feature","feature_type":"anchor","geometry":{"type":"Point","coordinates":[30.371452600310455,60.008007591752296]},"properties":{"unit_id":"c5133b94-52b3-4153-abd1-4ef51d9398eb","address_id":"7bd2a4a7-9d64-4134-ba55-678860e01d2e"}},{"id":"29616506-5947-4e8d-8491-27443e186106","type":"Feature","feature_type":"anchor","geometry":{"type":"Point","coordinates":[30.371430310006417,60.0079745730814]},"properties":{"unit_id":"70b71129-4cc4-42f1-ae64-ab208b9bd562","address_id":"325976ae-fcab-40e6-94b7-763196764df2"}},{"id":"548d120d-d4fd-4598-981d-c46bd7cc5586","type":"Feature","feature_type":"anchor","geometry":{"type":"Point","coordinates":[30.37140801972463,60.0079415544105]},"properties":{"unit_id":"f5be9106-e66e-4a93-b394-d60add968f18","address_id":"3cc3d013-28b0-49ef-a702-ee80dc1acc24"}},{"id":"9ca0406e-c088-4e60-885c-0872626b9a10","type":"Feature","feature_type":"anchor","geometry":{"type":"Point","coordinates":[30.371385729190603,60.0079085357396]},"properties":{"unit_id":"74847e6c-d7c5-42c7-88f0-6a497194a331","address_id":"251432e6-65e1-424f-9f84-930ff6372296"}},{"id":"c25f344a-9625-4bb0-a83c-2cccaa9ca1f8","type":"Feature","feature_type":"anchor","geometry":{"type":"Point","coordinates":[30.371363438953342,60.00787551679425]},"properties":{"unit_id":"2d13370e-d42c-47fe-92a2-4b65f17146f4","address_id":"9df32620-0689-4b46-81d0-b1572e3744b0"}},{"id":"6728ee39-6366-4fbc-931b-e1431bdf2436","type":"Feature","feature_type":"anchor","geometry":{"type":"Point","coordinates":[30.371341148738317,60.007842498123352]},"properties":{"unit_id":"4b5d2b40-8921-4d71-96a6-b65fcd080fe7","address_id":"73c1aef5-bf01-4c60-9594-bd123cef3355"}},