{"type":"FeatureCollection","name":"anchor","features":[{"id":"caf0dcfb-cc1f-4880-b660-bf08665d7c46","type":"Feature","feature_type":"anchor","geometry":{"type":"Point","coordinates":[30.3749480344012,60.007499428951064]},"properties":{"unit_id":"1bf4786b-008a-4eba-9624-32dbe5626ae6","address_id":"40ef1f34-53fd-4828-be05-bc6e3da32225"}},{"id":"3dbaf0aa-4b97-44ee-8bdc-37e47f617a55","type":"Feature","feature_type":"anchor","geometry":{"type":"Point","coordinates":[30.371537339622968,60.008074897881841]},"properties":{"unit_id":"52de60e1-6dc8-43e2-bc32-20b301942034","address_id":"642eb302-2a5c-4cef-8d12-6dffe3eb5738"}},{"id":"22125a64-d71f-473f-b682-180fffd0c5fb","type":"Feature","feature_type":"anchor","geometry":{"type":"Point","coordinates":[30.371409501376672,60.008096466998985]},"properties":{"unit_id":"8e0e5c8c-eccc-48c6-93f7-dbb5b073f2ab","address_id":"2cb4d34a-0ec8-40c5-9a60-b6090e1d1a6e"}},{"id":"660f5842-0e46-4ded-970a-39c200571fd9","type":"Feature","feature_type":"anchor","geometry":{"type":"Point","coordinates":[30.371665177785889,60.008053328764689]},"properties":{"unit_id":"1c61d419-47a1-44e5-8034-3c6998f1296d","address_id":"52c30754-8360-457c-97b8-ade25039992f"}},{"id":"4c75a263-4938-46f7-b313-60dec5651bc6","type":"Feature","feature_type":"anchor","geometry":{"type":"Point","coordinates":[30.371511453592486,60.008036553486058]},"properties":{"unit_id":"69438f61-eae5-4c4c-bfc6-3b56e5f0e89c","address_id":"904b31c5-6e49-47dc-8732-82abd0d61d2b"}},{"id":"0279796e-7735-4e67-aee6-ee663d07bbca","type":"Feature","feature_type":"anchor","geometry":{"type":"Point","coordinates":[30.371589111224978,60.008151586398945]},"properties":{"unit_id":"f6422579-ed6b-4891-8e12-189618d4743f","address_id":"cf7de0a3-4322-4151-bf7a-abfc2e52c93e"}},{"id":"8ae1a06e-a11a-49b6-9cf8-02b003392211","type":"Feature","feature_type":"anchor","geometry":{"type":"Point","coordinates":[30.375074165989183,60.007478147733188]},"properties":{"unit_id":"4c93b1e9-eca1-4ff8-af59-bbad5ed6afa2","address_id":"b419695c-bbbb-4ac0-8278-e61c92af157f"}},{"id":"e71917a9-d408-47fd-8ba5-8eb26aecf4f2","type":"Feature","feature_type":"anchor","geometry":{"type":"Point","coordinates":[30.374818493752059,60.007521285967485]},"properties":{"unit_id":"5f860e19-5e12-492b-9305-d74c7f564642","address_id":"0581cad5-635f-42bf-a7f7-bf7527377bb8"}},{"id":"7a273e1b-2336-4e1b-a0f2-afe1456d162e","type":"Feature","feature_type":"anchor","geometry":{"type":"Point","coordinates":[30.374920442267964,60.00746137218011]},"properties":{"unit_id":"fdd76e78-31d1-473b-ae04-416a4f901563","address_id":"a1d4aa4a-cf9f-4206-aa99-f7ba7b40e58d"}},{"id":"d5b3ccc9-7563-412a-bb46-c2c113561f29","type":"Feature","feature_type":"anchor","geometry":{"type":"Point","coordinates":[30.374998105153786,60.007576405916346]},"properties":{"unit_id":"95334679-1e82-422e-922c-6b0ef5912772","address_id":"adfb47c0-b54f-43b6-afce-5be1783caad2"}},{"id":"3a814ed4-ce6d-4c26-85b4-954002d1b9e4","type":"Feature","feature_type":"anchor","geometry":{"type":"Point","coordinates":[30.371050096774184,60.007350327042666]},"properties":{"unit_id":"0ea79050-5149-4e0e-8cc0-a06ebd3270b1","address_id":"de170e93-895c-4b0c-a777-e68c7534fd14"}},{"id":"a3ae31c4-7ba0-47a0-a1ed-0e73103bdbbb","type":"Feature","feature_type":"anchor","geometry":{"type":"Point","coordinates":[30.371176229331979,60.007329045275888]},"properties":{"unit_id":"1ea33dbb-950d-4376-81f7-afd7f143715d","address_id":"c40c4766-24c9-4225-a743-b8d0f59477fd"}},{"id":"37b3e9ff-67ee-4112-b3c6-9e4a2fe3843c","type":"Feature","feature_type":"anchor","geometry":{"type":"Point","coordinates":[30.374457349759766,60.006775433361533]},"properties":{"unit_id":"b2ed4c30-b486-44d9-9c11-2f114ac2b10d","address_id":"d610493c-86ba-4597-b707-a404e1366ae0"}},{"id":"c702be6c-6b3f-4557-896b-466eba5b4aaf","type":"Feature","feature_type":"anchor","geometry":{"type":"Point","coordinates":[30.374329514839854,60.006797002478685]},"properties":{"unit_id":"9c2a4484-9286-4c77-b972-a10314de24c1","address_id":"978443cf-2860-4d90-8e51-ba22cace13ab"}},{"id":"bbd9b0fb-532f-4c52-8f19-1bf3b691704d","type":"Feature","feature_type":"anchor","geometry":{"type":"Point","coordinates":[30.372024762037622,60.007587555494972]},"properties":{"unit_id":"0840397d-06ba-4a67-be5d-add3a2a85e72","address_id":"ee03ed20-457b-4afb-a012-86868e008868"}},{"id":"0ee77913-3b08-4f5c-8862-faed00e92f11","type":"Feature","feature_type":"anchor","geometry":{"type":"Point","coordinates":[30.373970468391374,60.007263541467154]},"properties":{"unit_id":"dd646c6c-b3be-445c-95e3-25ecacc9ede8","address_id":"713a2efc-eabc-451b-b01f-75d8e06aa5af"}},{"id":"9d5e4bf3-6437-4a87-bbbf-056f9c669700","type":"Feature","feature_type":"anchor","geometry":{"type":"Point","coordinates":[30.374483236455458,60.006813777757316]},"properties":{"unit_id":"533ba9f8-3b48-4eb9-b223-abc3b3f8969d","address_id":"423bb2eb-553e-4403-a337-b420d0927cf5"}},{"id":"1676a478-d6bc-4b89-9fc5-079c551e9d99","type":"Feature","feature_type":"anchor","geometry":{"type":"Point","coordinates":[30.374585184459061,60.006753863969934]},"properties":{"unit_id":"e4614aaf-948c-449a-8d38-d077469f9ce4","address_id":"58dab205-06cc-45bc-873f-4d18bd61cfa3"}},{"id":"9be558ca-bee0-49e5-a1ef-68b085a54933","type":"Feature","feature_type":"anchor","geometry":{"type":"Point","coordinates":[30.374396946900305,60.006685962830261]},"properties":{"unit_id":"6ffcf294-6f48-4c6c-89a3-6893e725eca4","address_id":"daa96a8e-f4af-4658-b0f4-113db09bfd7d"}},{"id":"569d2b24-02c9-43f2-b8db-55cdf02e1525","type":"Feature","feature_type":"anchor","geometry":{"type":"Point","coordinates":[30.371074277903034,60.007388959063263]},"properties":{"unit_id":"0856ee80-9f63-438b-9466-e20045d6b556","address_id":"d6b57433-6038-4490-a1e8-d598b257bc72"}},{"id":"f24de1d9-a8c9-488d-a151-0b3f39fddc53","type":"Feature","feature_type":"anchor","geometry":{"type":"Point","coordinates":[30.370920555952498,60.007372184059086]},"properties":{"unit_id":"494e614f-8fcb-4f7d-bdcd-f26202ca671c","address_id":"2c583474-df4f-4126-a1f6-ff2f22151e25"}},{"id":"7616a1f1-415b-472c-9067-6073328b629f","type":"Feature","feature_type":"anchor","geometry":{"type":"Point","coordinates":[30.370987993773067,60.007261144136216]},"properties":{"unit_id":"f8d748ac-e7ef-4e57-8812-f983be029823","address_id":"0212ab78-cd8e-42b2-9c8b-a575bf005e95"}},{"id":"ebd7e7cf-2cdb-4c20-95e1-37ede567971a","type":"Feature","feature_type":"anchor","geometry":{"type":"Point","coordinates":[30.372063189713494,60.007644478587991]},"properties":{"unit_id":"1341719c-ce91-4ec4-8334-a3f3573be50b","address_id":"6fdff4f6-8677-430e-add1-8d6c53549706"}},{"id":"c06f6b0f-d5a1-4353-ad49-387ffae5b472","type":"Feature","feature_type":"anchor","geometry":{"type":"Point","coordinates":[30.372089119827166,60.007682888577605]},"properties":{"unit_id":"3c6392b3-51d8-4b9c-9e99-5c2843ac6570","address_id":"19c94d75-c04e-455b-b928-04be57e04c12"}},{"id":"496c0ecf-2208-41fc-9143-9c69b3501fbe","type":"Feature","feature_type":"anchor","geometry":{"type":"Point","coordinates":[30.372295323182481,60.007496159139869]},"properties":{"unit_id":"aed5d4b0-bb68-46b4-b39f-e199e916c6d5","address_id":"98e264d5-3952-41ce-8c29-d4403db66b5a"}},{"id":"e7485a85-eafd-4516-8766-23749bb7f477","type":"Feature","feature_type":"anchor","geometry":{"type":"Point","coordinates":[30.371707272841416,60.007595377627659]},"properties":{"unit_id":"5a205feb-1d1c-42ce-8f22-17d1601d286c","address_id":"4546618a-04e7-4c42-b80d-1f64186fb42a"}},{"id":"91c73da4-f2b4-4b97-bb8b-77071bd90dfe","type":"Feature","feature_type":"anchor","geometry":{"type":"Point","coordinates":[30.374044476332127,60.0073731641242]},"properties":{"unit_id":"260b949a-938b-4587-9b16-8e56f020f342","address_id":"93680a21-f8d2-4604-9b5e-478a69b7ab4e"}},{"id":"4182961f-202a-4a39-8582-6267460f9da4","type":"Feature","feature_type":"anchor","geometry":{"type":"Point","coordinates":[30.374238434051684,60.00716830554024]},"properties":{"unit_id":"d483aa12-6136-4d6d-b109-9fee52ecf055","address_id":"c732026e-1822-4f94-b77b-43beb4e364b7"}},{"id":"d6501be1-1568-4b1b-8bd0-4fe537fc492d","type":"Feature","feature_type":"anchor","geometry":{"type":"Point","coordinates":[30.373650389814529,60.007267524302478]},"properties":{"unit_id":"01b10bc0-80c9-41c2-9e32-d4056b915f33","address_id":"1b57041c-bfdb-43b1-bf74-2b9cd427bc7c"}},{"id":"aee654ca-a9d8-4663-973b-83a701c76966","type":"Feature","feature_type":"anchor","geometry":{"type":"Point","coordinates":[30.372154495816144,60.007774104618285]},"properties":{"unit_id":"b3af382a-28e9-4540-9618-06f38b53efaa","address_id":"8a994edc-d852-4fcf-8b06-1f880c7cc14b"}},{"id":"d21015b7-b211-40e8-b7a8-7e163304e441","type":"Feature","feature_type":"anchor","geometry":{"type":"Point","coordinates":[30.3740945131729,60.007447280210528]},"properties":{"unit_id":"3021afe7-ec30-48bb-83ee-a5319cba3f6c","address_id":"af5fbebe-bb7f-43a2-9e66-8b862977c689"}},{"id":"734390c0-e74c-4e5b-8193-3af09837f8de","type":"Feature","feature_type":"anchor","geometry":{"type":"Point","coordinates":[30.3749480344012,60.007499428951064]},"properties":{"unit_id":"d27887b3-501f-4e6a-a341-b77659e116af","address_id":"4773f548-da9a-4357-b3eb-477fb159b002"}},{"id":"c918fecb-bfbe-49a4-b746-8fd0834912f5","type":"Feature","feature_type":"anchor","geometry":{"type":"Point","coordinates":[30.371537339622968,60.008074897881841]},"properties":{"unit_id":"ddda78d5-cbc1-4177-bd46-155bcdb67dd8","address_id":"c4a91ba8-fcd1-434b-b983-9004107b1cf5"}},{"id":"61fddcc1-70f2-4c59-9c7e-2fd0075bd12f","type":"Feature","feature_type":"anchor","geometry":{"type":"Point","coordinates":[30.371409501376672,60.008096466998985]},"properties":{"unit_id":"3fb890a5-138d-4130-96c9-381be616d173","address_id":"a3c4c354-7147-4b33-9d55-407e194d7e6b"}},{"id":"52c9d961-4f98-49db-bc37-8ee54f8615ed","type":"Feature","feature_type":"anchor","geometry":{"type":"Point","coordinates":[30.371665177785889,60.008053328764689]},"properties":{"unit_id":"0750a16c-6fef-4da4-a80d-d5063a7a9a92","address_id":"569f1e1a-7bc7-4b4c-912b-3fcaa852ae46"}},{"id":"bf7eb382-a46c-4660-8d59-1f3f659f3209","type":"Feature","feature_type":"anchor","geometry":{"type":"Point","coordinates":[30.371511453592486,60.008036553486058]},"properties":{"unit_id":"37e12e15-02fd-46e2-9116-f447ab785904","address_id":"33170221-c27f-4097-a3bf-523f9dedd09c"}},{"id":"bfb1e574-4aa7-4106-9d6c-e392ef23659b","type":"Feature","feature_type":"anchor","geometry":{"type":"Point","coordinates":[30.371589111224978,60.008151586398945]},"properties":{"unit_id":"bf1c92e8-6dbb-42c3-a98d-67341b7424a6","address_id":"a6fc4029-9c1f-4f67-b49e-bdf8d41a6b13"}},{"id":"079aad6f-697c-4400-b51a-2329f6ad6902","type":"Feature","feature_type":"anchor","geometry":{"type":"Point","coordinates":[30.375074165989183,60.007478147733188]},"properties":{"unit_id":"0c6e09b2-34a0-4458-8391-ab1af0f6b64b","address_id":"4fa1a268-62c1-4a6e-addb-9fb60fb0205f"}},{"id":"d4725020-e8de-477d-8df1-de840410b5c2","type":"Feature","feature_type":"anchor","geometry":{"type":"Point","coordinates":[30.374818493752059,60.007521285967485]},"properties":{"unit_id":"e513d740-8ad6-491b-8660-6cc195a2df6e","address_id":"e4104486-816d-4706-a63a-ab0beec2b28b"}},{"id":"334da57a-6c99-4286-ac36-75773161d170","type":"Feature","feature_type":"anchor","geometry":{"type":"Point","coordinates":[30.374920442267964,60.00746137218011]},"properties":{"unit_id":"41604024-b352-436b-aa1b-4eb17932bec3","address_id":"8c04d225-2c36-41ae-9ab2-b636415e8e80"}},{"id":"24c44dee-37e2-404d-9818-08c982ad5b7c","type":"Feature","feature_type":"anchor","geometry":{"type":"Point","coordinates":[30.374998105153786,60.007576405916346]},"properties":{"unit_id":"af8f33c3-34cb-4370-99bc-d7cabbf622f3","address_id":"ab86aa21-de07-499c-a077-aed6e1e29b2d"}},{"id":"c55bbced-6ceb-4f40-a74b-e9aacd792203","type":"Feature","feature_type":"anchor","geometry":{"type":"Point","coordinates":[30.371050096774184,60.007350327042666]},"properties":{"unit_id":"81d5c386-8969-41ef-803a-0d1fb1d9086a","address_id":"aa93de42-2c1a-4182-9e11-52281f102d55"}},{"id":"1cc5d94e-d78a-4739-ad22-c1df2fe2fa1f","type":"Feature","feature_type":"anchor","geometry":{"type":"Point","coordinates":[30.371176229331979,60.007329045275888]},"properties":{"unit_id":"c74882f8-8b2d-44e1-a7a2-1ad46ca29292","address_id":"5f7a2c53-71a5-4c3f-8b03-1c884301d6de"}},{"id":"d4a4c52e-7da8-462e-b16e-5536fe21d69f","type":"Feature","feature_type":"anchor","geometry":{"type":"Point","coordinates":[30.374457349759766,60.006775433361533]},"properties":{"unit_id":"ae57adcb-658b-4937-b1f3-78ca65a776cf","address_id":"a57b3e77-16a1-4ec9-a12d-71eb0295e61b"}},{"id":"0e3047f4-2736-4e8e-96e1-ce46074b54a2","type":"Feature","feature_type":"anchor","geometry":{"type":"Point","coordinates":[30.374329514839854,60.006797002478685]},"properties":{"unit_id":"4b4ff13a-276c-4f25-8044-88f16d26bf47","address_id":"75180364-f4f8-42c8-8321-239db9cb6fb6"}},{"id":"af90f075-bcd5-48fe-83d0-fa1a885cf933","type":"Feature","feature_type":"anchor","geometry":{"type":"Point","coordinates":[30.372024762037622,60.007587555494972]},"properties":{"unit_id":"bbdd2b3c-7a2c-466f-b8b7-cf6e41f4621a","address_id":"75c4bd73-8707-4fa4-b817-69805edcf73e"}},{"id":"b2632257-f3e3-4bd2-b28a-d224fd7e8412","type":"Feature","feature_type":"anchor","geometry":{"type":"Point","coordinates":[30.373970468391374,60.007263541467154]},"properties":{"unit_id":"a9f5bb7b-9b30-4d20-9301-432b7863494c","address_id":"ea3f7c37-109b-45fc-a7c7-58d272663f6f"}},{"id":"9d1350a0-3aaa-4628-a4b0-485ff6f4a451","type":"Feature","feature_type":"anchor","geometry":{"type":"Point","coordinates":[30.374483236455458,60.006813777757316]},"properties":{"unit_id":"316fa997-d86c-4d93-beb4-422fd87598e7","address_id":"20990c95-9700-4fe9-ae0a-9312de925804"}},{"id":"2df55bbf-e5e5-4eb0-a5f8-0e312c91e866","type":"Feature","feature_type":"anchor","geometry":{"type":"Point","coordinates":[30.374585184459061,60.006753863969934]},"properties":{"unit_id":"b4b8a679-8d83-426a-88ca-3a5dd02495d4","address_id":"7f7e5f6c-68e3-4cd3-a059-c1c43b7321b9"}},{"id":"02f2365a-22f9-481e-bbf2-45dcc45f0ce4","type":"Feature","feature_type":"anchor","geometry":{"type":"Point","coordinates":[30.374396946900305,60.006685962830261]},"properties":{"unit_id":"00845345-0fb1-4fcd-b401-ab7f93790e23","address_id":"f39b039e-738a-449e-a94e-05f7d5367665"}},{"id":"9aaa4b73-74a1-46bf-bdc8-58695089c7aa","type":"Feature","feature_type":"anchor","geometry":{"type":"Point","coordinates":[30.371074277903034,60.007388959063263]},"properties":{"unit_id":"87b1de0f-4677-44a2-bcb5-16a12daebb05","address_id":"906539d1-5c7d-4fb8-bc02-7faf5e1910de"}},{"id":"65646ffa-1de7-400e-9d34-88df8ef4c6f3","type":"Feature","feature_type":"anchor","geometry":{"type":"Point","coordinates":[30.370920555952498,60.007372184059086]},"properties":{"unit_id":"dacd6b65-1dac-4323-a960-dc2d9361823d","address_id":"41fb136d-59c6-41e4-be81-565df9bee916"}},{"id":"c0cbdb2b-6032-4efc-9f99-e3f656ad1cff","type":"Feature","feature_type":"anchor","geometry":{"type":"Point","coordinates":[30.370987993773067,60.007261144136216]},"properties":{"unit_id":"b7d4fed2-f8a5-45da-9559-b54c26be30f3","address_id":"34353408-9b0c-49f6-9c7a-9508e04df7d5"}},{"id":"43ad9fd8-ac05-4681-aa01-a882af3d664d","type":"Feature","feature_type":"anchor","geometry":{"type":"Point","coordinates":[30.372063189713494,60.007644478587991]},"properties":{"unit_id":"259c6014-0775-429e-8bc5-e02dc933a294","address_id":"865239ca-c3e6-4405-b6b2-983ba4016d3e"}},{"id":"2b84c7b6-f4bf-40a3-8651-89ec8571c454","type":"Feature","feature_type":"anchor","geometry":{"type":"Point","coordinates":[30.372089119827166,60.007682888577605]},"properties":{"unit_id":"a004f626-c546-47ee-b978-f8f0c1f8abe8","address_id":"23bb51a5-e415-4e05-bebd-dd6ec3a53eb4"}},{"id":"b3911245-9e9a-498b-a7f6-c94bb5506aa3","type":"Feature","feature_type":"anchor","geometry":{"type":"Point","coordinates":[30.372295323182481,60.007496159139869]},"properties":{"unit_id":"7daff29a-9447-46ca-a434-e5061ddc0d76","address_id":"209ebc48-4f7d-430d-bf75-c5f2a779287b"}},{"id":"6b84a5cf-4ad9-4b3e-a78b-19d8b7aaabb7","type":"Feature","feature_type":"anchor","geometry":{"type":"Point","coordinates":[30.371707272841416,60.007595377627659]},"properties":{"unit_id":"1b737e42-9ecd-45ef-b71c-80eca0a7b0c3","address_id":"df723c67-2ebe-4b2a-9018-cae918bf993f"}},{"id":"7df32b80-845c-448c-8fb9-e067a6972d3a","type":"Feature","feature_type":"anchor","geometry":{"type":"Point","coordinates":[30.374044476332127,60.0073731641242]},"properties":{"unit_id":"d0710207-e7e9-4448-a1f1-712b32fc2d6f","address_id":"ec6f24ef-a4a1-444d-a03a-80bf6368f664"}},{"id":"f905ff2c-d4dd-4b5e-a934-e5a03316fbf8","type":"Feature","feature_type":"anchor","geometry":{"type":"Point","coordinates":[30.374238434051684,60.00716830554024]},"properties":{"unit_id":"a1dafaef-7056-4e5e-8d79-c68d97709090","address_id":"9b3dafe4-6e9e-4f00-99ae-326ceed3bc3a"}},{"id":"12b6ae50-278c-4f89-a1f5-98a0b14c85f2","type":"Feature","feature_type":"anchor","geometry":{"type":"Point","coordinates":[30.373650389814529,60.007267524302478]},"properties":{"unit_id":"159af723-7f50-495b-bcee-f139cf290beb","address_id":"3bbec71b-e1a6-41fb-b796-26eb0b331981"}},{"id":"6bd460f6-d835-4c4d-bc74-4ab3baa5be5b","type":"Feature","feature_type":"anchor","geometry":{"type":"Point","coordinates":[30.372154495816144,60.007774104618285]},"properties":{"unit_id":"f8d0553b-de52-4947-9af2-b75a6e40c1a6","address_id":"0fec7ca9-f3f4-485c-96dd-bf2e88c7e6d1"}},{"id":"795c12fa-7daa-47b0-9938-a15f6ce1492f","type":"Feature","feature_type":"anchor","geometry":{"type":"Point","coordinates":[30.3740945131729,60.007447280210528]},"properties":{"unit_id":"c5094e6c-e901-4eef-b89d-a624480be57a","address_id":"3328d40c-d8fe-4de4-a149-f84aafd3e6c9"}},{"id":"c7236826-f073-4da3-8c82-8bd8634600bc","type":"Feature","feature_type":"anchor","geometry":{"type":"Point","coordinates":[30.372253659843008,60.007916071345271]},"properties":{"unit_id":"caaca853-e9c6-4df2-8979-78cc8622ae59","address_id":"c8b5c022-1496-4f3f-8c0b-3c40afe945e3"}},{"id":"7571beb3-cf2f-4c75-be28-be824c670f31","type":"Feature","feature_type":"anchor","geometry":{"type":"Point","coordinates":[30.372170565206506,60.007930091408639]},"properties":{"unit_id":"63f81676-1444-446f-80c9-4f511a6932c9","address_id":"fb390be4-db5b-4951-9352-e7c225f77747"}},{"id":"f9331aa9-a2ab-40de-8081-6a7d25d0957c","type":"Feature","feature_type":"anchor","geometry":{"type":"Point","coordinates":[30.37233888456786,60.007901691750867]},"properties":{"unit_id":"9cb64163-a556-4694-8903-2d20ca5fb43a","address_id":"30801b41-3144-41c1-b535-92ac7662dbe1"}},{"id":"5dbcae3c-460f-4afa-aa38-e6e64ec1e6d8","type":"Feature","feature_type":"anchor","geometry":{"type":"Point","coordinates":[30.374987823569164,60.007533054707942]},"properties":{"unit_id":"fa6df946-efc1-44a8-b116-f94933b52a10","address_id":"43ba4f28-0088-4d40-a41b-e2b62ce18ce9"}},{"id":"11ab77c1-46a7-4f25-b259-3df80550ef3c","type":"Feature","feature_type":"anchor","geometry":{"type":"Point","coordinates":[30.374775881634367,60.007528475490233]},"properties":{"unit_id":"1a97a446-6e0d-45a2-beea-4e2a40e6a4f4","address_id":"5f69c427-9dc2-4d1d-bde5-c0d812f44260"}},{"id":"79c66af7-f711-4bef-b8d9-2b7ec28898bd","type":"Feature","feature_type":"anchor","geometry":{"type":"Point","coordinates":[30.37491469251999,60.007642682854012]},"properties":{"unit_id":"72f3f21e-9c21-4f48-b651-a01ccf31e911","address_id":"ab2353ad-dd96-4427-9bba-c6fba4feb8e5"}},{"id":"7ed3c451-585d-4ffb-99a2-1839f367302e","type":"Feature","feature_type":"anchor","geometry":{"type":"Point","coordinates":[30.375084766939096,60.007564156063]},"properties":{"unit_id":"0a63cc2b-2436-488a-a369-0df58170ce8b","address_id":"ef028418-1f3c-4749-af74-f0ffd92e7351"}},{"id":"af3c2d77-1084-42d2-9d08-7cfb18386e52","type":"Feature","feature_type":"anchor","geometry":{"type":"Point","coordinates":[30.374874422988469,60.007583036107619]},"properties":{"unit_id":"5493a094-5610-49d1-820d-e8d8c1cb657b","address_id":"fec641cc-bf2e-4575-88d5-7fd0000bfaa9"}},{"id":"a367e397-42a6-4f87-9ec1-ef62bea87492","type":"Feature","feature_type":"anchor","geometry":{"type":"Point","coordinates":[30.374751534354793,60.007126817031896]},"properties":{"unit_id":"ccd7eaae-8f0b-401f-aaae-637e9102e18b","address_id":"da1a1795-bc8e-45e9-be62-a84c452dbac3"}},{"id":"ffbb6baa-156e-4938-bcc4-146b97e9406f","type":"Feature","feature_type":"anchor","geometry":{"type":"Point","coordinates":[30.374530055915702,60.006798759240596]},"properties":{"unit_id":"11b4cd56-4042-45fe-a75e-b0098b2a539c","address_id":"ca8dc7ce-5ba2-4ed9-9fde-4904f9c39957"}},{"id":"6f0b1390-ef77-46d4-823e-56223809109b","type":"Feature","feature_type":"anchor","geometry":{"type":"Point","coordinates":[30.374550190278381,60.006828582751019]},"properties":{"unit_id":"40843dee-c2c4-4dec-aa33-8dc008d69e19","address_id":"6b7a4a56-58d3-44d7-a95b-05a59c207325"}},{"id":"03836686-ab50-46d9-a109-3ca16d2c3373","type":"Feature","feature_type":"anchor","geometry":{"type":"Point","coordinates":[30.374570324521972,60.006858405986989]},"properties":{"unit_id":"aeaabd13-9de3-4123-9166-afdaa12c7524","address_id":"66f32073-f200-4f2f-ad4c-3e0b1359b330"}},{"id":"3473522a-9343-4de0-87ff-da5f0f76d84d","type":"Feature","feature_type":"anchor","geometry":{"type":"Point","coordinates":[30.374590458920967,60.006888229497413]},"properties":{"unit_id":"01f11fa3-d0a5-4ed3-bcf5-60bf2471d03b","address_id":"10883459-02c6-4cad-a390-3b1e6343a3d6"}},{"id":"1fc208a8-d392-48af-b480-262a176d2674","type":"Feature","feature_type":"anchor","geometry":{"type":"Point","coordinates":[30.374610593200867,60.006918053007837]},"properties":{"unit_id":"af48eaad-c8be-46a5-a0d6-1918b979b99a","address_id":"0eeab037-5e60-4309-a68d-a6d540e4085d"}},{"id":"751d095f-480b-402b-b6ea-6088b271057c","type":"Feature","feature_type":"anchor","geometry":{"type":"Point","coordinates":[30.374646547474136,60.006971309158828]},"properties":{"unit_id":"12266cd7-33d3-4f9e-b31f-7bbb90d2b0af","address_id":"b7e23a14-8209-45cb-8c50-6eb54d946440"}},{"id":"8e8113c7-cf65-4002-b432-95453b51f6f4","type":"Feature","feature_type":"anchor","geometry":{"type":"Point","coordinates":[30.374706231758715,60.007059714270675]},"properties":{"unit_id":"a7baaa02-0742-44ba-a6da-cdda76e2da6a","address_id":"fecd8bf8-9dcc-4fe5-a488-f1578bfe0ecc"}},{"id":"3036d9d7-3374-4aa5-8b2d-ce11b205caa7","type":"Feature","feature_type":"anchor","geometry":{"type":"Point","coordinates":[30.374808342351677,60.007210961563835]},"properties":{"unit_id":"fe913ee3-91df-4cf1-97db-7be4daba9063","address_id":"10757439-f513-434b-b461-dbdef5140fd2"}},{"id":"36fe2a15-dea3-4903-80fb-95ed72b293ec","type":"Feature","feature_type":"anchor","geometry":{"type":"Point","coordinates":[30.374839263387635,60.007256761974446]},"properties":{"unit_id":"bfff085c-179e-497a-a216-3ff93d4cccc4","address_id":"2f24a68f-8b82-4fa0-8966-ef81e10ab858"}},{"id":"678a412c-5a00-4204-af8a-14c548d90134","type":"Feature","feature_type":"anchor","geometry":{"type":"Point","coordinates":[30.3748593978919,60.007286585210416]},"properties":{"unit_id":"6a8fdb9f-2761-4edd-be25-2fe698e03a49","address_id":"dd3fdd04-fbc8-403c-a3df-47b1adffc54e"}},{"id":"0990cf8d-459a-4b53-a4c1-5423d70e6194","type":"Feature","feature_type":"anchor","geometry":{"type":"Point","coordinates":[30.374879532551567,60.00731640872084]},"properties":{"unit_id":"45d7c5e7-cb43-4b05-b026-7f577355f968","address_id":"0a85332b-f599-4e8e-a6d7-fc953e24b2ac"}},{"id":"18e17940-924d-432d-8632-964447585aca","type":"Feature","feature_type":"anchor","geometry":{"type":"Point","coordinates":[30.374951441747633,60.007422921022822]},"properties":{"unit_id":"489f5b0e-70bb-4a1b-9efd-93567fa44b12","address_id":"51316c89-a808-4713-97c4-3e1148fac0c0"}},{"id":"ead0744a-094a-4bee-8369-08b627fe43e0","type":"Feature","feature_type":"anchor","geometry":{"type":"Point","coordinates":[30.374899667092141,60.007346232231264]},"properties":{"unit_id":"1476639a-53c1-465c-8380-7bec83915a9c","address_id":"207b0371-b201-4451-9107-b724c0174a4c"}},{"id":"eb7e05b3-503b-4a71-8ee4-785df9732172","type":"Feature","feature_type":"anchor","geometry":{"type":"Point","coordinates":[30.374919801650872,60.00737605546724]},"properties":{"unit_id":"03c99211-4bce-46c0-922b-73c6ab6b32b4","address_id":"d3fac489-efef-40bd-b4dc-920bc01f33f4"}},{"id":"bb094855-b208-41ba-989c-9e4a8abf2269","type":"Feature","feature_type":"anchor","geometry":{"type":"Point","coordinates":[30.374974453079666,60.0074570048387]},"properties":{"unit_id":"48c3b751-1475-4920-9f3c-e9a9a270598c","address_id":"b014063a-b5a0-435f-93a8-d8464674cbc1"}},{"id":"66877b97-de72-4078-9fd3-11485c0c305c","type":"Feature","feature_type":"anchor","geometry":{"type":"Point","coordinates":[30.375074165989183,60.007478147733188]},"properties":{"unit_id":"bb15f8e3-fd89-4963-98ce-d50eafad64fc","address_id":"f08a623f-9bbe-43b7-8dfb-c98b23a820a1"}},{"id":"babd3ee8-6838-4a20-970a-24b1240ffafe","type":"Feature","feature_type":"anchor","geometry":{"type":"Point","coordinates":[30.374602130107267,60.007496096290552]},"properties":{"unit_id":"87123cd9-5f90-498b-8fa6-8f441a79b180","address_id":"473cccff-2dc5-4bea-b092-e8bc3d93b1e0"}},{"id":"9ea8e5d5-0697-4d6f-b980-61f97b02a169","type":"Feature","feature_type":"anchor","geometry":{"type":"Point","coordinates":[30.374345165991,60.007509198314771]},"properties":{"unit_id":"ab8ae34d-c4b2-4343-9f46-3bc05024af82","address_id":"9647dccb-d452-437d-bc8a-d6df9674e061"}},{"id":"9071944f-859e-463e-a60e-4bfafcb3cd4a","type":"Feature","feature_type":"anchor","geometry":{"type":"Point","coordinates":[30.374363502691939,60.007536359099987]},"properties":{"unit_id":"7a0a43d0-2eb7-4d98-be4f-97d27d01c1fb","address_id":"95413f54-1fb1-432f-8808-428be7d9f187"}},{"id":"c301cd74-21e4-4052-9a63-a15c66f00099","type":"Feature","feature_type":"anchor","geometry":{"type":"Point","coordinates":[30.374033897998775,60.00758248061846]},"properties":{"unit_id":"aefc9ec6-4f55-4b0a-a0ec-a2b5f1432aff","address_id":"ae0bf54e-18bd-4ba6-925d-72d34a3132e9"}},{"id":"26c5bd93-1718-4208-9074-f6b3169658df","type":"Feature","feature_type":"anchor","geometry":{"type":"Point","coordinates":[30.374181762076198,60.007576514873456]},"properties":{"unit_id":"6449d960-f76f-4522-a083-645f621a236e","address_id":"d22b8b93-6954-4763-8fd3-882a7ea50d5e"}},{"id":"e7a067eb-866f-4f60-bc2b-79ff1180c46c","type":"Feature","feature_type":"anchor","geometry":{"type":"Point","coordinates":[30.374095471971323,60.007448700220863]},"properties":{"unit_id":"1447f72e-f567-4773-b3d2-3ca29c3b3dc0","address_id":"f0f53e10-1fde-4e93-97d6-2702311b2008"}},{"id":"775e2218-32b3-4581-9f0c-18418f5f038a","type":"Feature","feature_type":"anchor","geometry":{"type":"Point","coordinates":[30.374286902861112,60.006804192550334]},"properties":{"unit_id":"4ee9f6e9-255d-47f9-9ff3-b9add401aeae","address_id":"a7f995d6-a372-4c30-81bc-9f0e49f43545"}},{"id":"57614abe-95be-4703-9f59-d0cff49530a4","type":"Feature","feature_type":"anchor","geometry":{"type":"Point","coordinates":[30.374499961015221,60.006768243289883]},"properties":{"unit_id":"502016bb-be88-4ef8-b0da-928d89d51a4f","address_id":"5703e083-f557-491e-8802-7dafbf73b756"}},{"id":"b9a2ab72-0700-4721-96e5-f7f3f9e11c60","type":"Feature","feature_type":"anchor","geometry":{"type":"Point","coordinates":[30.374396946900305,60.006685962830261]},"properties":{"unit_id":"b948f6de-5401-4337-acd8-75c505c6027e","address_id":"061b15c4-3340-48b8-9a8e-74c723770d33"}},{"id":"f7168991-6de5-45aa-bc2f-a7dbf1c366f4","type":"Feature","feature_type":"anchor","geometry":{"type":"Point","coordinates":[30.373239975108795,60.007461119685033]},"properties":{"unit_id":"21a6a3e0-855c-43ec-9a32-2cab2482d454","address_id":"35c374ec-305c-4282-a132-ba1d9e1ef8c7"}},{"id":"c4df94ba-010b-47ef-84a3-64915afc436a","type":"Feature","feature_type":"anchor","geometry":{"type":"Point","coordinates":[30.372847268938642,60.007527944976133]},"properties":{"unit_id":"7833bd6d-36b0-43f5-9a56-dca805fab108","address_id":"f92de651-6c3d-4079-8f15-380927464ec6"}},{"id":"af52f2b7-460c-4242-8201-dbaa9214273c","type":"Feature","feature_type":"anchor","geometry":{"type":"Point","coordinates":[30.3730490253144,60.0074876349611]},"properties":{"unit_id":"dcef51cc-4644-4642-a319-70f2c57b7291","address_id":"f7aebfc5-f447-4513-95d7-3da358eb9c86"}},{"id":"be02beea-28cb-4026-b33a-8cbb8927c18e","type":"Feature","feature_type":"anchor","geometry":{"type":"Point","coordinates":[30.372603414716277,60.00734966259639]},"properties":{"unit_id":"cf2972b0-5609-49d3-8ff5-ecd6b0a13167","address_id":"e4a425b4-dd53-4e27-ab2e-ab71a9ded077"}},{"id":"60743244-dd6f-4579-8fab-e8d1c57ee5a2","type":"Feature","feature_type":"anchor","geometry":{"type":"Point","coordinates":[30.373200899665893,60.007219310093859]},"properties":{"unit_id":"2f4e8502-f593-4d2c-b1ca-92bed78f86ed","address_id":"d4b2bebe-c25a-4417-883e-f1e4f3636c1d"}},{"id":"5ca1acd3-6a4f-4f0a-8285-7dbae944d5c1","type":"Feature","feature_type":"anchor","geometry":{"type":"Point","coordinates":[30.373229383094358,60.007262626446966]},"properties":{"unit_id":"2f4e8502-f593-4d2c-b1ca-92bed78f86ed","address_id":"3167293e-3e06-4a59-b2f8-2b6d5b411c84"}},{"id":"1385e722-abba-4c38-b11a-17b8b3655967","type":"Feature","feature_type":"anchor","geometry":{"type":"Point","coordinates":[30.374023829974782,60.007187904646912]},"properties":{"unit_id":"f008fb89-c40d-4e29-8e6f-a92ff8d96a9a","address_id":"8087237c-18fe-4d93-a434-0cddb000b0f0"}},{"id":"6ceb08b7-da60-4a9c-a311-6a2693898269","type":"Feature","feature_type":"anchor","geometry":{"type":"Point","coordinates":[30.373836337372175,60.007219539535036]},"properties":{"unit_id":"48eb4c2f-e1d0-49ee-a380-9411e570d64c","address_id":"2e9656aa-87ed-4e86-8fa2-25f4ff5d3be3"}},{"id":"b56b4095-0a8a-4f77-90aa-92e3991ab480","type":"Feature","feature_type":"anchor","geometry":{"type":"Point","coordinates":[30.373885500903921,60.007137684474728]},"properties":{"unit_id":"a4c300aa-cce0-43ea-8724-38493889534e","address_id":"86449ebc-8e41-42b5-90a6-da28e226ee61"}},{"id":"f089c638-a47a-4ba9-ad40-fcf6048b9740","type":"Feature","feature_type":"anchor","geometry":{"type":"Point","coordinates":[30.374292146088518,60.00711653060219]},"properties":{"unit_id":"cdbd6266-a9fd-4f32-8e16-6a3bd21956dc","address_id":"1dacf504-3c89-47f7-ab0a-ca3b5980ff19"}},{"id":"554ca881-e22b-4ce2-a693-4d49de186d81","type":"Feature","feature_type":"anchor","geometry":{"type":"Point","coordinates":[30.374228228351061,60.007127315435213]},"properties":{"unit_id":"e3a66a20-61cb-47ea-a82a-53dacb3ff073","address_id":"17715f7f-cc39-436c-bae1-d96370d31717"}},{"id":"df905cac-9e1a-4fc1-8b10-509628c51003","type":"Feature","feature_type":"anchor","geometry":{"type":"Point","coordinates":[30.373375222732047,60.007271240096813]},"properties":{"unit_id":"174b466d-8e38-48cf-9624-b6aea163e549","address_id":"65e235d2-262b-4fa6-86bf-6575d790e698"}},{"id":"871007d1-d729-461e-8c7f-cef757c3c6c0","type":"Feature","feature_type":"anchor","geometry":{"type":"Point","coordinates":[30.373660723131913,60.007223068702579]},"properties":{"unit_id":"6bb5aaab-f1f4-412f-87b2-630eaa3844d7","address_id":"b3e220fe-289a-49c8-88c9-f690e2086bf1"}},{"id":"ae0045a2-ec1e-4914-9854-4d769b492161","type":"Feature","feature_type":"anchor","geometry":{"type":"Point","coordinates":[30.37390291864244,60.007374408760242]},"properties":{"unit_id":"00126d18-13a8-4415-bc07-a02ff3747ca7","address_id":"6fe999ff-db72-4d1e-96ab-4c86d16faee4"}},{"id":"d18cf086-5fe4-45b7-83b0-e50f5cde532e","type":"Feature","feature_type":"anchor","geometry":{"type":"Point","coordinates":[30.372171207735036,60.007801846965521]},"properties":{"unit_id":"2c96951a-d84d-4f40-88a7-0988d498beef","address_id":"19ca858e-455e-411c-a028-f336881f7f41"}},{"id":"81edb371-1b88-45ed-b372-4f6abcc0e8f3","type":"Feature","feature_type":"anchor","geometry":{"type":"Point","coordinates":[30.372080717603378,60.0075157579721]},"properties":{"unit_id":"5a296a5b-da3a-4e02-8987-de94c5c0dbe7","address_id":"0fb5a66d-9089-488c-85bf-3f998a07465e"}},{"id":"18c4125d-82b1-4b5e-b948-14ec4546d343","type":"Feature","feature_type":"anchor","geometry":{"type":"Point","coordinates":[30.371893223691107,60.007547392860218]},"properties":{"unit_id":"b7a35d74-f2bd-42d8-8ce3-6482c65064a5","address_id":"288c7d86-6534-42ff-a837-e2c6bb83c400"}},{"id":"0a561dd7-96e5-4ba0-808e-2ee5a976fd4e","type":"Feature","feature_type":"anchor","geometry":{"type":"Point","coordinates":[30.371986970669649,60.007531575690606]},"properties":{"unit_id":"65e3e167-e6a9-46f0-8070-fea111bcb055","address_id":"2cbc44a3-3bb0-4469-94b8-f6ae1d2b001b"}},{"id":"e43e2a69-bcb8-43b3-9aa2-0b5f34644d5b","type":"Feature","feature_type":"anchor","geometry":{"type":"Point","coordinates":[30.371940471817343,60.007462697504785]},"properties":{"unit_id":"bf64a083-f88d-4666-a8b1-a54c89e597bf","address_id":"df224fb9-8b6f-4292-8812-918ba564e31e"}},{"id":"db60b49d-f13a-4fc9-95db-a2f7d385dcb6","type":"Feature","feature_type":"anchor","geometry":{"type":"Point","coordinates":[30.372187489562496,60.007619617703561]},"properties":{"unit_id":"0f525b10-f9fa-444f-b80e-ce1d862772f3","address_id":"2af9a923-6477-432d-bb81-c29d9b399f8a"}},{"id":"1d25f7c6-4f6d-4692-97f5-f8b935e5ca10","type":"Feature","feature_type":"anchor","geometry":{"type":"Point","coordinates":[30.371070750013754,60.007679045712372]},"properties":{"unit_id":"d93f509a-d64a-410d-aead-c733bd120802","address_id":"c2fe9c7f-66a6-4335-bf51-f238bc3a255f"}},{"id":"0a46fc39-9311-4b65-a896-20d0137c86a4","type":"Feature","feature_type":"anchor","geometry":{"type":"Point","coordinates":[30.371155596051757,60.00780473034947]},"properties":{"unit_id":"c2cf8887-c710-4f24-be11-22b3e2a0ede4","address_id":"96ef2d27-2839-4206-9d7c-0ffa50b6caf0"}},{"id":"c328b318-bc8d-4528-9bd4-a53d1e006c18","type":"Feature","feature_type":"anchor","geometry":{"type":"Point","coordinates":[30.371113891840572,60.007742953313127]},"properties":{"unit_id":"307518a0-e88f-492f-9f5b-79916423e1c6","address_id":"5c4530ad-55d3-4196-bcbe-5c324cd22ff2"}},{"id":"b5058e8d-cdf6-4554-b44f-b2d8b1c2ac4b","type":"Feature","feature_type":"anchor","geometry":{"type":"Point","coordinates":[30.371276455631651,60.00780094868685]},"properties":{"unit_id":"12a13d91-dea6-4676-9db5-db291e29860b","address_id":"a1be85e4-e86a-4977-a587-006ede08f707"}},{"id":"2f57fea6-cea4-4720-bd77-3e912976d95f","type":"Feature","feature_type":"anchor","geometry":{"type":"Point","coordinates":[30.371344635575579,60.007789445066223]},"properties":{"unit_id":"f8150510-b98c-4ad3-ba48-f77fc91b6d18","address_id":"32a73e5d-5391-44e2-8a61-bf45c0fea67a"}},{"id":"9f619cde-d3a3-4b88-80e9-6e26270c9665","type":"Feature","feature_type":"anchor","geometry":{"type":"Point","coordinates":[30.371228151052659,60.00761689514799]},"properties":{"unit_id":"a51645c3-426a-4d68-9010-f6b56b119cde","address_id":"4674b13d-05b7-4d25-b191-5d30796efad6"}},{"id":"97bfe54e-4c2d-4dd7-b639-eeec0351d4da","type":"Feature","feature_type":"anchor","geometry":{"type":"Point","coordinates":[30.37115997126633,60.007628398768617]},"properties":{"unit_id":"09d46483-62af-4b6d-825d-f2aa469a7e39","address_id":"e689b064-d93e-438a-8fcd-4787fcf7d1f2"}},{"id":"f9857ad6-6150-4cee-a2cf-436a42034698","type":"Feature","feature_type":"anchor","geometry":{"type":"Point","coordinates":[30.371255898931338,60.0077142476423]},"properties":{"unit_id":"33bbf03d-77b6-492e-bd8a-f358c336eae5","address_id":"f81b4bb6-b263-4fbe-8532-2df5f4a46e00"}},{"id":"3c69aca5-29d7-492e-8b17-a7b45b2fb766","type":"Feature","feature_type":"anchor","geometry":{"type":"Point","coordinates":[30.371466071108529,60.008053702018273]},"properties":{"unit_id":"d31cfc0d-2f93-48e4-a33c-5b5d5ebb5284","address_id":"b1bcf20a-50b6-46ea-89be-2a89e078c23d"}},{"id":"271f6b48-1dd3-4ee5-9cc4-d225df1b071d","type":"Feature","feature_type":"anchor","geometry":{"type":"Point","coordinates":[30.371407669464226,60.007972176573816]},"properties":{"unit_id":"2a5f90c4-ea2a-4cf0-b7d8-1cbce9e496d3","address_id":"e54fee9d-4ad0-4850-a1ad-5719a440474d"}},{"id":"cd9322cf-bff8-43b2-b36c-8f9835cba674","type":"Feature","feature_type":"anchor","geometry":{"type":"Point","coordinates":[30.371365404702235,60.007904584740615]},"properties":{"unit_id":"50582d6d-86cf-4d16-b5d7-5918ddb837c4","address_id":"f2642f63-2caf-444b-b83f-8b982e65e917"}},{"id":"46b94806-07bc-4138-8e06-fb7be9103e60","type":"Feature","feature_type":"anchor","geometry":{"type":"Point","coordinates":[30.371345271585231,60.007874761504638]},"properties":{"unit_id":"f23f5fa2-ccd1-43d6-9f3a-65239b663917","address_id":"99715e7a-4477-4f4d-b3eb-7db628b07e0d"}},{"id":"5687b701-cd47-488f-a67b-92117313e5ee","type":"Feature","feature_type":"anchor","geometry":{"type":"Point","coordinates":[30.371325138211898,60.007844937994214]},"properties":{"unit_id":"b7f39663-1df7-4e37-a974-a3bab5e37641","address_id":"f4dde051-80ae-4c7b-91c7-5ae48c9fd9ef"}},{"id":"63212a1a-7ed8-4466-bf27-b1e9b79de32d","type":"Feature","feature_type":"anchor","geometry":{"type":"Point","coordinates":[30.371723176764164,60.008125482799628]},"properties":{"unit_id":"5809ec3d-461b-47ee-892a-54190f5c2c36","address_id":"4c7f78bd-6409-4b1f-8466-2ea9060eb67b"}},{"id":"7e8f30fc-a684-4d8d-9a60-4887f6c167ac","type":"Feature","feature_type":"anchor","geometry":{"type":"Point","coordinates":[30.37151372814705,60.008161767439404]},"properties":{"unit_id":"39241b22-abc0-490e-8a57-7634dfd63cb5","address_id":"732d1da3-7f3c-4422-87fb-588d1492b2d1"}},{"id":"4f514df5-d09a-4b30-8f1e-81f720be9659","type":"Feature","feature_type":"anchor","geometry":{"type":"Point","coordinates":[30.371201796706483,60.007324731452456]},"properties":{"unit_id":"f759519b-466e-471a-918d-f269e9cfdbca","address_id":"f1b42b16-8146-49cf-a58d-0e8952efb25a"}},{"id":"999bc52a-154a-4ee7-889b-2392c3d7af1d","type":"Feature","feature_type":"anchor","geometry":{"type":"Point","coordinates":[30.370996516409956,60.007259706012107]},"properties":{"unit_id":"4511f3ac-4427-4203-9957-210f23dff423","address_id":"50ffde1e-f6c7-4d8f-b91f-19dcc8b94954"}},{"id":"1572e0ff-a454-4eb5-9c5f-739004a4d35b","type":"Feature","feature_type":"anchor","geometry":{"type":"Point","coordinates":[30.37092055540354,60.007372183510185]},"properties":{"unit_id":"ff1a1f7d-9641-4d07-877b-e6c6a1cc9132","address_id":"7bee0240-8973-48d9-80f2-ab15f1d74b17"}},{"id":"2c8793aa-9e14-4d3f-b7a7-dad466332af2","type":"Feature","feature_type":"anchor","geometry":{"type":"Point","coordinates":[30.374017811491456,60.007333667033528]},"properties":{"unit_id":"366c8680-f184-4b53-b5f6-940c9b19ccda","address_id":"b42a891b-29c0-4527-82f2-c4bd7112f923"}},{"id":"d9e32851-f440-445d-b33a-78609f5646d0","type":"Feature","feature_type":"anchor","geometry":{"type":"Point","coordinates":[30.372063189713494,60.007644478587991]},"properties":{"unit_id":"1d59ecbd-422e-4dd6-beee-db94e5fe2dc1","address_id":"1dfbae40-bba1-4015-b548-8727b8e7d619"}},{"id":"118d6cb8-6d15-44ca-b907-e52698e4ffef","type":"Feature","feature_type":"anchor","geometry":{"type":"Point","coordinates":[30.374185491438269,60.007503069545784]},"properties":{"unit_id":"e67e0147-f531-43db-9d2a-c628590fbdbf","address_id":"c0bfbc9d-9dbc-4cce-a996-1181769d93ff"}},{"id":"334a79d8-b934-4b57-8e07-2d289a35b293","type":"Feature","feature_type":"anchor","geometry":{"type":"Point","coordinates":[30.374106761418808,60.00751635353113]},"properties":{"unit_id":"be4a23df-13d5-4d01-97a0-c32f4e35602e","address_id":"d3396685-607c-4574-a28c-5450c63dff8a"}},{"id":"b4df1a9e-0432-4645-93e7-0f1418685633","type":"Feature","feature_type":"anchor","geometry":{"type":"Point","coordinates":[30.374154809850566,60.007522531152425]},"properties":{"unit_id":"b2adfc73-1187-49c2-9e02-88e3738ce9e4","address_id":"2e684e1c-529f-4285-92d8-2723bcf7e4d2"}},{"id":"e7a8a9c5-f1ae-43e7-9bab-8b0c45b9c396","type":"Feature","feature_type":"anchor","geometry":{"type":"Point","coordinates":[30.373017067453272,60.007398111186305]},"properties":{"unit_id":"f102c5f6-b579-4915-9f30-691b9bdd64a8","address_id":"38ba2904-4e9f-4de3-81fb-e7d92e793e9d"}},{"id":"1c37dfeb-bfba-4480-b7c1-a9d14dad50d0","type":"Feature","feature_type":"anchor","geometry":{"type":"Point","coordinates":[30.371149692738118,60.007585047834667]},"properties":{"unit_id":"46122027-fc67-4775-8b45-479b7c3ac713","address_id":"8ded5aff-7223-411d-8045-5c3bb8916631"}},{"id":"99f57e43-d63a-4c04-a3c4-0b47ca7d8d98","type":"Feature","feature_type":"anchor","geometry":{"type":"Point","coordinates":[30.371128121573975,60.00755309430874]},"properties":{"unit_id":"476ad4f2-2308-442d-b3e9-064f41068f4a","address_id":"cd9ed86d-1543-4c96-95eb-85c27ebccb9d"}},{"id":"6f773084-f6aa-4160-bd4d-b7db4f384236","type":"Feature","feature_type":"anchor","geometry":{"type":"Point","coordinates":[30.371106550430689,60.007521140508366]},"properties":{"unit_id":"a7e550fd-ce60-4cb0-92e1-52549c51f07c","address_id":"64414931-b406-4e26-9527-3c04e5b8b92f"}},{"id":"b32bbfa7-136c-4a7c-9945-c20a1de27909","type":"Feature","feature_type":"anchor","geometry":{"type":"Point","coordinates":[30.371084979582722,60.007489186982447]},"properties":{"unit_id":"268a41af-acb0-48e6-b979-65decc328ec2","address_id":"571cd4e0-be1e-4540-a41c-7cca3b1f6378"}},{"id":"4707d168-ee1f-4965-a609-f8fc365bf3a1","type":"Feature","feature_type":"anchor","geometry":{"type":"Point","coordinates":[30.37106340848112,60.007457233182066]},"properties":{"unit_id":"41da64ea-6c37-4b0f-929c-bc8a008e0730","address_id":"9ba2aeb7-4e9c-430e-8c60-5e09fd09c65e"}},{"id":"b95a47ea-7233-47d7-b229-66f7daab3e60","type":"Feature","feature_type":"anchor","geometry":{"type":"Point","coordinates":[30.371041837400355,60.007425279381692]},"properties":{"unit_id":"9834319d-a36d-4b35-92e7-1c6669683ece","address_id":"b02bf584-e418-4233-8348-329fbdc4aadb"}},{"id":"694a09ac-462a-4da5-83e1-b08776f90fff","type":"Feature","feature_type":"anchor","geometry":{"type":"Point","coordinates":[30.3710202666149,60.00739332613022]},"properties":{"unit_id":"541b4367-a5b2-4a24-b6e7-fd129864fa1e","address_id":"5a4d2565-f1dd-4e44-9a99-10b8bacab54f"}},{"id":"2b33157d-3ea2-4a41-95d2-f907383bd84e","type":"Feature","feature_type":"anchor","geometry":{"type":"Point","coordinates":[30.37289658393393,60.007261828891878]},"properties":{"unit_id":"c1347d50-5d9d-4d4c-adc6-9f2e05bb3236","address_id":"c6d85202-fde7-4351-88fc-c88ada29d488"}},{"id":"6cdc5926-d968-4b9f-821c-b5f267a3f10b","type":"Feature","feature_type":"anchor","geometry":{"type":"Point","coordinates":[30.371409501376672,60.008096466998985]},"properties":{"unit_id":"a86ab665-80e3-40b9-a98e-73c6abbb5efa","address_id":"8434b6b4-fa58-4155-bdbe-3218b6088483"}},{"id":"6dff3310-7e8f-4a1a-9243-a0ae03095ba6","type":"Feature","feature_type":"anchor","geometry":{"type":"Point","coordinates":[30.374160028831646,60.007333400266994]},"properties":{"unit_id":"2e6139aa-dc25-48f3-9659-f4f74f8baf87","address_id":"a9b1875e-5558-4809-86a2-0277d4cfaf8c"}},{"id":"2d83a26c-c54c-4eae-8e57-9ba78a174c7d","type":"Feature","feature_type":"anchor","geometry":{"type":"Point","coordinates":[30.371707790854352,60.008046138693039]},"properties":{"unit_id":"e7f9b211-de9d-4ab6-9fac-34c85925eb11","address_id":"224d0041-f74b-4ea7-b2ce-4ceda4fe84de"}},{"id":"980cc98c-b0c5-41cd-b52d-2e3870cd8203","type":"Feature","feature_type":"anchor","geometry":{"type":"Point","coordinates":[30.371948185960008,60.007686268169259]},"properties":{"unit_id":"4791c58d-92ef-47d4-9a34-277b9e0b43a8","address_id":"2b23d883-ca7b-44b9-b068-8ec0308d517f"}},{"id":"63c7c90a-d9d1-4e99-bf8b-5cb2086dc913","type":"Feature","feature_type":"anchor","geometry":{"type":"Point","coordinates":[30.371406537232094,60.007603407245426]},"properties":{"unit_id":"1a75671e-7c0f-4c2e-98fe-a823b8792ec0","address_id":"d92c1260-ff96-456d-bc9f-fea8bce06cd5"}},{"id":"102e2cef-49ef-435a-9324-52dae2ed1311","type":"Feature","feature_type":"anchor","geometry":{"type":"Point","coordinates":[30.374483899450322,60.007084176652015]},"properties":{"unit_id":"41033621-6ac4-4c69-a93f-0445a868f115","address_id":"24d24161-5a53-4c93-a0b6-26ba5043074b"}},{"id":"18a99673-c77b-4c77-8e6e-a49f36046ec8","type":"Feature","feature_type":"anchor","geometry":{"type":"Point","coordinates":[30.3744199815009,60.007094961485038]},"properties":{"unit_id":"30d32965-3d16-4fb4-8f41-7f96057b7a6e","address_id":"70c7a78f-99c4-4637-a5ee-9e486f70bec5"}},{"id":"98d84ab2-0001-4873-a253-423724d43ce4","type":"Feature","feature_type":"anchor","geometry":{"type":"Point","coordinates":[30.374356063805131,60.007105746043614]},"properties":{"unit_id":"978e8607-41c6-4b11-913b-70b7aa77168d","address_id":"f8816a8e-7244-4907-9928-6727fbb3944c"}},{"id":"a491be80-095b-4a7d-9ff9-b8fa0f722c18","type":"Feature","feature_type":"anchor","geometry":{"type":"Point","coordinates":[30.373529393153337,60.007245227615286]},"properties":{"unit_id":"fa97c172-9a33-422b-965f-cae86d7b838e","address_id":"d3078b76-8b1b-4457-a599-63fd10311b13"}},{"id":"cad2d977-427f-4071-a45f-5264740cb37d","type":"Feature","feature_type":"anchor","geometry":{"type":"Point","coordinates":[30.373465475167158,60.007256012173862]},"properties":{"unit_id":"94fc329b-8c66-4963-aa01-bbfc6aa23d82","address_id":"84cb587b-38b3-4815-bdd5-0a12113a484b"}},{"id":"f2a7f805-bf8c-435e-8b02-a0a944e4212d","type":"Feature","feature_type":"anchor","geometry":{"type":"Point","coordinates":[30.374164310592764,60.007138099993789]},"properties":{"unit_id":"c9152e81-4eaa-4126-9fba-d0a861a2c882","address_id":"a6650319-a514-4c35-92b7-9b2fdb73fd1d"}},{"id":"d757a772-5dbe-47d8-9e1b-30cd63f5385b","type":"Feature","feature_type":"anchor","geometry":{"type":"Point","coordinates":[30.374100392813624,60.007148884552365]},"properties":{"unit_id":"c80e6c1c-651a-496a-86a7-fb8396e01372","address_id":"54d009f8-62b7-4b76-bbea-ab93edf7481f"}},{"id":"e0577703-e296-4a66-b2a4-e6fd72750418","type":"Feature","feature_type":"anchor","geometry":{"type":"Point","coordinates":[30.372540281016164,60.007412116429315]},"properties":{"unit_id":"cad81518-79e7-4470-9ab9-890d4e696a4b","address_id":"2c839108-2873-4868-bb8f-726b6767d6fc"}},{"id":"0f3f96c2-e6b3-4ba8-ae71-7217072eb085","type":"Feature","feature_type":"anchor","geometry":{"type":"Point","coordinates":[30.372476362981939,60.007422900987891]},"properties":{"unit_id":"dfc3f542-1951-4876-b974-3918207374f7","address_id":"4ba1d522-bb8a-4d88-8281-ad425754a322"}},{"id":"6e3a2e66-92d0-434b-aa24-f88172b34642","type":"Feature","feature_type":"anchor","geometry":{"type":"Point","coordinates":[30.372412444377879,60.007433685546467]},"properties":{"unit_id":"93e202e3-6111-4782-b01b-4d2cdf45b2bd","address_id":"345cf0b7-d2c2-4cf3-9fbe-69ee11beee20"}},{"id":"79c19008-f7b1-4c79-a5a3-f911767dfbbc","type":"Feature","feature_type":"anchor","geometry":{"type":"Point","coordinates":[30.372348526301959,60.00744447037949]},"properties":{"unit_id":"eaf7ebf8-7686-4f3b-b972-5193434e7a26","address_id":"d47aa3a3-3232-4245-bb70-bc29abc25637"}},{"id":"36bc68e3-5799-4226-881f-d6c10349e2a5","type":"Feature","feature_type":"anchor","geometry":{"type":"Point","coordinates":[30.372284607656212,60.007455254938066]},"properties":{"unit_id":"b4eb038c-0667-44db-b01a-6c40b3ee304a","address_id":"51e7f391-b4fa-4e2e-9d81-6b388fdd402d"}},{"id":"60473f94-294f-44cb-b72e-a01fd51120d4","type":"Feature","feature_type":"anchor","geometry":{"type":"Point","coordinates":[30.372220688989625,60.007466039496641]},"properties":{"unit_id":"d08db086-36a0-4818-8163-404e7955bd64","address_id":"f73ac3c9-bcec-4ace-b23f-f910cf003d3b"}},{"id":"d14703b7-6b39-47f1-b3a3-77a48d566429","type":"Feature","feature_type":"anchor","geometry":{"type":"Point","coordinates":[30.372156770851173,60.007476824329665]},"properties":{"unit_id":"e894f52f-7592-498f-8237-75fe1bd82b4f","address_id":"8c5878d2-e1aa-4724-96c9-651e147d6c2a"}},{"id":"5a2c6038-225f-4be3-84b2-43423f0c8d70","type":"Feature","feature_type":"anchor","geometry":{"type":"Point","coordinates":[30.371500284406419,60.007587589801368]},"properties":{"unit_id":"a20ec95d-8f03-48fe-9866-ee1d7c8834c5","address_id":"826a10fb-dd2c-44f2-8588-23f81e506377"}},{"id":"3787153c-ea5b-41a0-8c2b-97b4abb09292","type":"Feature","feature_type":"anchor","geometry":{"type":"Point","coordinates":[30.3715940320849,60.007571772357309]},"properties":{"unit_id":"5e77cbeb-751a-44d4-88a9-66935b307d03","address_id":"61ada5e6-2a51-433f-866e-603d8f69431e"}},{"id":"ba3caa63-3dd2-47be-8aff-034b1961da05","type":"Feature","feature_type":"anchor","geometry":{"type":"Point","coordinates":[30.37165795040686,60.007560987524279]},"properties":{"unit_id":"9e13f942-8a27-4735-9430-92a9c5c62689","address_id":"1f2efda2-2ade-401b-8195-e53dad1baa15"}},{"id":"1ff2738a-b23b-4aee-99b2-7792e827da46","type":"Feature","feature_type":"anchor","geometry":{"type":"Point","coordinates":[30.371721869256952,60.00755020296571]},"properties":{"unit_id":"4e19a1ba-f37b-4d93-aefa-899de73235ae","address_id":"e7e201f5-c631-40d9-ae5d-0aa34598eec9"}},{"id":"dd41346c-36d1-4cc2-9b5f-12b731c79742","type":"Feature","feature_type":"anchor","geometry":{"type":"Point","coordinates":[30.37178578753721,60.007539418407134]},"properties":{"unit_id":"939c7292-e389-49d5-80c8-58461097740c","address_id":"8e4078b5-4565-4884-8e71-d60a4b831818"}}]}