{"type":"FeatureCollection","name":"anchor","features":[{"id":"91a9f246-952d-4d3d-b72e-a58d8fc69495","type":"Feature","feature_type":"anchor","geometry":{"type":"Point","coordinates":[30.374507594890964,60.0067393350741]},"properties":{"unit_id":"5c195adb-f852-4428-953d-86bf897ab7aa","address_id":"aca81638-1c46-4e47-9adc-431c148e0b22"}},{"id":"0f9d7f81-bed5-4252-b9c8-c58e017e1b94","type":"Feature","feature_type":"anchor","geometry":{"type":"Point","coordinates":[30.370838704725919,60.007358374225305]},"properties":{"unit_id":"c7c5b2fb-32c4-45fa-a1cf-0932f5df0871","address_id":"eff3ab74-6956-4a6e-a703-e40222c6a43a"}},{"id":"604fdde5-af8b-43f8-983e-ecd4d0569e9d","type":"Feature","feature_type":"anchor","geometry":{"type":"Point","coordinates":[30.371327649700717,60.008082657439658]},"properties":{"unit_id":"c1506a09-c3c6-4fc5-851c-5ab31c619d14","address_id":"91a83600-cec5-4780-bf5b-8c330b38d3ab"}},{"id":"002c7bf6-0ee3-489f-941a-b4016b9e6571","type":"Feature","feature_type":"anchor","geometry":{"type":"Point","coordinates":[30.374996575326826,60.007463618288448]},"properties":{"unit_id":"87282fde-31a4-4f64-83db-3fe1c585d289","address_id":"c1cb173c-df73-4173-98df-77891af100d4"}},{"id":"c0581f2e-ff2d-4479-8dfd-931444a67fc6","type":"Feature","feature_type":"anchor","geometry":{"type":"Point","coordinates":[30.37395598776893,60.00733546139525]},"properties":{"unit_id":"5f167ab3-b759-445d-955b-47d9663c2a6b","address_id":"e44ce0b7-2963-493a-9103-84f4341de8ab"}},{"id":"51ffcd5b-5dc0-4512-a041-e83c679c153e","type":"Feature","feature_type":"anchor","geometry":{"type":"Point","coordinates":[30.374028588197625,60.007344567684946]},"properties":{"unit_id":"54bb996f-f954-4e03-8e2f-77a17c8fa09d","address_id":"88918042-fe7b-4ee9-a765-3744788afc83"}},{"id":"95f0554a-64a6-4455-a64a-7531bd2d18aa","type":"Feature","feature_type":"anchor","geometry":{"type":"Point","coordinates":[30.37209399350181,60.007670983160466]},"properties":{"unit_id":"09b0fb69-3105-4779-ae81-ea0d93b45cb4","address_id":"928ba8a7-d45c-409c-a09e-451eba5716fd"}},{"id":"d8f8edea-7658-4f97-945c-d330bdb58736","type":"Feature","feature_type":"anchor","geometry":{"type":"Point","coordinates":[30.374790094008198,60.0075233726197]},"properties":{"unit_id":"a476a40c-62f2-4748-9e87-d5279387f5ef","address_id":"a252e7fc-c9f6-461b-ad58-b57653858085"}},{"id":"716a0f44-2aad-41cc-a3fb-0c456e3b3aac","type":"Feature","feature_type":"anchor","geometry":{"type":"Point","coordinates":[30.374507594890964,60.0067393350741]},"properties":{"unit_id":"ed0e9c29-92fd-4b13-ae90-1730ad8c0e3b","address_id":"253f6445-abe2-47ed-a9f8-de904a58ec24"}},{"id":"98f015e7-613d-4ed8-bb18-572ed27ae231","type":"Feature","feature_type":"anchor","geometry":{"type":"Point","coordinates":[30.370838704725919,60.007358374225305]},"properties":{"unit_id":"17e7d731-c344-4c79-9710-cee6d35d9da3","address_id":"1c601a5e-d4d1-4e63-b3e0-ddd009297944"}},{"id":"c53dcf94-63bf-4af8-9ef8-6c3389dd119e","type":"Feature","feature_type":"anchor","geometry":{"type":"Point","coordinates":[30.371327649700717,60.008082657439658]},"properties":{"unit_id":"0eea1895-b7f8-4853-aee7-4b4c58ada925","address_id":"08c6553d-5f5b-4686-903d-4332e014923a"}},{"id":"d3692be9-a309-44b0-be45-d8cb0ddda51a","type":"Feature","feature_type":"anchor","geometry":{"type":"Point","coordinates":[30.374996575326826,60.007463618288448]},"properties":{"unit_id":"f432a0d1-7e69-4331-946e-55a18e396350","address_id":"4973571c-0ac3-491f-87e9-7fa1e3d7223a"}},{"id":"38fdcaf7-2020-4b7d-a080-2c583062e559","type":"Feature","feature_type":"anchor","geometry":{"type":"Point","coordinates":[30.374075301411796,60.00731533012776]},"properties":{"unit_id":"25ce91a9-0d1a-4449-95a7-e7fce60636b8","address_id":"d171ff04-9967-41d0-9a9b-d73369f1e549"}},{"id":"6b2f7304-3ed3-4727-a864-6357d2b5c44a","type":"Feature","feature_type":"anchor","geometry":{"type":"Point","coordinates":[30.37395598776893,60.00733546139525]},"properties":{"unit_id":"8032f98c-ba04-4bc8-a4cb-a6728bd2d08d","address_id":"ab099831-4438-4e35-9322-726bc13b963c"}},{"id":"01f632af-9462-4f78-b9cf-b6cce87d6274","type":"Feature","feature_type":"anchor","geometry":{"type":"Point","coordinates":[30.374028588197625,60.007344567684946]},"properties":{"unit_id":"69cb4f3b-8537-4c6f-8f52-298d3e377e67","address_id":"cd53bbb6-86fa-4c6b-8ee7-72763a3b01ca"}},{"id":"90d1031a-801f-45cd-af7b-e19481523f0c","type":"Feature","feature_type":"anchor","geometry":{"type":"Point","coordinates":[30.371180454913137,60.007319695273559]},"properties":{"unit_id":"01a61dcd-de8d-44b1-aff3-dc07bfa4e086","address_id":"fdad22bc-5977-48ed-ac7b-8db292ea9421"}},{"id":"99c1c58c-4276-4e22-823f-e032a0bdc2a8","type":"Feature","feature_type":"anchor","geometry":{"type":"Point","coordinates":[30.371669403069713,60.008043978487912]},"properties":{"unit_id":"46bce043-8fe6-4dd8-8de4-e64df76927d4","address_id":"0b45bef7-3aaa-43cb-943a-917afb69e377"}},{"id":"986a9ef6-21ce-47c8-a812-ec7148cf3b76","type":"Feature","feature_type":"anchor","geometry":{"type":"Point","coordinates":[30.374818457537582,60.007512654752759]},"properties":{"unit_id":"cde20449-36ff-4033-bce9-2b79ea117958","address_id":"4a3509d7-59af-47c8-923c-29e9928f0567"}},{"id":"055114ea-2725-4e51-b7c0-0b93d9558a33","type":"Feature","feature_type":"anchor","geometry":{"type":"Point","coordinates":[30.374329478689578,60.006788371538406]},"properties":{"unit_id":"cca9fb85-bcb3-43a6-8ff5-4e2e2bd232a0","address_id":"deee4e6e-465b-4346-86b9-80ade33d5e02"}},{"id":"12d431e6-37c2-4cd6-a133-244be74bd621","type":"Feature","feature_type":"anchor","geometry":{"type":"Point","coordinates":[30.371451876584008,60.007767459606654]},"properties":{"unit_id":"9dd4244b-d554-4d71-b577-09be2ebd85d3","address_id":"df1672c3-1a88-40a1-9e9f-6708dbd89ab1"}},{"id":"59cbf376-01ca-4e12-9e69-3421f96e0ab5","type":"Feature","feature_type":"anchor","geometry":{"type":"Point","coordinates":[30.371382977554042,60.007777897807856]},"properties":{"unit_id":"09a8cc97-4c16-41d6-a5d7-572534bc7299","address_id":"eb19a1e7-d5f9-42ea-975a-252281c03071"}},{"id":"0eecaaac-edf5-4596-98af-b11157bf1f50","type":"Feature","feature_type":"anchor","geometry":{"type":"Point","coordinates":[30.374455182831078,60.006767161677836]},"properties":{"unit_id":"df879462-7dcd-4ccf-a1d9-749b05388845","address_id":"d12d394f-cb70-4f01-bdf3-bd3b4a849180"}},{"id":"1676d2e0-1f19-4d91-b056-32dcb6a561aa","type":"Feature","feature_type":"anchor","geometry":{"type":"Point","coordinates":[30.374944162898743,60.007491444892189]},"properties":{"unit_id":"2c2a58a9-bb0e-45d6-bdfb-c3d99ad8056b","address_id":"920ec48a-6e81-4942-a50c-b96f577f5831"}},{"id":"476c53fc-fb97-4909-bf24-d96d5a700339","type":"Feature","feature_type":"anchor","geometry":{"type":"Point","coordinates":[30.371543695608402,60.008065188074035]},"properties":{"unit_id":"1f087261-4412-4b13-95d4-f344b76930d2","address_id":"68d102c9-549c-4a20-a74c-4769528a45ba"}},{"id":"68b5950d-e0e3-4272-8950-f06205c7b541","type":"Feature","feature_type":"anchor","geometry":{"type":"Point","coordinates":[30.374898381241426,60.007455270581779]},"properties":{"unit_id":"be6cbb1c-bc60-4b9f-8a92-a8ee6f14c939","address_id":"183b5109-418c-4c98-8743-4fcda5e1560a"}},{"id":"84695d63-fb18-4d1e-b877-ddebfed701e2","type":"Feature","feature_type":"anchor","geometry":{"type":"Point","coordinates":[30.371512829632721,60.008026497595331]},"properties":{"unit_id":"959e3989-d067-4b00-8e4b-d4a5c7a422c3","address_id":"e4e959d6-4f95-492d-9d8d-85ee9f9c939a"}},{"id":"305e6e8c-629f-4beb-a5d9-28e37bf70529","type":"Feature","feature_type":"anchor","geometry":{"type":"Point","coordinates":[30.370969365098162,60.0073339554817]},"properties":{"unit_id":"7ab06cb5-5b22-453d-b969-455b88c11fe7","address_id":"f0f8184b-535b-49b9-9947-a9b896f0dea6"}},{"id":"c50304cc-a7c2-4a7e-ad30-f09a013d7d3d","type":"Feature","feature_type":"anchor","geometry":{"type":"Point","coordinates":[30.374486050077429,60.006805852156539]},"properties":{"unit_id":"85a82819-e35f-437c-af21-eaa802bfa417","address_id":"326f0d84-7ce6-4b89-9e9a-ff20d1f82cd2"}},{"id":"f6e02f16-6482-4b89-b182-78a847f52b65","type":"Feature","feature_type":"anchor","geometry":{"type":"Point","coordinates":[30.371077091408949,60.007381033462487]},"properties":{"unit_id":"6ea0b338-fe33-455d-b95d-5f07e4b83830","address_id":"aeb619a3-b88f-4a0c-9cd1-23640f012124"}},{"id":"547f34c2-4f3b-4c7a-9aed-d7822a6739dd","type":"Feature","feature_type":"anchor","geometry":{"type":"Point","coordinates":[30.370994456235245,60.007265654192231]},"properties":{"unit_id":"7e14609e-da52-4263-8d64-8b7bd8c38712","address_id":"c38bbd56-046f-4ea5-8bf8-f30e9f402366"}},{"id":"b65a5e11-4bde-4987-975b-19c5fc0b276d","type":"Feature","feature_type":"anchor","geometry":{"type":"Point","coordinates":[30.374411931616084,60.006689034762168]},"properties":{"unit_id":"9233598e-55c9-432c-aa66-6b917099acd2","address_id":"c0c25d18-e0bd-4b5e-988e-e71ce38adb7f"}},{"id":"cb2c7aaf-64a5-4922-a72a-df7327176a33","type":"Feature","feature_type":"anchor","geometry":{"type":"Point","coordinates":[30.374236267686488,60.00716003413099]},"properties":{"unit_id":"1c5ceee5-376c-45da-a393-78c62ddf0d1b","address_id":"08effbd0-4c47-467c-8ab3-0994b7a00086"}},{"id":"b7d42645-1ff0-445f-ac1a-a7e493afc387","type":"Feature","feature_type":"anchor","geometry":{"type":"Point","coordinates":[30.373639700665954,60.007260690742889]},"properties":{"unit_id":"0f66d4ea-2bf2-4c01-8350-2711807282fa","address_id":"5276785d-bd12-4c68-85d6-9b02c808ebda"}},{"id":"87a4ea8b-4b8c-471e-863b-793fafe75707","type":"Feature","feature_type":"anchor","geometry":{"type":"Point","coordinates":[30.372301679001023,60.00748644960651]},"properties":{"unit_id":"feaaa4bd-a3d7-4093-91c3-3444f9da1da9","address_id":"3c2a25fa-f973-47ed-aca3-c48a699d6791"}},{"id":"fde1a2a9-c740-42ad-a62c-e759f8238d5e","type":"Feature","feature_type":"anchor","geometry":{"type":"Point","coordinates":[30.371705106641507,60.007587106218416]},"properties":{"unit_id":"a596fb1c-3731-4a4d-8dcf-af5078b43054","address_id":"c5ed6572-cabc-42bb-8d3a-a0a33fab30ff"}},{"id":"96d212d0-1c11-42c4-8240-1a776262a26c","type":"Feature","feature_type":"anchor","geometry":{"type":"Point","coordinates":[30.374101215358859,60.0074521451319]},"properties":{"unit_id":"41f3f829-6cba-4dd7-80ba-81e21da6413e","address_id":"c1a7e5bb-d6b3-41c9-a789-8477ba69687f"}},{"id":"b621b637-6478-4020-8662-756941a556e9","type":"Feature","feature_type":"anchor","geometry":{"type":"Point","coordinates":[30.3721853134636,60.007806253827894]},"properties":{"unit_id":"6309668f-1c90-41f4-918a-68bb66c46c3e","address_id":"a38ac863-26c8-4b9a-9577-46f164d4bd6f"}},{"id":"8f549c1a-6108-4378-a1ee-834c26012f32","type":"Feature","feature_type":"anchor","geometry":{"type":"Point","coordinates":[30.37402139736982,60.007333916509637]},"properties":{"unit_id":"e73dbbbe-601f-4122-8001-e0af72d99671","address_id":"982b9d2e-c1d1-4104-b1d5-c584bdf7b0b2"}},{"id":"f6014c54-9b5e-444f-812c-6035ef614c07","type":"Feature","feature_type":"anchor","geometry":{"type":"Point","coordinates":[30.372086802950044,60.007660331985157]},"properties":{"unit_id":"a9558145-a819-453a-b163-5f4d11e2fef7","address_id":"59c5d208-2729-48b7-b16d-4410562e7363"}},{"id":"dd2ceea0-77d3-4b76-be92-d821183e1d4c","type":"Feature","feature_type":"anchor","geometry":{"type":"Point","coordinates":[30.372021392843934,60.00766187687077]},"properties":{"unit_id":"bac7b7a2-d39e-4c43-a59a-a78b8ccf7635","address_id":"8cdf054b-dbfa-4955-8fc0-d83b1afebff8"}},{"id":"ae1434e3-092c-42b7-a25c-cd2b1c6b9e58","type":"Feature","feature_type":"anchor","geometry":{"type":"Point","coordinates":[30.375004460583291,60.007566695834086]},"properties":{"unit_id":"999b51fe-758f-4c21-824d-63dfc519a0ef","address_id":"7a3f3d8f-514e-4e43-bebd-0ec911aaf2bc"}},{"id":"bf32214c-2127-4228-8eb2-b5cc667d9d03","type":"Feature","feature_type":"anchor","geometry":{"type":"Point","coordinates":[30.371586945021633,60.0081433149897]},"properties":{"unit_id":"37ab4fde-7a0d-44d2-9d70-fa3a31c5ab19","address_id":"814ad5df-11ed-4721-a6a7-ec12da948259"}},{"id":"3aeec178-310f-4a3f-a39d-83869b2e00db","type":"Feature","feature_type":"anchor","geometry":{"type":"Point","coordinates":[30.373531409307184,60.007898288556412]},"properties":{"unit_id":"80326e45-55bc-4764-a0f4-c309158b6837","address_id":"0295dd9a-4bc7-43be-bfb1-778631d633f2"}},{"id":"df660936-aa4e-482d-b0c6-5ed0f7bba2ea","type":"Feature","feature_type":"anchor","geometry":{"type":"Point","coordinates":[30.373503711196655,60.007902961910865]},"properties":{"unit_id":"09c77bbc-1b26-4ecd-92f5-208972fc7029","address_id":"1daee5d6-e3d4-4a45-9526-09168a6e07d7"}},{"id":"5adb0ed2-22b4-4b77-bf3f-d72ffe3fec69","type":"Feature","feature_type":"anchor","geometry":{"type":"Point","coordinates":[30.373132982875912,60.007965512625049]},"properties":{"unit_id":"fb86e8cf-801c-40df-a608-6323aa541a47","address_id":"76a49528-7de5-4816-ad47-6d1abe304987"}},{"id":"ee70e664-d67c-4ef8-9e6a-43f73261ca9b","type":"Feature","feature_type":"anchor","geometry":{"type":"Point","coordinates":[30.370917754129675,60.00727859566252]},"properties":{"unit_id":"f0d7f844-7b55-4e6b-944d-49fba4492d1c","address_id":"e51b4861-f7a6-4c02-a717-8990a6b528ac"}},{"id":"92a5d728-aa80-49cd-bc67-f1cafc4f7195","type":"Feature","feature_type":"anchor","geometry":{"type":"Point","coordinates":[30.370872318376009,60.007288634811729]},"properties":{"unit_id":"ec878b64-fff2-43c4-8a5f-f2a97450eea8","address_id":"962ebbeb-8840-4515-8c61-13fe76d0af3b"}},{"id":"d4c00227-093b-4761-a11f-8cca2a73b4de","type":"Feature","feature_type":"anchor","geometry":{"type":"Point","coordinates":[30.371119469929788,60.00724693415264]},"properties":{"unit_id":"7896f106-0e5e-4006-b539-10e184a8c992","address_id":"88678f42-12de-4eeb-9fa4-52571606096b"}},{"id":"65e05915-a349-439a-97f0-bd51d118edc3","type":"Feature","feature_type":"anchor","geometry":{"type":"Point","coordinates":[30.370988439187887,60.007221584470678]},"properties":{"unit_id":"84d421de-ad3e-4d3e-9162-a73e5b549e20","address_id":"084e087a-206f-4426-a798-438558e6ccb0"}},{"id":"64fa75cc-2ef2-40be-b853-8399bb8c8f9d","type":"Feature","feature_type":"anchor","geometry":{"type":"Point","coordinates":[30.371145354875029,60.007285278548416]},"properties":{"unit_id":"8eb23dbd-3020-4cfe-91c8-8d50d62a5b0b","address_id":"698f2411-6709-427e-a488-fbbf1c040ce5"}},{"id":"d7e3afc7-1bda-42b8-834a-0ac07a30526c","type":"Feature","feature_type":"anchor","geometry":{"type":"Point","coordinates":[30.371090708548724,60.007204329176957]},"properties":{"unit_id":"468e640f-1dd0-4c98-9cd9-3792038bf290","address_id":"3aa20ac1-57fe-4147-923b-835799a67b3b"}},{"id":"7a6b33e8-b63e-4812-bc46-d0c2088b44e2","type":"Feature","feature_type":"anchor","geometry":{"type":"Point","coordinates":[30.370843557136009,60.007246029836047]},"properties":{"unit_id":"d243a121-f6a2-4643-8b6a-9ea47782163c","address_id":"649d3069-317f-4c3c-9878-6b31c985c548"}},{"id":"84aa1fc9-91fd-4c64-aeae-7838f1dbae70","type":"Feature","feature_type":"anchor","geometry":{"type":"Point","coordinates":[30.370898203194294,60.007326979207505]},"properties":{"unit_id":"1b98a0a8-e17e-47d9-9373-f28b9bcf6e01","address_id":"7eb10c8b-b761-4aa1-ad2b-08209adafbbb"}},{"id":"fa2c238c-1038-4be4-af5b-bfc993606e21","type":"Feature","feature_type":"anchor","geometry":{"type":"Point","coordinates":[30.371015308124854,60.007296542847634]},"properties":{"unit_id":"ae998d2d-d65e-41eb-b64d-580c3c792bec","address_id":"b4908d2d-c8c3-4b98-baf8-8889938d25c1"}},{"id":"57f6c28b-aa40-4335-adc1-4e8c7ccf3d90","type":"Feature","feature_type":"anchor","geometry":{"type":"Point","coordinates":[30.373273314223148,60.00761793531791]},"properties":{"unit_id":"c9efd1e3-8a68-464c-a30e-0416bf73ba91","address_id":"0147cff4-60aa-4942-a17f-84834b77c3b1"}},{"id":"72e76ea5-170f-419a-9917-d45725f2fdb9","type":"Feature","feature_type":"anchor","geometry":{"type":"Point","coordinates":[30.37324791779503,60.007784213752544]},"properties":{"unit_id":"f71f3e3e-533b-4040-a746-9c14964a3cd9","address_id":"b4b840b6-bc72-4658-9fe3-acfcc84e9a63"}},{"id":"0b91c8d2-1aca-400c-a05f-24b37a6d35a9","type":"Feature","feature_type":"anchor","geometry":{"type":"Point","coordinates":[30.373160681038829,60.007960839270595]},"properties":{"unit_id":"b9640128-d81f-4f42-ba06-78160773a319","address_id":"6fa68a02-343a-43da-9e5f-312429a753ca"}},{"id":"c79a9c4d-33da-46df-9dfd-4a6322f93fcb","type":"Feature","feature_type":"anchor","geometry":{"type":"Point","coordinates":[30.373467490690246,60.007909073389435]},"properties":{"unit_id":"48cbc677-19fc-4363-9ce7-771f9a5d74bb","address_id":"fd676a3a-854f-4634-b818-44f08ec80aa4"}},{"id":"b2cdda0b-5d5e-4bbe-95d7-b103ac2e71df","type":"Feature","feature_type":"anchor","geometry":{"type":"Point","coordinates":[30.373224599755805,60.007950054986466]},"properties":{"unit_id":"70e82b48-c7b7-494f-b8d2-dba26f6e327a","address_id":"7ccaaea8-e3cf-4ee1-83a7-4210c2f7d65c"}},{"id":"b533b1a2-1b56-442b-b4e1-39d87d860110","type":"Feature","feature_type":"anchor","geometry":{"type":"Point","coordinates":[30.373343011562465,60.007619226336196]},"properties":{"unit_id":"c6e6b2ad-9f27-40d9-88cb-914067a6da6b","address_id":"d0cf0600-2dbf-4ea6-8928-24df48be15f9"}},{"id":"787174f8-8b7b-4537-ad61-a1d5a8c672cd","type":"Feature","feature_type":"anchor","geometry":{"type":"Point","coordinates":[30.373253525827455,60.007634324992651]},"properties":{"unit_id":"d9b8451a-6770-40b6-b7c2-d76728f936a0","address_id":"62e96e72-ebb4-425d-bb39-f9beef49f151"}},{"id":"7cca76d8-36ab-49e0-bfd6-028219126537","type":"Feature","feature_type":"anchor","geometry":{"type":"Point","coordinates":[30.373025550125593,60.007672790146941]},"properties":{"unit_id":"ef79a18b-e9d2-4932-a6b6-c18aeb5f6dd1","address_id":"07f72714-dccc-4a37-a500-d1d84b967e20"}},{"id":"50d97420-678d-48bd-8eb0-8a8e3f59c65e","type":"Feature","feature_type":"anchor","geometry":{"type":"Point","coordinates":[30.374291128243524,60.006794842273557]},"properties":{"unit_id":"62c22b60-3b1d-4971-b57b-8e149d9e1e02","address_id":"295c7f22-ea8b-46ac-af0a-aac0378965f8"}},{"id":"039cba57-eab9-4a40-928c-736557f0c3df","type":"Feature","feature_type":"anchor","geometry":{"type":"Point","coordinates":[30.37496838477913,60.007449984926772]},"properties":{"unit_id":"8a939479-76df-4388-bc31-7d7ecba6f491","address_id":"f28da88d-c33a-4c77-9aa6-b8d56df5ffec"}},{"id":"08cf2d4f-e191-4669-b381-fc4c9dd5180c","type":"Feature","feature_type":"anchor","geometry":{"type":"Point","coordinates":[30.374930991763108,60.007394598485831]},"properties":{"unit_id":"b036e362-246e-4384-93b2-e87c8793491a","address_id":"418e0cde-07b2-4e0c-9ce2-d19f8831c7cd"}},{"id":"ff206a91-8422-43d1-b1bf-26ed98d199a0","type":"Feature","feature_type":"anchor","geometry":{"type":"Point","coordinates":[30.374897194293833,60.007344537769768]},"properties":{"unit_id":"4b1c0d2b-23c7-430d-8dfe-0c1a7afcc8ce","address_id":"283691b2-2d6d-4d4e-8ad4-aaade2fe36ae"}},{"id":"fa2f6366-36f0-49ce-bdc2-47c680ebdec1","type":"Feature","feature_type":"anchor","geometry":{"type":"Point","coordinates":[30.374828880606209,60.007243350918209]},"properties":{"unit_id":"d7ce945a-3691-4f46-a2b5-809f7188f964","address_id":"e2f151e9-7446-4672-8f5a-0570f3bd26ae"}},{"id":"3e25deb1-db9f-483f-9b42-43365cd35cbf","type":"Feature","feature_type":"anchor","geometry":{"type":"Point","coordinates":[30.374863037423893,60.007293944343992]},"properties":{"unit_id":"1f2ceaff-bd28-4fe6-857a-9919b079366c","address_id":"c313841f-65b4-49b2-b20d-d06202e00538"}},{"id":"c738e440-aa62-42ec-8de1-c097b766a7e3","type":"Feature","feature_type":"anchor","geometry":{"type":"Point","coordinates":[30.374806588737069,60.007210332247311]},"properties":{"unit_id":"3808b1ab-fe70-4ee2-b68a-ad6dbcafe430","address_id":"0909c19c-c68e-412f-b299-27a50aeda246"}},{"id":"e949e9bc-33b2-447e-b751-8cbef4efbf01","type":"Feature","feature_type":"anchor","geometry":{"type":"Point","coordinates":[30.374781061011983,60.007172520286794]},"properties":{"unit_id":"860dda3d-79ed-4365-9754-3c4da90ddf1b","address_id":"2b60a19c-e6c3-4fb3-93d7-3b1e553597c0"}},{"id":"8c961fe7-48ec-47c1-b3e6-6ea47b8843b7","type":"Feature","feature_type":"anchor","geometry":{"type":"Point","coordinates":[30.374576121230319,60.006868960555487]},"properties":{"unit_id":"6f55b467-3be7-46cc-ae18-4708a46a10e1","address_id":"494139c6-76f7-40be-9974-3f56d6eecfe6"}},{"id":"a63f79fd-8a38-4080-bdf3-15d67045478e","type":"Feature","feature_type":"anchor","geometry":{"type":"Point","coordinates":[30.3745344144145,60.006807183519143]},"properties":{"unit_id":"fb433f46-5c49-478f-bb2b-c952c4a4dd7c","address_id":"969b8184-3506-4ec8-97cf-5db970467c2a"}},{"id":"4fcfff4e-0d71-4227-ac6c-b1bff1be28ae","type":"Feature","feature_type":"anchor","geometry":{"type":"Point","coordinates":[30.374655939649816,60.006987189177757]},"properties":{"unit_id":"78521c8a-d881-4d3b-adb0-53b30b0e7774","address_id":"48b19db8-22ae-482c-bd92-4b4baefc5ccf"}},{"id":"1d7363dc-46aa-49a7-9a69-11b8921249c0","type":"Feature","feature_type":"anchor","geometry":{"type":"Point","coordinates":[30.37460812056322,60.006916358546341]},"properties":{"unit_id":"7513c202-d154-49be-9a17-9f4689745380","address_id":"83042b62-941a-4014-aa63-9e40c6fe8a02"}},{"id":"7f15ec94-a93e-4670-a843-dd2dff85be03","type":"Feature","feature_type":"anchor","geometry":{"type":"Point","coordinates":[30.374630412096966,60.006949377217239]},"properties":{"unit_id":"a9c12479-4d8e-44c7-92ad-be927036b058","address_id":"03f40683-6863-4369-9ea0-7349de30fb53"}},{"id":"4a510837-56ae-4888-bfdd-02fe5e03d17d","type":"Feature","feature_type":"anchor","geometry":{"type":"Point","coordinates":[30.374691174961811,60.00703938018377]},"properties":{"unit_id":"0b0f3f45-291a-4f54-8c00-5ae0bfb8ebae","address_id":"2178d126-6671-4f3d-a441-d9ff70cec527"}},{"id":"fa1b810b-9b21-4d67-98a1-f16ef6307cbd","type":"Feature","feature_type":"anchor","geometry":{"type":"Point","coordinates":[30.374743668309669,60.007117134120307]},"properties":{"unit_id":"13813abb-82ff-494f-9257-7e35b1daad15","address_id":"8b4e513d-3e4b-44e4-aa60-2fd5dc3aa781"}},{"id":"d4a91677-9988-4d34-a78a-c5f899982ede","type":"Feature","feature_type":"anchor","geometry":{"type":"Point","coordinates":[30.374281966361952,60.006710963684796]},"properties":{"unit_id":"c3917ee9-92a2-4735-a80f-e7dfa72712cd","address_id":"40bfd389-0810-4c7e-ba2d-690d716eb02c"}},{"id":"8e456c88-10e0-4a1a-bf94-5c3c8dfe5f23","type":"Feature","feature_type":"anchor","geometry":{"type":"Point","coordinates":[30.374477979521593,60.006677890672563]},"properties":{"unit_id":"e3ec7326-bd72-49ef-8314-1f17221424e4","address_id":"499ab713-0ba8-4452-8692-f0f1d7c430e2"}},{"id":"04900bc7-11ad-4afa-b217-9bdd83349e6b","type":"Feature","feature_type":"anchor","geometry":{"type":"Point","coordinates":[30.372925390085364,60.007306467276251]},"properties":{"unit_id":"c99548b6-65a3-45d8-957f-b93fee61b4b2","address_id":"b942dbf9-c081-46b1-aeed-baecc73cf5d2"}},{"id":"2c65032b-cea6-4b98-9e50-d507efc0720c","type":"Feature","feature_type":"anchor","geometry":{"type":"Point","coordinates":[30.372582388126975,60.007415357697589]},"properties":{"unit_id":"a294fd8a-84fb-49b1-bb15-af194a36d924","address_id":"bb2d9cc0-712a-4e41-bf85-9a8dbb5d7fed"}},{"id":"c9fbdea7-46ea-448b-b50b-2fa66acdab0d","type":"Feature","feature_type":"anchor","geometry":{"type":"Point","coordinates":[30.372481183882822,60.007432433500242]},"properties":{"unit_id":"634b6d2c-7a54-47b6-8e64-37e03d6ca6cb","address_id":"322a9871-7e0d-441a-9998-4a7d3a255bc1"}},{"id":"c2a7e083-9043-47c8-86ee-5e590ddfa6fd","type":"Feature","feature_type":"anchor","geometry":{"type":"Point","coordinates":[30.372382110244175,60.007449149771872]},"properties":{"unit_id":"db8c0ca6-66f0-47b9-80f9-cfb11fc59759","address_id":"177f714c-41ca-44aa-88cd-28220ff006ca"}},{"id":"ae38b1db-24a2-41cc-9d48-6e2854473c5e","type":"Feature","feature_type":"anchor","geometry":{"type":"Point","coordinates":[30.372316061489922,60.007460293861477]},"properties":{"unit_id":"5eedbd7e-1ccc-42e2-81ad-2345c7ca68a0","address_id":"58363844-4aa4-46a5-818c-bc381676a866"}},{"id":"0f53e24f-93ba-4ee7-a7cd-50882d6bd633","type":"Feature","feature_type":"anchor","geometry":{"type":"Point","coordinates":[30.372250012164422,60.007471437951075]},"properties":{"unit_id":"6fefb52d-4609-433f-8843-6f9891bd9c78","address_id":"3bbdc175-faad-40a1-833c-fea3e9aeb0ed"}},{"id":"b75aeda4-3396-4819-8b01-ea00333eb86c","type":"Feature","feature_type":"anchor","geometry":{"type":"Point","coordinates":[30.372183963365657,60.00748258204068]},"properties":{"unit_id":"d8e8947d-f2d3-4357-8488-b95488891cae","address_id":"ca82f8ff-aa2e-4cf2-80c8-871a31946f3e"}},{"id":"580e61cf-3399-4429-82a7-91774e3c5b9d","type":"Feature","feature_type":"anchor","geometry":{"type":"Point","coordinates":[30.374790094008198,60.0075233726197]},"properties":{"unit_id":"48efaefa-b718-49d1-9168-f980df81565e","address_id":"cdb938a1-2723-413e-a7c9-17632925bace"}},{"id":"6b1e8fba-5565-4553-81aa-202e33ef66a3","type":"Feature","feature_type":"anchor","geometry":{"type":"Point","coordinates":[30.374402986288363,60.007108174936434]},"properties":{"unit_id":"dc7461f1-ca07-49d0-8400-488a96979140","address_id":"801a4775-4af2-4479-9fc6-f33572eca5da"}},{"id":"aab6d519-e244-4ae2-a0db-4545b3063a24","type":"Feature","feature_type":"anchor","geometry":{"type":"Point","coordinates":[30.374316697441795,60.007122734296352]},"properties":{"unit_id":"f1246ca3-04a4-4e8b-a50b-20d7a1253142","address_id":"ea3d723f-b09f-4286-8335-05405394617a"}},{"id":"51e9a8ad-9fee-4cca-a0bd-f906c8f24dfa","type":"Feature","feature_type":"anchor","geometry":{"type":"Point","coordinates":[30.374250649064926,60.00713387838595]},"properties":{"unit_id":"182a7c8a-42fb-48b5-b957-bbd587c6e253","address_id":"c05fb918-95cf-4389-b929-2f217489814a"}},{"id":"41e4184c-5dd5-44b1-bfdc-f07be29c2831","type":"Feature","feature_type":"anchor","geometry":{"type":"Point","coordinates":[30.3741846006658,60.007145022475555]},"properties":{"unit_id":"815859c7-bb2b-4f66-86ee-414b18cb1c89","address_id":"4ba80bd9-f14f-4a67-af3a-52058a7ba374"}},{"id":"7b04329c-9a7f-41f7-86a2-1390d776d9e7","type":"Feature","feature_type":"anchor","geometry":{"type":"Point","coordinates":[30.373596556005896,60.007244241237792]},"properties":{"unit_id":"408fa75f-35fd-45e9-b43f-4b56e6c29d63","address_id":"dde26d37-ab59-4a24-8212-d750956aee40"}},{"id":"271c4e3f-7c6d-4fc2-b039-62cca1db9732","type":"Feature","feature_type":"anchor","geometry":{"type":"Point","coordinates":[30.374118552244418,60.00715616656516]},"properties":{"unit_id":"fcd63a9b-4ea5-4565-a833-cd7910f5de77","address_id":"4aaa1036-790f-4c8e-9d79-8686ac0a113e"}},{"id":"cd73401b-33da-436b-b071-0c3b42043831","type":"Feature","feature_type":"anchor","geometry":{"type":"Point","coordinates":[30.373917850200318,60.007180538926519]},"properties":{"unit_id":"878a3e6f-93c4-4021-9c07-e861cd2b71ae","address_id":"41926507-28a7-43bc-85df-324b8b2548ca"}},{"id":"98f07743-e068-4a1b-84fb-315a1db339e2","type":"Feature","feature_type":"anchor","geometry":{"type":"Point","coordinates":[30.37319661612965,60.00725121284632]},"properties":{"unit_id":"23cd58ef-538f-4c22-b243-2357f3e4d80d","address_id":"b5d2062d-2fd7-46d5-9524-6cfbb0fe7ad2"}},{"id":"23715f77-8f7a-4cdd-a64d-92534186ac8d","type":"Feature","feature_type":"anchor","geometry":{"type":"Point","coordinates":[30.374103681490748,60.007458610378023]},"properties":{"unit_id":"dacd4404-743b-4799-bc5c-1e771d1fc90c","address_id":"07ae7ebb-8e3f-4f42-a18d-d945af49c9c9"}},{"id":"cc5af4f4-df2a-431b-8667-53f35f03d727","type":"Feature","feature_type":"anchor","geometry":{"type":"Point","coordinates":[30.374252454727632,60.007398448761236]},"properties":{"unit_id":"5b2ce680-b8b3-44d5-add1-1692e0b533ed","address_id":"6c0ded92-8ebc-4a57-af34-e1f9d66c6bb7"}},{"id":"fb355061-d459-4757-8cb9-d59ab18aeb3d","type":"Feature","feature_type":"anchor","geometry":{"type":"Point","coordinates":[30.3739430180772,60.007407650285487]},"properties":{"unit_id":"fc48b969-f30b-4025-a560-e3de81979ec7","address_id":"1d38f189-6a07-44c9-8520-fad5afd169b4"}},{"id":"a454bdf4-325c-4901-8da7-6f76ed95e70c","type":"Feature","feature_type":"anchor","geometry":{"type":"Point","coordinates":[30.371341148738317,60.007842498123352]},"properties":{"unit_id":"bdcd96e2-94fc-4c6b-aeb7-644a101fef5d","address_id":"b288bd1b-458c-4bb9-b9c2-a5296bbeb3b1"}},{"id":"735ddb0c-e783-44fb-bd7b-69b7eedfd595","type":"Feature","feature_type":"anchor","geometry":{"type":"Point","coordinates":[30.371363438953342,60.00787551679425]},"properties":{"unit_id":"43e01f60-afab-4de7-8e14-f1ad480b307c","address_id":"0fe23fe5-cd77-48c3-b06c-bdddb5a8ddde"}},{"id":"4accd987-edf9-4c65-8f2d-f611a77624d6","type":"Feature","feature_type":"anchor","geometry":{"type":"Point","coordinates":[30.371385729190603,60.0079085357396]},"properties":{"unit_id":"14dfd452-a32d-456d-8135-c52317dbd439","address_id":"b3979ec9-7313-47b8-b380-c865af951a3f"}},{"id":"af68d462-69e2-4e3c-97e0-b71109d804c0","type":"Feature","feature_type":"anchor","geometry":{"type":"Point","coordinates":[30.37140801972463,60.0079415544105]},"properties":{"unit_id":"448fed26-87c5-45a0-ad2f-181b4ff51b5b","address_id":"2fc7a507-b7c6-4487-be50-81add78fe4a7"}},{"id":"feba5072-d4b4-4e7e-9853-e58288157c2d","type":"Feature","feature_type":"anchor","geometry":{"type":"Point","coordinates":[30.371430310006417,60.0079745730814]},"properties":{"unit_id":"2b3b31ce-4978-436d-82e6-0ed0fd44d4a3","address_id":"55c9e40d-9ce5-46ea-8a0f-b1a6acdc7c2e"}},{"id":"8aa28801-c393-430d-b0b4-56b3d1a128ef","type":"Feature","feature_type":"anchor","geometry":{"type":"Point","coordinates":[30.371452600310455,60.008007591752296]},"properties":{"unit_id":"d409c9be-54d4-43d3-9f05-8f511a5985fb","address_id":"be3e1ddc-70bf-4839-825e-f2692f724057"}},{"id":"0254b924-a4b5-4494-83ae-30370f770ea2","type":"Feature","feature_type":"anchor","geometry":{"type":"Point","coordinates":[30.371474890911248,60.0080406104232]},"properties":{"unit_id":"10ac224a-534c-489e-9186-271978ec6106","address_id":"0354a0e9-62f1-4992-85a5-fc836956aefb"}},{"id":"0448ef8a-ac9b-4dab-9cc9-e556b6db4914","type":"Feature","feature_type":"anchor","geometry":{"type":"Point","coordinates":[30.37102980553512,60.007381299954574]},"properties":{"unit_id":"5241c90c-c310-4b81-8b78-426a1b0e6539","address_id":"78c04dab-e037-44c9-80a4-311c8af84fe8"}},{"id":"92da9d6f-9c63-4d46-bbae-8337e7e96897","type":"Feature","feature_type":"anchor","geometry":{"type":"Point","coordinates":[30.371052095439289,60.007414318899926]},"properties":{"unit_id":"be7515c1-7280-4ad4-899a-2c1448f6d8fc","address_id":"970ab3eb-87ae-4530-9c10-6ee682742639"}},{"id":"f768ede8-e2f1-49a8-bb08-074eee0d8f68","type":"Feature","feature_type":"anchor","geometry":{"type":"Point","coordinates":[30.371074385640231,60.007447337570824]},"properties":{"unit_id":"d984deda-c80d-4e9b-aa5b-da50cbefbce4","address_id":"17625faf-90dd-454a-a573-7b07318742f1"}},{"id":"cda9e175-606b-4c71-956e-b99b69a0ab31","type":"Feature","feature_type":"anchor","geometry":{"type":"Point","coordinates":[30.371096675588909,60.007480356516176]},"properties":{"unit_id":"f991d4f0-6af2-408f-b75c-2429df28e4d3","address_id":"aaf68793-18cc-4f83-9419-c8170c1f040d"}},{"id":"0856531d-7359-4c39-9885-1a37a35b41e8","type":"Feature","feature_type":"anchor","geometry":{"type":"Point","coordinates":[30.371118965834356,60.007513375187074]},"properties":{"unit_id":"0d42a15c-76a5-4aa1-bf97-02f3c30646f3","address_id":"0a081c42-a121-4aa0-910a-107bcfb20ac8"}},{"id":"c34e236a-5f20-49f7-9364-04cd7bd60eb6","type":"Feature","feature_type":"anchor","geometry":{"type":"Point","coordinates":[30.371141255827542,60.007546394132426]},"properties":{"unit_id":"450d72b4-288f-4133-92e0-0c8879e4c477","address_id":"f26d33cc-8e8c-4a10-9265-b61815a1bf8e"}},{"id":"64632740-6af2-4713-ba19-54c0e7529428","type":"Feature","feature_type":"anchor","geometry":{"type":"Point","coordinates":[30.371163545842997,60.007579412803324]},"properties":{"unit_id":"d6759141-53eb-4772-9136-85d0161b1cd6","address_id":"0668012b-c981-4380-8d77-71912d0d1425"}},{"id":"60a8e9c0-725f-4f63-a456-21aec8a13a12","type":"Feature","feature_type":"anchor","geometry":{"type":"Point","coordinates":[30.371357758539926,60.007733509174045]},"properties":{"unit_id":"1c13e51a-c4c3-4cdc-9635-7282c53e1ced","address_id":"98ac4c65-cf5f-4369-9c6f-213af00f0d75"}},{"id":"1c16791e-a6ca-4e9d-9515-60a30422af3a","type":"Feature","feature_type":"anchor","geometry":{"type":"Point","coordinates":[30.371382977554042,60.007777897807856]},"properties":{"unit_id":"2fe60904-c1a7-499e-a551-a6986bdf3665","address_id":"052ee678-0bcd-411b-b1a2-81ff89323e30"}},{"id":"9e35d223-e821-4aa9-a9ae-caef00a34b28","type":"Feature","feature_type":"anchor","geometry":{"type":"Point","coordinates":[30.371283023880011,60.007819677783331]},"properties":{"unit_id":"eae123c1-530d-47d0-8c21-559d30c3a9dd","address_id":"de498712-199d-41ce-bd12-964d682aec92"}},{"id":"e7ca6e89-2aa5-4fa8-a01c-b1613d880a86","type":"Feature","feature_type":"anchor","geometry":{"type":"Point","coordinates":[30.371144968546545,60.007615174339179]},"properties":{"unit_id":"f6a07b9f-ad88-43bc-84fa-1c84970da044","address_id":"f9beb6ca-ea25-4566-b788-23b519ef70fa"}},{"id":"4787d917-0805-4354-80ab-a08429d130d9","type":"Feature","feature_type":"anchor","geometry":{"type":"Point","coordinates":[30.371273683639611,60.007615999339386]},"properties":{"unit_id":"c53db99e-2189-472f-b038-4cb3cc8841a2","address_id":"aef96f2f-e687-4bf6-a837-bbc51d729797"}},{"id":"4320ff7d-9a5e-4a59-8253-ce609dc13a07","type":"Feature","feature_type":"anchor","geometry":{"type":"Point","coordinates":[30.371308863483776,60.007661080687939]},"properties":{"unit_id":"4e5b710b-b4b2-4022-a3a6-3015a188d054","address_id":"f09470b9-ae00-48c7-987d-78e387f08d67"}},{"id":"b288e1aa-28c0-4837-a34e-5df9dca64432","type":"Feature","feature_type":"anchor","geometry":{"type":"Point","coordinates":[30.3712214914761,60.007708943324609]},"properties":{"unit_id":"17d8b3ef-612a-4b5c-89b4-4ce14a1bc1ed","address_id":"7da9b230-8708-47d1-94c3-ecb237d45d6a"}},{"id":"df36250f-4eaa-442b-9cd6-2fd71200c547","type":"Feature","feature_type":"anchor","geometry":{"type":"Point","coordinates":[30.371485120495763,60.007600494220753]},"properties":{"unit_id":"25d489da-4732-4572-94de-773e95ca1d11","address_id":"2a609576-3f5d-42a5-a717-fe081d327d3b"}},{"id":"b40ee842-c5b8-4cb9-adbe-2256d836face","type":"Feature","feature_type":"anchor","geometry":{"type":"Point","coordinates":[30.371546908745398,60.007590069193206]},"properties":{"unit_id":"4811c507-78f1-4e60-bfc5-a360633b213b","address_id":"429a05e6-1d36-46b1-bd76-b2c4086788fa"}},{"id":"df276699-2a2a-44ff-b69c-d90592729994","type":"Feature","feature_type":"anchor","geometry":{"type":"Point","coordinates":[30.371608696426577,60.007579643891205]},"properties":{"unit_id":"ea7ede4b-4259-4778-87d4-9066afe02c60","address_id":"6a6ab351-8d5b-41de-aae9-2ade44d990d5"}},{"id":"093b7c76-7731-41d9-9a9d-4474ebf544ff","type":"Feature","feature_type":"anchor","geometry":{"type":"Point","coordinates":[30.371670484637256,60.007569218863658]},"properties":{"unit_id":"bcffb403-789a-479e-bc9f-0af3532b59b9","address_id":"bfc5e0a7-24e1-480a-a067-c10ecacb1660"}},{"id":"820dc80c-0ab2-4b08-b436-8464a4b7a49d","type":"Feature","feature_type":"anchor","geometry":{"type":"Point","coordinates":[30.37173227227948,60.007558793561657]},"properties":{"unit_id":"2a663b48-f1e3-426f-9a62-fb287d64681b","address_id":"a6e02c17-58b9-4254-a3af-0e69c44f804c"}},{"id":"bba0a547-6b25-481f-8a8c-8f0bafa68084","type":"Feature","feature_type":"anchor","geometry":{"type":"Point","coordinates":[30.372642659082342,60.007344679661017]},"properties":{"unit_id":"b187aa98-7c41-4724-9e4b-dc590f4ee55d","address_id":"e5b46916-b1c3-46e2-a0f7-697512faaed6"}},{"id":"20384ac5-e8bb-41f8-ad63-b9cfecc067a0","type":"Feature","feature_type":"anchor","geometry":{"type":"Point","coordinates":[30.373330231021306,60.007289177401681]},"properties":{"unit_id":"d2a9a093-b633-4f05-a5c9-b6de73492ec9","address_id":"2c2aec9d-1dfc-48a5-b4dc-52694dd7ef08"}},{"id":"6946dd69-d845-4c12-8c25-71dbceacd327","type":"Feature","feature_type":"anchor","geometry":{"type":"Point","coordinates":[30.37346232809859,60.007266888948031]},"properties":{"unit_id":"4aedd72a-f00d-4fa0-8642-02bb60966067","address_id":"4145b75e-fa49-4b92-ac1f-dced85b32e43"}},{"id":"27ee6456-b44b-4196-8e5d-1bb93231db46","type":"Feature","feature_type":"anchor","geometry":{"type":"Point","coordinates":[30.373728653178187,60.00722195305859]},"properties":{"unit_id":"af15c721-379b-4c3f-8b00-c2137bb914f3","address_id":"57f2bb51-60bf-4ac9-8caa-d9108fff09e3"}},{"id":"9ac6e3b3-1f6f-42f9-93f9-ab4594e29369","type":"Feature","feature_type":"anchor","geometry":{"type":"Point","coordinates":[30.373662604603169,60.007233097148195]},"properties":{"unit_id":"8a7c6740-ae3a-4e15-8d6b-db8bda2ce356","address_id":"b28fbdf5-bdcc-4171-ae59-f65bc733ca29"}},{"id":"9e488388-8410-402c-9118-5c1f6bfe7809","type":"Feature","feature_type":"anchor","geometry":{"type":"Point","coordinates":[30.371983259755527,60.007506954402039]},"properties":{"unit_id":"81cad657-aeab-482d-8a75-bdf6ec160e11","address_id":"10837111-f8ba-442f-9a82-2a8323142301"}},{"id":"d1576a11-df55-459d-b143-51a4648db19f","type":"Feature","feature_type":"anchor","geometry":{"type":"Point","coordinates":[30.371794060451212,60.00754836853411]},"properties":{"unit_id":"b810fe13-40bd-45a7-8bac-37c0c53870f6","address_id":"5fdcba3c-d250-4c23-8c9e-8548a68f8cbe"}},{"id":"f487c84c-aa68-4526-bd57-645fc242def5","type":"Feature","feature_type":"anchor","geometry":{"type":"Point","coordinates":[30.372220071563291,60.007699541451011]},"properties":{"unit_id":"a8c46824-15c8-4a9c-97a7-f0fedf950cce","address_id":"8c0e95e6-7242-486d-9009-22f9cfc70486"}},{"id":"93af4e1d-dbe8-439e-b7b5-2989444608a2","type":"Feature","feature_type":"anchor","geometry":{"type":"Point","coordinates":[30.372028315859204,60.007731895401186]},"properties":{"unit_id":"49597ee8-8998-4e22-9c54-42db25e7ff24","address_id":"fa29ca4f-e4c2-4feb-a8f6-14cbece9517d"}},{"id":"e704d0c8-4806-4fd3-a200-21f5d9cf6aab","type":"Feature","feature_type":"anchor","geometry":{"type":"Point","coordinates":[30.372141875563237,60.0077981591652]},"properties":{"unit_id":"b02f565f-f5d8-4f68-a3eb-c8311ad070c2","address_id":"773948f8-86fa-4eec-ba88-c5eedba27a8f"}},{"id":"193a16e9-a3ae-4182-a07c-30ec0231853a","type":"Feature","feature_type":"anchor","geometry":{"type":"Point","coordinates":[30.37197528800759,60.007745588044315]},"properties":{"unit_id":"82c4f928-3bcd-4e34-bc36-5e9f0484cf6b","address_id":"4db02d96-3cb6-4d0b-91cc-5d72c2b12c57"}},{"id":"9feba5ac-9ce6-4818-b272-c367969aca46","type":"Feature","feature_type":"anchor","geometry":{"type":"Point","coordinates":[30.372278851355578,60.007694369418786]},"properties":{"unit_id":"dc32579e-69d4-410d-ae3b-68a019ed06f3","address_id":"ba33601d-b04e-470d-a4d2-a9ffa8132e18"}},{"id":"70f08112-5f42-4681-97fd-6af2f6ff7d89","type":"Feature","feature_type":"anchor","geometry":{"type":"Point","coordinates":[30.372068927857036,60.007837755332744]},"properties":{"unit_id":"d859a021-6431-4c52-987a-8dfbf97ea68d","address_id":"2fd07c25-01af-4e61-aa3d-45a3db9fdb72"}},{"id":"ac238dfb-1627-4226-a866-11c194762715","type":"Feature","feature_type":"anchor","geometry":{"type":"Point","coordinates":[30.372316855347343,60.007795923760447]},"properties":{"unit_id":"44f69c13-7950-4e79-8480-838a0c5e9316","address_id":"ffdcbbe7-bc57-4fa5-a15e-eb1193cf67ba"}},{"id":"35cbc2bc-60a3-4484-a07e-998da4570880","type":"Feature","feature_type":"anchor","geometry":{"type":"Point","coordinates":[30.37298102123426,60.007613862188151]},"properties":{"unit_id":"1ea0b47e-a6f5-4942-9583-b3caf5abd214","address_id":"ce1c654e-a55a-4916-9b6d-675c71232d7b"}},{"id":"93c5f6fd-9d18-430c-b49e-53efdc07ecd8","type":"Feature","feature_type":"anchor","geometry":{"type":"Point","coordinates":[30.37402139736982,60.007333916509637]},"properties":{"unit_id":"b8213a28-b362-4b4e-bb8f-722df20af3ca","address_id":"4290389e-58a5-4456-ae6f-6485f678315f"}},{"id":"f15ae325-28bd-49db-8462-01d4da3c0b8f","type":"Feature","feature_type":"anchor","geometry":{"type":"Point","coordinates":[30.372086802950044,60.007660331985157]},"properties":{"unit_id":"abff5ddd-3472-46e1-aa20-87ec56ea77aa","address_id":"67c30d51-771a-44ae-9b2d-14329f26b199"}},{"id":"a4b31ff5-6ab5-4da0-ad5f-2be126312ac4","type":"Feature","feature_type":"anchor","geometry":{"type":"Point","coordinates":[30.372140707938907,60.007641745328833]},"properties":{"unit_id":"3337a124-c347-4df4-a0a1-a6368c70a2d9","address_id":"d90ef411-075e-41b9-b7d5-40fa3cb3eaf1"}},{"id":"d2fb1582-abe4-47b8-b195-ef18da7c10cc","type":"Feature","feature_type":"anchor","geometry":{"type":"Point","coordinates":[30.372021392843934,60.00766187687077]},"properties":{"unit_id":"671b4b42-3a35-4f4f-948a-b6156a3bdb93","address_id":"6c13bd0a-2baa-4787-a31d-c5cc07eb0f37"}},{"id":"28af9740-b954-4429-838d-16f790517e72","type":"Feature","feature_type":"anchor","geometry":{"type":"Point","coordinates":[30.37209399350181,60.007670983160466]},"properties":{"unit_id":"5f6ad580-4a27-4441-b9e8-81d5e4b72cf7","address_id":"e846f316-6bf4-4cdf-8d04-852f582dba38"}},{"id":"e2216f02-824c-4c27-b44e-599f7b793f1c","type":"Feature","feature_type":"anchor","geometry":{"type":"Point","coordinates":[30.371218806242318,60.00731322426396]},"properties":{"unit_id":"eac59c09-679d-4926-afe5-17d8e7b1cb0b","address_id":"def58960-702b-4883-b4de-b901d273195b"}},{"id":"4c67e2c8-fd34-4c00-b14a-242d27dfd5e7","type":"Feature","feature_type":"anchor","geometry":{"type":"Point","coordinates":[30.374583611216938,60.0074882110341]},"properties":{"unit_id":"771bc311-f970-4a29-90be-721f2e67f2a8","address_id":"01df7e6f-7afd-4552-aeb0-d4d8b8c7025f"}},{"id":"ba6732a1-955c-42bc-96e0-8daa28c4b099","type":"Feature","feature_type":"anchor","geometry":{"type":"Point","coordinates":[30.3743485522642,60.007530244602449]},"properties":{"unit_id":"d5cc64d8-69f8-4b07-8037-bfe13d129344","address_id":"8ec92450-d884-4a76-a254-6c916f3e8c12"}},{"id":"8172760a-8b68-4bca-a407-3215e5506826","type":"Feature","feature_type":"anchor","geometry":{"type":"Point","coordinates":[30.373999132818255,60.007589200555259]},"properties":{"unit_id":"7a490e33-818d-4f06-aa40-4e983a8afb6b","address_id":"dda383d0-35df-48b6-8091-213e6b8d34a4"}},{"id":"aa594064-390e-4606-a2a1-33bab3cd2591","type":"Feature","feature_type":"anchor","geometry":{"type":"Point","coordinates":[30.374179595567472,60.007568243464213]},"properties":{"unit_id":"241a76af-f663-47d8-a885-de7bbcdd10c5","address_id":"2f958751-7edb-455a-bc7d-78012e9517fb"}},{"id":"221561d2-609c-4e1d-a383-116a8f9f4ddd","type":"Feature","feature_type":"anchor","geometry":{"type":"Point","coordinates":[30.371427061033135,60.007610290480677]},"properties":{"unit_id":"757d8bdc-a8d5-4042-b93c-bfc68d14cd25","address_id":"4cfe6d29-5e64-44b9-b586-701b3247bd4f"}},{"id":"f2d234f9-534f-4028-9653-ab4c1c81941e","type":"Feature","feature_type":"anchor","geometry":{"type":"Point","coordinates":[30.374493989054109,60.007105871193346]},"properties":{"unit_id":"efb81f03-259a-4aaa-b9f9-a6d83cdb18a9","address_id":"526f254d-9b83-4011-a426-4f59ae9a3648"}},{"id":"140c2dd2-6b11-4541-a32d-c0edc93a4f61","type":"Feature","feature_type":"anchor","geometry":{"type":"Point","coordinates":[30.371707754771009,60.008037507478313]},"properties":{"unit_id":"9eb2b48b-b64f-40ef-9e64-e8950dd3754f","address_id":"0d2b0aba-1656-4d8d-816a-929662589463"}},{"id":"0e5f4b13-d121-4202-bc68-c8407f6bc102","type":"Feature","feature_type":"anchor","geometry":{"type":"Point","coordinates":[30.37171052193451,60.008122464385707]},"properties":{"unit_id":"b24cf4c0-bc90-4b2e-a3fb-b990ab8c6f25","address_id":"43a40bfd-b8ac-4953-8a8d-163010060071"}},{"id":"e03fabe8-3f36-40c9-9532-e5af32a063ba","type":"Feature","feature_type":"anchor","geometry":{"type":"Point","coordinates":[30.374874493801116,60.007588624482267]},"properties":{"unit_id":"9b511337-e8b8-4c80-8021-57dcee750a96","address_id":"fcf6c238-4484-4255-a22d-d8083c854af3"}},{"id":"9b4e9011-668b-467d-987c-3d63e5b20667","type":"Feature","feature_type":"anchor","geometry":{"type":"Point","coordinates":[30.375070509265345,60.007555551470034]},"properties":{"unit_id":"e778db58-8ee2-43f4-9e0b-876b9a146ee9","address_id":"c0b7a827-297a-4c7f-8902-08a07e7d8194"}},{"id":"155f61a2-7382-477f-975a-23e7acfaba64","type":"Feature","feature_type":"anchor","geometry":{"type":"Point","coordinates":[30.371514502835709,60.008155537397933]},"properties":{"unit_id":"1de64f07-5cc5-4641-8559-f65a55af6511","address_id":"31c08654-83db-485a-b1d0-0d852d2a60cb"}},{"id":"c96218b3-e341-4681-a152-3ef80f9f3c04","type":"Feature","feature_type":"anchor","geometry":{"type":"Point","coordinates":[30.374507594890964,60.0067393350741]},"properties":{"unit_id":"6d8b5d98-a7e2-48c9-aef9-7add0944b1ad","address_id":"5a41f34b-10f4-400c-ab95-716fbfeee019"}},{"id":"de0689e8-c8a0-4fc4-8b59-06446e41bd39","type":"Feature","feature_type":"anchor","geometry":{"type":"Point","coordinates":[30.370838704725919,60.007358374225305]},"properties":{"unit_id":"a33f78e4-7684-490c-9656-c7500c40c231","address_id":"bb9a7b12-d487-4763-bf70-9929a980e6b0"}},{"id":"2b3b1d6e-9c00-4f7a-b812-c282605cdafc","type":"Feature","feature_type":"anchor","geometry":{"type":"Point","coordinates":[30.371327649700717,60.008082657439658]},"properties":{"unit_id":"ecc28f8a-b264-4cf8-946b-a6b1f6b8380f","address_id":"0127be73-9946-4d36-9b13-cf24a768bd5e"}},{"id":"29f676c9-7cbd-4eb0-9f7a-6e9ec4c07842","type":"Feature","feature_type":"anchor","geometry":{"type":"Point","coordinates":[30.374996575326826,60.007463618288448]},"properties":{"unit_id":"458d536b-1d03-4c48-9ae8-c503ea5cfc1b","address_id":"c2ed4ce7-9a3a-47e2-9fc3-a1b9f8ffcce1"}},{"id":"31034676-f7f6-4eb3-9d79-05fc0721647c","type":"Feature","feature_type":"anchor","geometry":{"type":"Point","coordinates":[30.373045473694546,60.007484342644908]},"properties":{"unit_id":"e2eea13b-54bb-481d-8f72-2a1910dd1ff9","address_id":"c0f82988-8df8-418b-979f-b1d59dce2e5f"}},{"id":"7072d801-4660-4542-aa67-a09fa727e66d","type":"Feature","feature_type":"anchor","geometry":{"type":"Point","coordinates":[30.374511593009174,60.007082731392174]},"properties":{"unit_id":"36c6db07-c55e-437e-931c-9129eda6d186","address_id":"726394a3-f1d2-432b-9bcf-c6675db95cc8"}},{"id":"3c5000c1-e911-4053-9baf-4c3bb8a9fb68","type":"Feature","feature_type":"anchor","geometry":{"type":"Point","coordinates":[30.3744594730313,60.007054745332312]},"properties":{"unit_id":"da71e96a-9216-4ba1-b0a1-88819b1c5e99","address_id":"00f21921-ec00-4901-8084-3183ebb61c9d"}},{"id":"b2e62543-2902-4eac-b8c4-00a24e24b99b","type":"Feature","feature_type":"anchor","geometry":{"type":"Point","coordinates":[30.372266566615338,60.007926612740114]},"properties":{"unit_id":"634f757b-4047-4b25-9c6e-445b1ef64654","address_id":"1c7647d5-a812-4251-bba4-06aebb0c678e"}},{"id":"743fe206-1bfd-4104-a6aa-582d13beec8b","type":"Feature","feature_type":"anchor","geometry":{"type":"Point","coordinates":[30.372360314042083,60.007910795296048]},"properties":{"unit_id":"2f3e67fa-711a-4421-8990-f158337b53fd","address_id":"79fa5488-ca14-467f-9567-87660e4c422c"}},{"id":"86997c65-807e-4623-861f-36b862e23a31","type":"Feature","feature_type":"anchor","geometry":{"type":"Point","coordinates":[30.372172819143753,60.007942430184173]},"properties":{"unit_id":"237c61ed-36fe-4b47-9b79-ff72b84b371b","address_id":"de2efe0f-5fbe-4a90-b40a-1fb7098feb76"}},{"id":"802b3f4c-ee01-41fc-adbb-840fe907b6d5","type":"Feature","feature_type":"anchor","geometry":{"type":"Point","coordinates":[30.372917336733835,60.007480858761809]},"properties":{"unit_id":"4061df3f-74e5-4db4-9f49-689fdb8033a9","address_id":"a1a102cc-355d-4004-a3a4-c3ab3072de02"}},{"id":"5a3cd8f9-c651-4870-8092-6443981f0bb3","type":"Feature","feature_type":"anchor","geometry":{"type":"Point","coordinates":[30.373240266424038,60.007474066095448]},"properties":{"unit_id":"18e0f161-2a09-480d-8d88-70cf2c4a1988","address_id":"58b44a07-2f47-4939-a24b-01d7d7fd14d4"}},{"id":"597175d0-a331-4ebc-9277-d03d7ef9c4ea","type":"Feature","feature_type":"anchor","geometry":{"type":"Point","coordinates":[30.373143181458214,60.007442753138541]},"properties":{"unit_id":"726df09d-5796-4c80-b767-dbfbbfeb1bec","address_id":"c806f84c-1f24-4212-a21b-c346126c3979"}},{"id":"43c9bda5-3e6e-4e08-9b1e-56dbae0a6362","type":"Feature","feature_type":"anchor","geometry":{"type":"Point","coordinates":[30.373277789010341,60.007550739243285]},"properties":{"unit_id":"2f60dee1-92ee-426f-8e12-93bf31495232","address_id":"103a1216-baad-4c2b-9781-9290fafc555a"}},{"id":"7029b5e1-3ed6-44ce-8599-5dbffb000806","type":"Feature","feature_type":"anchor","geometry":{"type":"Point","coordinates":[30.373201511326631,60.007715474164563]},"properties":{"unit_id":"1d1781e6-e20a-44bb-bd01-4f8cbfee15c2","address_id":"34c6e180-279a-42ac-94c6-d076e75501fa"}},{"id":"86a7dc8c-caec-46aa-8f7f-fba441a70168","type":"Feature","feature_type":"anchor","geometry":{"type":"Point","coordinates":[30.373271085057976,60.007590025281019]},"properties":{"unit_id":"70b37515-426a-4060-9397-53d01929c917","address_id":"8ed0a462-0aaf-4a74-936c-afaf4d91416a"}},{"id":"ef9d347f-fa71-4be1-8be7-c29d84501723","type":"Feature","feature_type":"anchor","geometry":{"type":"Point","coordinates":[30.372993990972073,60.007636589214769]},"properties":{"unit_id":"1f7f222b-49d3-4bb4-b518-83faffa41800","address_id":"52427ee3-5ee9-4cc9-87e4-7d7a6a5ee2c3"}},{"id":"4d26bc66-5c7a-4d34-b1dd-8baa1b52372d","type":"Feature","feature_type":"anchor","geometry":{"type":"Point","coordinates":[30.373025746592678,60.007572304518121]},"properties":{"unit_id":"20c1052d-4310-4161-8ca7-074959aab144","address_id":"a9e6fff1-59fe-4b53-9ed3-3aa7e556eb9f"}},{"id":"b4dcd46d-6a48-4f24-9bc8-48adbadaf4de","type":"Feature","feature_type":"anchor","geometry":{"type":"Point","coordinates":[30.374936744657418,60.007403119371183]},"properties":{"unit_id":"eae06273-8f6a-4db7-9be6-9fc23e70dadf","address_id":"53aa4783-f8aa-471c-8bac-b7c81c35f427"}},{"id":"99b7c276-26a9-42e4-8a2f-9bbeb6cbf612","type":"Feature","feature_type":"anchor","geometry":{"type":"Point","coordinates":[30.37496838477913,60.007449984926772]},"properties":{"unit_id":"770ee829-03ed-4c1b-bb21-162a1c6a5984","address_id":"623c08a0-88bb-4bdd-b919-3aa28382f30d"}},{"id":"1bba9b6c-c0f4-4e42-84d6-b7d0951daef1","type":"Feature","feature_type":"anchor","geometry":{"type":"Point","coordinates":[30.374860520575073,60.0072902164738]},"properties":{"unit_id":"f39c9247-c61b-4d0d-9084-8e6c581d39a8","address_id":"25062c60-c57f-49e1-afaa-e194bbef036c"}},{"id":"2e2b0b77-f534-4efb-bd15-2ad886395665","type":"Feature","feature_type":"anchor","geometry":{"type":"Point","coordinates":[30.374905104306045,60.007356254090048]},"properties":{"unit_id":"6df3dbf3-d61b-4d85-9b21-f680cb1142f1","address_id":"e306f9c9-99d2-4e02-8647-f9ed85c11adf"}},{"id":"a2f1471c-8a32-4d9f-9f38-a654721f21e4","type":"Feature","feature_type":"anchor","geometry":{"type":"Point","coordinates":[30.374882812498054,60.007323235144696]},"properties":{"unit_id":"445cd383-171c-451b-b82e-e8216b5c7229","address_id":"9d77a7ff-40b5-44c9-9725-6fe49fc5d5d0"}},{"id":"b140fc95-6c07-4ab3-94d3-4b2679661714","type":"Feature","feature_type":"anchor","geometry":{"type":"Point","coordinates":[30.374838228674342,60.007257197528446]},"properties":{"unit_id":"201e03c4-8772-48f4-86c7-6d031aee352a","address_id":"535b73c9-62d4-4772-bf64-bea8725d32fc"}},{"id":"4de6e399-1d53-4dd6-a227-816b23ccb5cc","type":"Feature","feature_type":"anchor","geometry":{"type":"Point","coordinates":[30.374796880956929,60.007195953201816]},"properties":{"unit_id":"3747e1eb-7665-4d75-9498-b65e450ae4ad","address_id":"968515b0-76ec-46e9-b2b5-35592d99b986"}},{"id":"c6d96b42-2426-4d9b-a179-7197a37765fb","type":"Feature","feature_type":"anchor","geometry":{"type":"Point","coordinates":[30.374651265584795,60.006980265872635]},"properties":{"unit_id":"5f797fc9-838c-4c92-94dd-01cd1ea650ff","address_id":"64fa831e-a3a8-4995-9f01-ee43cf0f7f2d"}},{"id":"ee871ec6-6255-44e3-b053-127a6cd1a2a7","type":"Feature","feature_type":"anchor","geometry":{"type":"Point","coordinates":[30.374752297442047,60.007129915585566]},"properties":{"unit_id":"dac0f5be-489f-46e8-90d9-37b4b9041e9f","address_id":"1138d21d-3a9c-43f9-a51b-b6761c510edd"}},{"id":"425b24c4-5de5-48ab-b30f-30fb27d65c21","type":"Feature","feature_type":"anchor","geometry":{"type":"Point","coordinates":[30.374707713878941,60.007063877969316]},"properties":{"unit_id":"8c574f45-8791-410e-96fa-bdb7548c3469","address_id":"26d19b21-82b4-4910-8b0a-c3083ab488ee"}},{"id":"eff50cef-cffa-42e4-8b76-a5395d7be394","type":"Feature","feature_type":"anchor","geometry":{"type":"Point","coordinates":[30.374613873237095,60.006924879431693]},"properties":{"unit_id":"ab9ed454-210a-4d0b-a9da-72e95c76af15","address_id":"e2bf7990-ffb2-4f9e-bce4-ce4e52137dba"}},{"id":"8cdbe566-5a75-41b1-a68a-0f9c38c415ed","type":"Feature","feature_type":"anchor","geometry":{"type":"Point","coordinates":[30.374591581582614,60.006891860760796]},"properties":{"unit_id":"cff88a58-3ec9-4b7c-b222-078ae41001dd","address_id":"411e8763-c798-4552-b464-4c194c58ad9e"}},{"id":"6f6fb599-84f6-4592-9c0a-bfcde93b9be6","type":"Feature","feature_type":"anchor","geometry":{"type":"Point","coordinates":[30.374569289950387,60.006858841815443]},"properties":{"unit_id":"e12a847e-5c4d-4f08-b871-df91664089b3","address_id":"69baed4a-2923-430f-b615-c079df92e643"}},{"id":"24587ec2-a53a-40cc-a877-a064e4a29cb2","type":"Feature","feature_type":"anchor","geometry":{"type":"Point","coordinates":[30.374546998340413,60.006825823144545]},"properties":{"unit_id":"5d387e99-ecb8-48b4-a350-3a05893d6de4","address_id":"50090780-7edd-4561-9905-47bf685e62e9"}},{"id":"cca3b490-8c07-46e3-b1a4-c7f8975eddb2","type":"Feature","feature_type":"anchor","geometry":{"type":"Point","coordinates":[30.374524706889943,60.006792804199193]},"properties":{"unit_id":"731bbddf-4a98-4041-9868-880f33ef936c","address_id":"7ed50450-a92b-4cb9-80f4-6b50224f5599"}},{"id":"f878c3d3-0108-4778-b43b-4a525e9fbdea","type":"Feature","feature_type":"anchor","geometry":{"type":"Point","coordinates":[30.374301115254291,60.006799089405348]},"properties":{"unit_id":"6364e33f-17a4-46f9-ba40-b7c81a4f3ce5","address_id":"b7665d0a-61e8-4cac-be3d-a99841308592"}},{"id":"d9402cac-f752-4af0-87a5-ce1e4c5e5fdd","type":"Feature","feature_type":"anchor","geometry":{"type":"Point","coordinates":[30.3744594730313,60.007054745332312]},"properties":{"unit_id":"bb326741-71f3-405a-ace7-b78d40fdfe63","address_id":"80425bf1-f44e-4847-8ebb-2e0169ec6b7d"}},{"id":"a93bc42e-1a6a-41ee-a600-39c7ce8c300c","type":"Feature","feature_type":"anchor","geometry":{"type":"Point","coordinates":[30.373912097728535,60.007361849874876]},"properties":{"unit_id":"ab601fd6-06c8-4863-8f37-a85cc908ee44","address_id":"b5a52454-8684-4b5e-b77a-29cfc6b04d3a"}},{"id":"7e24987d-836a-4374-a4cc-45fc4c3a030e","type":"Feature","feature_type":"anchor","geometry":{"type":"Point","coordinates":[30.37448607914466,60.007094154873066]},"properties":{"unit_id":"1e3619c4-2081-46e0-8acd-7abf8ba4523d","address_id":"5a798d59-c2e4-41b1-ac16-685b69b7b3a2"}},{"id":"958619e6-8aaf-42b7-a06b-b6c083999496","type":"Feature","feature_type":"anchor","geometry":{"type":"Point","coordinates":[30.374427488049296,60.007104040878517]},"properties":{"unit_id":"1e7a8608-b120-49a3-95e3-648d52bd3245","address_id":"ad384987-9925-40c9-b97d-8137c3bf7fd5"}},{"id":"955e455c-b476-41f3-89b6-d1f62202386c","type":"Feature","feature_type":"anchor","geometry":{"type":"Point","coordinates":[30.374365700982175,60.007114465906064]},"properties":{"unit_id":"06e7f450-ee0a-4449-826b-49b04e20af3c","address_id":"1c1542d0-e16e-4863-94af-0f090caf06e2"}},{"id":"60ca07fc-a118-445f-ae91-1762678d28e5","type":"Feature","feature_type":"anchor","geometry":{"type":"Point","coordinates":[30.374303913621077,60.007124891208065]},"properties":{"unit_id":"c4e75406-3fad-43b4-a9a9-8558be1224a4","address_id":"ab131621-ab34-4fcb-87c8-5c9e40caa209"}},{"id":"af9a9963-4008-4c31-bffb-aa2d7a97c4da","type":"Feature","feature_type":"anchor","geometry":{"type":"Point","coordinates":[30.374242126515,60.007135316235612]},"properties":{"unit_id":"a4107d5f-a08f-4fe4-856b-9bcf96b6ca88","address_id":"4ac23af3-e1e1-4b90-a0a7-b30c7307e3f8"}},{"id":"6cb3386d-a44a-456b-b14d-8d2ac8988bd1","type":"Feature","feature_type":"anchor","geometry":{"type":"Point","coordinates":[30.374180339389447,60.007145741537613]},"properties":{"unit_id":"968dc100-876a-4b41-9ee1-807ec6601bc4","address_id":"fbd9526d-812d-4a3d-85bc-c9174b1f318f"}},{"id":"68bb8586-5378-4250-bf9a-4aa6b215b361","type":"Feature","feature_type":"anchor","geometry":{"type":"Point","coordinates":[30.374118552244418,60.00715616656516]},"properties":{"unit_id":"900db497-4c26-402d-af8d-f8c59d3f5c0c","address_id":"babddde9-ab85-4a75-914d-d06427848966"}},{"id":"f7475f0a-94a7-40a0-8703-553a5d98b491","type":"Feature","feature_type":"anchor","geometry":{"type":"Point","coordinates":[30.37159591297824,60.007581800802917]},"properties":{"unit_id":"16bf3792-ca14-4d14-ac0b-1a7052486d6e","address_id":"95726d32-965f-44f9-939b-e98f526e0d81"}},{"id":"9125e744-12e0-4770-a964-19eda4687370","type":"Feature","feature_type":"anchor","geometry":{"type":"Point","coordinates":[30.374070187704696,60.007202293572654]},"properties":{"unit_id":"eb9298cd-b2e3-49e7-b54c-94352051fb94","address_id":"8916b3c5-8631-4021-a53f-a54006ae794a"}},{"id":"01f16cb8-dec9-4d69-8ccb-ef8718e05018","type":"Feature","feature_type":"anchor","geometry":{"type":"Point","coordinates":[30.373818777440309,60.0072447132938]},"properties":{"unit_id":"352a3ed5-a5ed-433f-9700-70648ed853cb","address_id":"b5b34ef3-5256-4d6b-b606-962cd7c656db"}},{"id":"e28e6fef-4f94-43fb-a6fe-bd0ab66fa30b","type":"Feature","feature_type":"anchor","geometry":{"type":"Point","coordinates":[30.373946613254784,60.0072231439022]},"properties":{"unit_id":"2fd37241-8f2e-4e68-bade-06dde444c47e","address_id":"bb116b59-3173-4b7d-925e-4fdcd0fded45"}},{"id":"2ee62019-2334-4db4-b83b-f13c34ea3345","type":"Feature","feature_type":"anchor","geometry":{"type":"Point","coordinates":[30.373896331105339,60.007155695058053]},"properties":{"unit_id":"488d261d-f5ee-414c-88b7-774063723d96","address_id":"c7e56459-555b-4f35-8fe0-e55f2ad04b52"}},{"id":"3e006278-97f8-4f5e-b37d-76c6c3e50b1e","type":"Feature","feature_type":"anchor","geometry":{"type":"Point","coordinates":[30.37365621267158,60.007234175741274]},"properties":{"unit_id":"27eff72b-83e2-4cdc-affc-2d96ccf90e68","address_id":"0ea0caf7-da4c-4e1f-8fd0-0be6a0002f2c"}},{"id":"234485ed-ffa2-4f5a-92b6-94e7286fb49d","type":"Feature","feature_type":"anchor","geometry":{"type":"Point","coordinates":[30.373357928612574,60.007284504047227]},"properties":{"unit_id":"82aff48a-e53a-4bc9-90da-26572137a8f9","address_id":"fe081e47-b0ed-42fb-9e97-625350343393"}},{"id":"9f8f65d9-d616-46a7-8b58-4b8adce888c4","type":"Feature","feature_type":"anchor","geometry":{"type":"Point","coordinates":[30.373517723788872,60.00725754223911]},"properties":{"unit_id":"181dd1a8-9e73-45a8-a3d4-6bab744c8c14","address_id":"330d15c4-9415-466c-ad4e-08a7ade1250c"}},{"id":"9d3c88bf-bd4e-4020-8d40-983d69084d4b","type":"Feature","feature_type":"anchor","geometry":{"type":"Point","coordinates":[30.373451675142775,60.007268686603169]},"properties":{"unit_id":"64a6773c-475a-4062-8bad-0904c6b8f507","address_id":"ec39eb2a-1635-4f8e-b9c1-6971b88cf1e6"}},{"id":"7070ac61-fc41-44dc-9319-9f7a05a86ffc","type":"Feature","feature_type":"anchor","geometry":{"type":"Point","coordinates":[30.373251984224535,60.007333227362757]},"properties":{"unit_id":"0ff336a9-8797-4410-872d-daffb66442e5","address_id":"6b241440-5f2a-4fcd-924d-171978cd0dba"}},{"id":"98b4e401-7914-4166-90b8-38d06a5a6a59","type":"Feature","feature_type":"anchor","geometry":{"type":"Point","coordinates":[30.372698026431355,60.007426694177454]},"properties":{"unit_id":"b57843de-6d26-413e-8bc7-2a6aa6a7eec8","address_id":"b9f1da19-8e7f-4680-80fc-87050dd6e977"}},{"id":"a12624c8-07ee-4fb7-b674-05548fbc6768","type":"Feature","feature_type":"anchor","geometry":{"type":"Point","coordinates":[30.372581322524692,60.0074155374631]},"properties":{"unit_id":"80df15e6-d343-48ed-a751-6fe92b29b536","address_id":"9411f441-55ea-4cef-b3be-0504e540caff"}},{"id":"b9b02834-abd0-4a21-a2d2-6bc9cd15c5a0","type":"Feature","feature_type":"anchor","geometry":{"type":"Point","coordinates":[30.372514208234914,60.007426861318216]},"properties":{"unit_id":"205b8996-3e60-4352-9125-809c0d72610b","address_id":"f568fc25-582d-4af0-8553-5ebc163e91e8"}},{"id":"699a7e2c-5217-4804-8dc1-b9c255b93dd1","type":"Feature","feature_type":"anchor","geometry":{"type":"Point","coordinates":[30.372448159525174,60.00743800540782]},"properties":{"unit_id":"be9d4e14-692a-462e-bfe9-44c45d063bb4","address_id":"456a3536-c47b-4072-8990-7f67b21669ef"}},{"id":"1bd94ad3-9158-490f-9f0e-9c5aacd08689","type":"Feature","feature_type":"anchor","geometry":{"type":"Point","coordinates":[30.372316061489922,60.007460293861477]},"properties":{"unit_id":"1d39edd5-02ed-4e94-bfa3-d6b879b5d597","address_id":"e7794628-417a-41e9-82b4-56ed2010ad3d"}},{"id":"ede1273f-044d-40cc-aae5-f2e9ab737b14","type":"Feature","feature_type":"anchor","geometry":{"type":"Point","coordinates":[30.372382110244175,60.007449149771872]},"properties":{"unit_id":"6c69d631-0fba-4c4c-99fd-e3d570dc0fdb","address_id":"550cb2c9-5de4-4c53-85d8-e743e307922c"}},{"id":"207c1e74-e01a-4294-82cd-edccf6551325","type":"Feature","feature_type":"anchor","geometry":{"type":"Point","coordinates":[30.372250012164422,60.007471437951075]},"properties":{"unit_id":"b5e8ff25-e7bf-49c1-93bf-0f4f95d7e0b4","address_id":"80d1adca-299f-4fac-8c49-211959b79487"}},{"id":"7828e178-a4e7-4bcc-9f0f-51632f52c985","type":"Feature","feature_type":"anchor","geometry":{"type":"Point","coordinates":[30.372183963365657,60.00748258204068]},"properties":{"unit_id":"d6831b70-89ba-450f-8564-b710dbdcf89d","address_id":"8f72d824-c7fe-4580-91c6-84da502a7680"}},{"id":"ad127a28-821d-4db8-b178-1e6bcaec4ae2","type":"Feature","feature_type":"anchor","geometry":{"type":"Point","coordinates":[30.371429724231039,60.007609840929668]},"properties":{"unit_id":"da71bd39-2a0c-4923-b0a3-88fe8f8735cd","address_id":"87ffd5b1-921f-4f9f-89ee-474a3f6c5e2d"}},{"id":"ca316d7f-36fa-4eca-a745-e7ea248fee0c","type":"Feature","feature_type":"anchor","geometry":{"type":"Point","coordinates":[30.37151281862225,60.007595820866293]},"properties":{"unit_id":"1a5d6eb8-c7ed-4638-a473-00ab7fd46db2","address_id":"9c570317-1a35-404d-a6f5-ed3697ace206"}},{"id":"842ed770-5f11-494f-b8f8-985b463e5c46","type":"Feature","feature_type":"anchor","geometry":{"type":"Point","coordinates":[30.371661961975153,60.00757065671332]},"properties":{"unit_id":"59b4e132-129d-4514-b9f6-cae8e323126f","address_id":"b0e15b30-a460-40da-83de-5a1ed9c7f2a4"}},{"id":"0d6996ff-51d5-435e-ad3a-0be8347d9e99","type":"Feature","feature_type":"anchor","geometry":{"type":"Point","coordinates":[30.371728011498806,60.007559512623715]},"properties":{"unit_id":"0621dff2-1263-42fd-b4cc-afb3ac144fa8","address_id":"2f610408-8b4e-4bea-a8e7-83616727b092"}},{"id":"3651bed7-0963-4471-870a-1c09d9def3d1","type":"Feature","feature_type":"anchor","geometry":{"type":"Point","coordinates":[30.371794060451212,60.00754836853411]},"properties":{"unit_id":"31c12b89-5588-4090-920d-fb2e1ced7728","address_id":"f82ffaa6-1d30-4e4f-8c7c-d7257a81237d"}},{"id":"e7939bba-3a85-47c6-84f6-cae2fd2ba93a","type":"Feature","feature_type":"anchor","geometry":{"type":"Point","coordinates":[30.372135597238149,60.007528709048181]},"properties":{"unit_id":"868ab90a-ca0d-410a-b3a8-a7b1e8859c19","address_id":"a45e83ba-9e56-4b6e-90f8-3b3530132db7"}},{"id":"df88a37f-7c9b-4bc0-a616-21ea1daee32a","type":"Feature","feature_type":"anchor","geometry":{"type":"Point","coordinates":[30.371884184492409,60.007571128494874]},"properties":{"unit_id":"d7221716-e24f-4ca3-b037-2cbc8e522801","address_id":"1848743d-c722-4ab1-9bbf-fde2791896af"}},{"id":"de97e9e6-542a-4200-8d1f-5d13a3d2377c","type":"Feature","feature_type":"anchor","geometry":{"type":"Point","coordinates":[30.372012021568583,60.007549559377722]},"properties":{"unit_id":"a5e54d86-82dd-4f37-9ea4-1c569a8afab6","address_id":"626d0d24-d3d7-4e86-b287-0d797b41da2b"}},{"id":"bd2b7ba8-f405-4e79-a73d-689ba43b2665","type":"Feature","feature_type":"anchor","geometry":{"type":"Point","coordinates":[30.371961741143735,60.007482110533573]},"properties":{"unit_id":"237459ab-cfd3-430c-98d6-37c9bb337b8b","address_id":"27507dc3-e87f-4fbf-aec7-98383c01f65e"}},{"id":"f66bb9c9-79d0-40a1-93a8-5d6dce318a70","type":"Feature","feature_type":"anchor","geometry":{"type":"Point","coordinates":[30.372207609256726,60.00764944039063]},"properties":{"unit_id":"19d494fa-ef3b-4713-9572-b78aee7134f2","address_id":"7dee4b3d-73d6-452e-b957-bcfef0977342"}},{"id":"6b0f5a2e-c650-47b0-a49e-85d5b191c11b","type":"Feature","feature_type":"anchor","geometry":{"type":"Point","coordinates":[30.371218806242318,60.00731322426396]},"properties":{"unit_id":"97dea655-7b18-4d95-894d-7302e41c5ea0","address_id":"ae9ebbd7-50b0-4999-ba3f-c93f455259ee"}},{"id":"37d07147-7247-403f-8964-153e2b60a424","type":"Feature","feature_type":"anchor","geometry":{"type":"Point","coordinates":[30.3714299504413,60.007974040371685]},"properties":{"unit_id":"ae0c473e-d955-4107-8cb5-331eff909384","address_id":"1603d77d-ba87-436d-aac6-48fe2b28e55c"}},{"id":"5016baa7-6fc8-4155-b701-7b70a4881c35","type":"Feature","feature_type":"anchor","geometry":{"type":"Point","coordinates":[30.371474171779553,60.008039545552677]},"properties":{"unit_id":"476ef567-06e3-4de8-a560-a5bce08a559b","address_id":"d4997e6b-5ceb-46af-97de-90670f2f67d3"}},{"id":"fe001fd3-de39-46e2-8691-09f1ac65f107","type":"Feature","feature_type":"anchor","geometry":{"type":"Point","coordinates":[30.371385729190603,60.0079085357396]},"properties":{"unit_id":"7e7de032-8505-4d1a-9387-bf954902eead","address_id":"42d780bc-6d81-4adb-a7e4-b0a9c51fdffb"}},{"id":"63476573-9cfb-485a-961b-e7e5d30baf49","type":"Feature","feature_type":"anchor","geometry":{"type":"Point","coordinates":[30.371363438953342,60.00787551679425]},"properties":{"unit_id":"255f36f2-6d24-408a-a8ab-aee1430b735d","address_id":"449f4024-d365-4eb5-b659-8ca86f74a22d"}},{"id":"23ee461f-6a83-422c-8e03-56e37109c37d","type":"Feature","feature_type":"anchor","geometry":{"type":"Point","coordinates":[30.371341148738317,60.007842498123352]},"properties":{"unit_id":"c94706e3-1e1c-4951-9d27-3dbb353943a8","address_id":"3988507d-7d5b-4442-a899-af1e6ec387e6"}},{"id":"f4a69809-f340-459f-b48a-5dfe61ccc582","type":"Feature","feature_type":"anchor","geometry":{"type":"Point","coordinates":[30.371030165093792,60.007381832664286]},"properties":{"unit_id":"4a58b71c-517d-46a6-88bf-88db7a03d302","address_id":"0dd81546-659a-4bd1-bee0-d356c37e91cb"}},{"id":"8033dd13-aa6a-4bfc-b2e0-b40fadec9d93","type":"Feature","feature_type":"anchor","geometry":{"type":"Point","coordinates":[30.371052095439289,60.007414318899926]},"properties":{"unit_id":"78c42d94-8c39-42a0-88e2-8cd79245ec0a","address_id":"e0f00637-f847-4f46-b9ff-6a405dcd5650"}},{"id":"d4fa1017-9a0a-47d6-9f7a-70dfaedb9ffc","type":"Feature","feature_type":"anchor","geometry":{"type":"Point","coordinates":[30.371074385640231,60.007447337570824]},"properties":{"unit_id":"c83f845e-d99c-41d1-9d6a-55d45ac84678","address_id":"3bcd1e08-9491-48b1-899f-eeefad9c013b"}},{"id":"d199fb76-9559-416b-927f-62c0a257d86b","type":"Feature","feature_type":"anchor","geometry":{"type":"Point","coordinates":[30.371096675588909,60.007480356516176]},"properties":{"unit_id":"7a318ced-df99-4073-8d33-c100717e828a","address_id":"7b470ba4-15a2-4722-993d-df9afa65df1d"}},{"id":"48723c76-a0b3-4828-997d-83d9dbfb5fec","type":"Feature","feature_type":"anchor","geometry":{"type":"Point","coordinates":[30.371118965834356,60.007513375187074]},"properties":{"unit_id":"a9d5e2f2-4777-4569-bbc3-893687a5004a","address_id":"af653ab6-2c84-4c19-9a7b-a7084c18ac5c"}},{"id":"357eb8c7-f246-4255-a269-31af62177a4e","type":"Feature","feature_type":"anchor","geometry":{"type":"Point","coordinates":[30.371141255827542,60.007546394132426]},"properties":{"unit_id":"568534ca-d56d-488a-b2cc-9a28a37bdb0c","address_id":"95375379-6d68-4acb-99e1-ec7b1d2aacc7"}},{"id":"08bcb4e8-8ddd-47c1-a58d-dfb76fae2516","type":"Feature","feature_type":"anchor","geometry":{"type":"Point","coordinates":[30.371163545842997,60.007579412803324]},"properties":{"unit_id":"7975cfd1-cade-43ec-b061-baf84e533662","address_id":"ba7bd9cc-1ba0-40f6-9fdb-20bce3f952fe"}},{"id":"2e69a0fb-44ca-4769-91f5-5ec24ab6cd76","type":"Feature","feature_type":"anchor","geometry":{"type":"Point","coordinates":[30.371260820068326,60.007607491627681]},"properties":{"unit_id":"0b2205a5-9322-4170-9684-f609acf3f63f","address_id":"b9116bc4-27ad-425b-848f-bf5d7f01132f"}},{"id":"be53a56f-5286-4dbe-a3b8-520a4fcdddcd","type":"Feature","feature_type":"anchor","geometry":{"type":"Point","coordinates":[30.371199085428508,60.007625026587142]},"properties":{"unit_id":"a9a2db98-147c-4010-8a0b-dd88e00e8f90","address_id":"5bf34ebe-53c9-4a4e-999e-dbaf80d6d0dd"}},{"id":"bab5a269-c4f8-4a94-a0a4-661da45159fb","type":"Feature","feature_type":"anchor","geometry":{"type":"Point","coordinates":[30.371306941197293,60.007784795040116]},"properties":{"unit_id":"1b9da87c-c022-48b8-ba0d-bcdb6ef04a05","address_id":"4ce7cc79-6cf3-44e3-8b86-b91714eeb216"}},{"id":"d8cd855f-949f-44b4-a18f-0312d0cf85df","type":"Feature","feature_type":"anchor","geometry":{"type":"Point","coordinates":[30.371322760332419,60.007808227680684]},"properties":{"unit_id":"55fb2638-0317-4b36-83f1-5c3471eea30b","address_id":"5efccaa7-1aa9-4aca-a4b6-2a9bb9cbf6d7"}},{"id":"657e21dd-6017-4a48-ada0-01c915ca0013","type":"Feature","feature_type":"anchor","geometry":{"type":"Point","coordinates":[30.371390913567073,60.007793169094093]},"properties":{"unit_id":"30f5acb4-02c1-456c-b86e-c9b3f11f0648","address_id":"92f60422-be3b-4046-89c7-c3ba9e5586fa"}},{"id":"5e3dae50-0b6a-4354-9611-c49091b283be","type":"Feature","feature_type":"anchor","geometry":{"type":"Point","coordinates":[30.371292110209861,60.007703059914959]},"properties":{"unit_id":"e978890c-dfb8-4d7d-a705-269d4d1c658f","address_id":"55fc72fe-cb06-4a63-acef-f15dbb2fe933"}},{"id":"6931d0d3-b0fd-4c84-b916-ffaae4db0857","type":"Feature","feature_type":"anchor","geometry":{"type":"Point","coordinates":[30.371033426076227,60.007724163837388]},"properties":{"unit_id":"32479ea0-710a-4ffd-82e5-4598e2bdd3c5","address_id":"42477a40-8249-4a64-bda0-9076ed3b28cd"}},{"id":"3fbc6b3e-8d29-452a-9ccd-0ccbf062e46e","type":"Feature","feature_type":"anchor","geometry":{"type":"Point","coordinates":[30.371093405315644,60.007661840643216]},"properties":{"unit_id":"291c7629-4252-453b-9d1f-65fc132a962f","address_id":"87d85ce3-6388-429b-bf5a-af1bf07cb189"}},{"id":"feb8c3d6-e102-496d-9a11-b12f4b87831b","type":"Feature","feature_type":"anchor","geometry":{"type":"Point","coordinates":[30.371185442068427,60.007798176181169]},"properties":{"unit_id":"fc9e1ae9-21f9-4ae6-af15-44f15bf0730d","address_id":"f479faab-56e2-499f-95f9-80f45faf1e96"}},{"id":"7f324d2c-2348-4b9c-8ca5-54afc372e4bb","type":"Feature","feature_type":"anchor","geometry":{"type":"Point","coordinates":[30.372187111040635,60.00780891655311]},"properties":{"unit_id":"af9e64d9-5271-4db2-8690-925f2fd32461","address_id":"0b8bfaca-5798-4252-829f-0ac5d16f6dc2"}},{"id":"dd1b4a51-3ffd-406f-a067-8ecf589184d2","type":"Feature","feature_type":"anchor","geometry":{"type":"Point","coordinates":[30.374139257846672,60.007508495445336]},"properties":{"unit_id":"e0274a61-c9c2-4d41-8db4-443e2f278f31","address_id":"89c81cf1-4797-458b-9d1f-bc0525715c7a"}},{"id":"52322caa-dc8c-457b-8c58-ca2f50c35187","type":"Feature","feature_type":"anchor","geometry":{"type":"Point","coordinates":[30.374093305477572,60.007440428811613]},"properties":{"unit_id":"89e68a12-9f3a-4758-860d-e0f5b20d40f6","address_id":"62355d59-51e4-4514-a70b-f8e0799b1151"}},{"id":"0e792d5d-ca18-4157-8b6e-a6be7e5cc188","type":"Feature","feature_type":"anchor","geometry":{"type":"Point","coordinates":[30.374583611216938,60.0074882110341]},"properties":{"unit_id":"b2dd7060-57fa-40de-bccb-8170495731b1","address_id":"45809576-360c-4fc6-9627-ea91c785c51c"}},{"id":"af6d2359-d5bc-45a3-84a5-7baece2bde69","type":"Feature","feature_type":"anchor","geometry":{"type":"Point","coordinates":[30.374332239446158,60.007502149311023]},"properties":{"unit_id":"c0f02446-1ee5-4b12-8de0-ed6f54ceb1a9","address_id":"1382cabc-a037-464b-84a0-a872383a3e82"}},{"id":"93cec397-b571-4e46-b556-497435fc211d","type":"Feature","feature_type":"anchor","geometry":{"type":"Point","coordinates":[30.374353945508975,60.007538233052543]},"properties":{"unit_id":"1f9ff5bd-c067-4e5e-b4ec-b24495e522e4","address_id":"9f8f130c-066e-48bf-a1fe-1772b7c4ea9f"}},{"id":"1cf0cbdc-d5ca-40d6-9514-fcc70a45f922","type":"Feature","feature_type":"anchor","geometry":{"type":"Point","coordinates":[30.373999132818255,60.007589200555259]},"properties":{"unit_id":"4b02863e-0627-4e18-bd12-20541da6bec6","address_id":"0f909bc0-db2a-4e98-b2e2-2d9c5cf4c176"}},{"id":"f3178ca0-cfad-4bf3-bf8f-bf69e55f3718","type":"Feature","feature_type":"anchor","geometry":{"type":"Point","coordinates":[30.374179595567472,60.007568243464213]},"properties":{"unit_id":"515c7992-b2af-4bfd-a2c1-f2e001313263","address_id":"af3da40a-b69f-485c-8db8-0017b6b1c838"}},{"id":"69289688-f1fc-4c57-9087-948a1a846cdf","type":"Feature","feature_type":"anchor","geometry":{"type":"Point","coordinates":[30.374142202487281,60.007323025189557]},"properties":{"unit_id":"c2329d3b-39de-4e7a-95cb-9cb46630ab43","address_id":"70550f8d-45a4-4f6e-bfa4-da7e45026e8a"}},{"id":"92ece9ca-4528-4777-97a0-41b594f6d824","type":"Feature","feature_type":"anchor","geometry":{"type":"Point","coordinates":[30.371977501677886,60.007688265350396]},"properties":{"unit_id":"08c151ac-8fec-44db-a4ac-c81f0ad833f8","address_id":"9246051e-103a-4e5f-93e8-b3769edfb0da"}},{"id":"b43d49fd-1aec-4953-8152-404eaa1e00e0","type":"Feature","feature_type":"anchor","geometry":{"type":"Point","coordinates":[30.371707754771009,60.008037507478313]},"properties":{"unit_id":"7d974af4-cff6-4e10-b54b-c26cbc68a086","address_id":"7f91653d-410e-4ef2-a1d2-9b980fa94316"}},{"id":"f5f06841-2207-41cb-a440-ef239804a3c6","type":"Feature","feature_type":"anchor","geometry":{"type":"Point","coordinates":[30.372880328842527,60.007239719654834]},"properties":{"unit_id":"d10c3e0b-89d6-4ad1-b4ba-9fa63d52cfb8","address_id":"66bd6234-6d50-4bf4-8159-621aa028d111"}},{"id":"df711a96-ca40-4164-bb84-02425e75ec6a","type":"Feature","feature_type":"anchor","geometry":{"type":"Point","coordinates":[30.372647692259918,60.007352135675852]},"properties":{"unit_id":"2f3eb192-209f-4867-91e4-b00d29d7c40d","address_id":"c6e8b81e-eac3-4cc0-921a-176e94c2e868"}},{"id":"333b3d3e-1e7a-446c-917b-548769cc394c","type":"Feature","feature_type":"anchor","geometry":{"type":"Point","coordinates":[30.373201649499805,60.007258668861148]},"properties":{"unit_id":"da8571b5-5831-41f1-ae1a-3bdbb663545c","address_id":"2ab09012-2bcd-472a-8bc7-4aac8b054a41"}},{"id":"73312f16-9390-400b-b382-8e291f86fdd6","type":"Feature","feature_type":"anchor","geometry":{"type":"Point","coordinates":[30.373201649499805,60.007258668861148]},"properties":{"unit_id":"da8571b5-5831-41f1-ae1a-3bdbb663545c","address_id":"f62021b7-ccc2-4710-93fc-1df898b248e1"}},{"id":"a5cacb59-4f1b-43e0-b0d4-57e5e375e95a","type":"Feature","feature_type":"anchor","geometry":{"type":"Point","coordinates":[30.37171052193451,60.008122464385707]},"properties":{"unit_id":"e1284da5-54c7-47c5-b423-dc9f64efe06a","address_id":"8ca97611-2bd2-4459-aef2-6ed1d8c8c3c3"}},{"id":"a848e435-65f1-4bbd-8197-8fe35195847e","type":"Feature","feature_type":"anchor","geometry":{"type":"Point","coordinates":[30.374916041136522,60.00762907254623]},"properties":{"unit_id":"12ac4e21-e5f5-4a53-893f-a8892962a83a","address_id":"2934caa9-601e-4706-95f3-2757efd60ede"}},{"id":"392da84b-c144-4aa8-a595-7961dc8532dc","type":"Feature","feature_type":"anchor","geometry":{"type":"Point","coordinates":[30.374864106575682,60.007570507411884]},"properties":{"unit_id":"c9d505b5-ea3c-4caa-985e-033230b8f0f5","address_id":"173d7665-a044-41be-906d-3b8c18f195ac"}},{"id":"46aa7335-6609-4ee4-9cab-591594fb693c","type":"Feature","feature_type":"anchor","geometry":{"type":"Point","coordinates":[30.375096539562684,60.007557550572329]},"properties":{"unit_id":"4900222f-d458-4fd3-a66c-73e9114d7536","address_id":"256c3962-011c-4ce9-8371-a78f12c3bf00"}},{"id":"3a70dd10-da8d-4447-950e-e0b54ab01a47","type":"Feature","feature_type":"anchor","geometry":{"type":"Point","coordinates":[30.371514502835709,60.008155537397933]},"properties":{"unit_id":"11685a16-0d4b-44ad-8a70-cd799002ce23","address_id":"3926faa6-95e4-4e0f-bebe-44308d529d71"}},{"id":"ae1e799d-0829-46ae-8409-f6d302383a1f","type":"Feature","feature_type":"anchor","geometry":{"type":"Point","coordinates":[30.370983853093108,60.007259622030048]},"properties":{"unit_id":"f5e8dbe9-ea9b-4a97-be71-41d5df607ad6","address_id":"a19d615f-d4b2-45d8-8d19-134a7b034505"}},{"id":"3cd07ae3-2509-4a09-907c-182dd1f0bd40","type":"Feature","feature_type":"anchor","geometry":{"type":"Point","coordinates":[30.374411931616084,60.006689034762168]},"properties":{"unit_id":"1213799d-7916-452f-9743-6093b9bde2a7","address_id":"390c4cd1-3737-4097-8652-1fffc28123a0"}},{"id":"c09c7db6-1f1d-43b1-845b-6957c78e241e","type":"Feature","feature_type":"anchor","geometry":{"type":"Point","coordinates":[30.373045473694546,60.007484342644908]},"properties":{"unit_id":"71bc8d6e-af87-4a23-85f7-60eac7ce7d75","address_id":"8177eb94-bada-48a3-b264-631e84e8ea50"}},{"id":"1cd0c2c5-cccc-414e-924f-383a84142c5e","type":"Feature","feature_type":"anchor","geometry":{"type":"Point","coordinates":[30.374511593009174,60.007082731392174]},"properties":{"unit_id":"642fa9f9-4df8-40f6-a54d-b3d167693407","address_id":"ac2f87f0-a6b2-4840-9fc4-14c227e977ea"}}]}