{"type":"FeatureCollection","name":"anchor","features":[{"id":"b183fc95-19a9-4cfb-9846-c2f5f4fdb7ae","type":"Feature","feature_type":"anchor","geometry":{"type":"Point","coordinates":[30.374454373578,60.006772993216217]},"properties":{"unit_id":"51756975-65ec-4576-a7d6-3eaa638c6475","address_id":"ed4af030-7afe-48bd-8984-a67ab8d4a438"}},{"id":"a87fe546-e3c2-4388-848f-2315f775f412","type":"Feature","feature_type":"anchor","geometry":{"type":"Point","coordinates":[30.374943353679914,60.00749727643057]},"properties":{"unit_id":"20b954cf-b077-47a4-8334-1ebd2e9f9623","address_id":"4699d15a-53a0-4ec9-8be3-33f3b1e7022b"}},{"id":"aead7bd6-b9a3-447b-b61b-a160fc6dd295","type":"Feature","feature_type":"anchor","geometry":{"type":"Point","coordinates":[30.371542885808225,60.00807102016131]},"properties":{"unit_id":"d0ed0400-b96c-422f-8f0d-6f75b02ee4b9","address_id":"2d29229b-c35f-46fe-88b0-7d778206e594"}},{"id":"9c973ba7-17df-414d-9f01-f3a3d26872c4","type":"Feature","feature_type":"anchor","geometry":{"type":"Point","coordinates":[30.374897571470012,60.007461102394608]},"properties":{"unit_id":"d50df295-a368-4104-b3f3-50b8db322cdb","address_id":"a3ab61e5-8575-4b23-a5a9-68d9c24ed801"}},{"id":"421f1b15-3da2-4538-912c-190a0327cd2f","type":"Feature","feature_type":"anchor","geometry":{"type":"Point","coordinates":[30.371512020104827,60.008032329133712]},"properties":{"unit_id":"5120fc5e-14ab-4ede-a37f-4747886de785","address_id":"dde6ba5a-6b7d-44a5-8653-5a2021ac7d0b"}},{"id":"b0e37e05-c2f7-4881-98aa-a40a65043723","type":"Feature","feature_type":"anchor","geometry":{"type":"Point","coordinates":[30.370968555256333,60.007339787020079]},"properties":{"unit_id":"1c5d4874-bd56-4492-b417-3fa8159cd2d8","address_id":"881fd8f3-5ef4-4111-850c-56e48af1c127"}},{"id":"2f42b83d-3892-487c-b274-70dee278b543","type":"Feature","feature_type":"anchor","geometry":{"type":"Point","coordinates":[30.374485240552104,60.006811683969367]},"properties":{"unit_id":"059ba4ce-883d-4527-a41c-c8bf90575f04","address_id":"333471e4-bf93-468f-b995-d29299953a59"}},{"id":"33a7d1fe-7c8e-4f75-bbf8-46a35054b1e5","type":"Feature","feature_type":"anchor","geometry":{"type":"Point","coordinates":[30.371076282125017,60.007386865275322]},"properties":{"unit_id":"8855d053-7579-46e0-a0df-7d9137e07ccc","address_id":"a5fbd394-abd3-44eb-bf89-19ac24e238f7"}},{"id":"2a51cbca-0e3b-4b84-bdab-aac33f6b3e6c","type":"Feature","feature_type":"anchor","geometry":{"type":"Point","coordinates":[30.37099364612197,60.007271485730612]},"properties":{"unit_id":"93ba8a7f-ba9c-41c3-948a-0a6fa920e715","address_id":"89da2de9-c1e5-4d71-8aa9-59b83b8d0ff5"}},{"id":"6976002a-5f77-4c95-bd19-6465083e0a26","type":"Feature","feature_type":"anchor","geometry":{"type":"Point","coordinates":[30.374411121948409,60.006694866574996]},"properties":{"unit_id":"fd8b7b51-314d-46ba-bda6-9b2c6b93a4a1","address_id":"db6b2437-90d4-486b-894e-01f23de37363"}},{"id":"164f42b1-13e6-4b16-8476-22872d78e43d","type":"Feature","feature_type":"anchor","geometry":{"type":"Point","coordinates":[30.37423545799756,60.007165865669371]},"properties":{"unit_id":"496189d1-56cf-437f-83e2-cf637a18606f","address_id":"ba466ada-e486-475a-8db7-21657a037fea"}},{"id":"102011d6-4edb-49a6-8563-9f499ed13ca5","type":"Feature","feature_type":"anchor","geometry":{"type":"Point","coordinates":[30.3736388909232,60.00726652228127]},"properties":{"unit_id":"a30b383d-7568-4720-b2f5-49a252899708","address_id":"0b63369d-d05f-406d-aa42-baeed7c45713"}},{"id":"c1d2cb7c-44d3-4a97-9ff7-7d342e632082","type":"Feature","feature_type":"anchor","geometry":{"type":"Point","coordinates":[30.372300869823793,60.007492280870444]},"properties":{"unit_id":"7ca415c2-c28a-4f09-aa5a-8dc0ea3db60d","address_id":"704addae-aff0-4f18-ab94-62bb5953832f"}},{"id":"97435d25-425e-4d7d-af4b-e45997cf8ecf","type":"Feature","feature_type":"anchor","geometry":{"type":"Point","coordinates":[30.371704296861445,60.00759293775679]},"properties":{"unit_id":"e9f9bc6c-df7b-4ebb-bf8c-09cf3047edb4","address_id":"58f7f9ed-55a1-4ffd-a846-27df5152a931"}},{"id":"84d5a9a1-df59-4d38-a866-f0f6a6062c7c","type":"Feature","feature_type":"anchor","geometry":{"type":"Point","coordinates":[30.374061297956754,60.00745830409052]},"properties":{"unit_id":"fcccc302-29f3-4878-8828-c5116edf1f73","address_id":"2de6fd7f-d1a3-4227-9679-2404fda441bd"}},{"id":"7276c682-19b7-4c91-9bd7-f883f26ae95e","type":"Feature","feature_type":"anchor","geometry":{"type":"Point","coordinates":[30.372129826245455,60.007822496945714]},"properties":{"unit_id":"0c5b4fa6-481e-4ee3-a97f-bb125e9ebda6","address_id":"04d8394b-7b08-4476-8d88-ff60ea082df9"}},{"id":"57d91e66-99c8-46bc-8edc-48d9cb65dfe8","type":"Feature","feature_type":"anchor","geometry":{"type":"Point","coordinates":[30.374020587797066,60.007339748322465]},"properties":{"unit_id":"09da3871-986a-4544-9334-ec8a307c155f","address_id":"f70968f3-efa0-4f3c-a45c-bfd04d309e56"}},{"id":"c3e44512-285c-4013-808e-593960600116","type":"Feature","feature_type":"anchor","geometry":{"type":"Point","coordinates":[30.372085993202738,60.007666163523538]},"properties":{"unit_id":"57b20d9e-f029-428d-a17e-df3fdb85fdae","address_id":"4827946f-4167-49d7-8c69-685024756ac8"}},{"id":"53fcb782-d92f-4ac9-ad0a-e515374b7081","type":"Feature","feature_type":"anchor","geometry":{"type":"Point","coordinates":[30.372020583365352,60.0076677081347]},"properties":{"unit_id":"15e2319c-bbc1-465b-afb8-fa7e0575c303","address_id":"2a065783-80ac-4b8f-8584-40d8b5685b41"}},{"id":"fd092756-911a-469f-960f-f0562515c432","type":"Feature","feature_type":"anchor","geometry":{"type":"Point","coordinates":[30.37395517846489,60.007341292933631]},"properties":{"unit_id":"749ed0ef-b88a-466f-bc65-32c2623396fe","address_id":"38e5f4eb-e827-4366-a497-30aa4372ea00"}},{"id":"7f4c7ccf-296c-4162-b006-503a6e83d12b","type":"Feature","feature_type":"anchor","geometry":{"type":"Point","coordinates":[30.372653587813438,60.007684295139832]},"properties":{"unit_id":"a987d700-5c9a-439d-8e3f-3e53b3f6994b","address_id":"640f8f2f-2eae-473e-9a91-236c9963a8d8"}},{"id":"6b97c7d4-1e7d-4afd-bc5a-58cb158bbf28","type":"Feature","feature_type":"anchor","geometry":{"type":"Point","coordinates":[30.372782863017484,60.007664856038183]},"properties":{"unit_id":"099b48d5-193c-4ed3-9043-0b4fddb0ba72","address_id":"4407d950-c848-45b5-a812-14ca6e215641"}},{"id":"9943c0ae-663b-49ee-a5c1-b6346fa81c1f","type":"Feature","feature_type":"anchor","geometry":{"type":"Point","coordinates":[30.373426255229187,60.007549180909564]},"properties":{"unit_id":"426ad52f-17cc-4dc5-96de-34f810e65e2a","address_id":"698ca19b-c366-469f-9ccd-a5dbcb955100"}},{"id":"4a25dda5-93e6-4d2b-8f61-b9d5a127afc1","type":"Feature","feature_type":"anchor","geometry":{"type":"Point","coordinates":[30.375003650819863,60.007572527372467]},"properties":{"unit_id":"750584bd-f294-4849-8042-86bc651d8e70","address_id":"6ea25b3a-c4a6-47db-8ab8-783a87f96899"}},{"id":"5035ab78-2c22-49a8-a1f1-16761b06924a","type":"Feature","feature_type":"anchor","geometry":{"type":"Point","coordinates":[30.371586134949844,60.008149146528076]},"properties":{"unit_id":"bcb219ea-fac8-4843-84e5-d9ad607e0d36","address_id":"4e159d34-e075-4b8b-9363-78073e6931e5"}},{"id":"91eec88b-93ab-415a-bf20-150493e26f08","type":"Feature","feature_type":"anchor","geometry":{"type":"Point","coordinates":[30.374506785505602,60.006745166612475]},"properties":{"unit_id":"8dc1f3c6-3479-461a-8037-0a4b2528689a","address_id":"00e97fa2-0025-4e74-87ba-60eb18c95e76"}},{"id":"1335feba-6d62-4552-b427-4e77c9e8efe9","type":"Feature","feature_type":"anchor","geometry":{"type":"Point","coordinates":[30.370837894872292,60.007364205489239]},"properties":{"unit_id":"1b37f925-ead8-4d36-9e89-35a76e3140ef","address_id":"924202b7-f738-4e89-999d-fdb8886ed9f1"}},{"id":"4fcfbc01-023a-42e1-8a39-1253f802ac9f","type":"Feature","feature_type":"anchor","geometry":{"type":"Point","coordinates":[30.371326839881323,60.008088488703585]},"properties":{"unit_id":"e4ec4f16-2a2f-43b3-8551-3294baa489c4","address_id":"e12f5230-e05d-475b-a707-7d369eb9af2a"}},{"id":"df6c2ec6-c591-4001-b824-116f8e0c12f6","type":"Feature","feature_type":"anchor","geometry":{"type":"Point","coordinates":[30.37499576611296,60.007469449826829]},"properties":{"unit_id":"a96cd246-cdeb-4df7-b8f5-f6856ee3b590","address_id":"28c5849a-bc03-46c1-895d-8ac29048fc9a"}},{"id":"251eeed4-e209-491e-bd41-22450266dbd4","type":"Feature","feature_type":"anchor","geometry":{"type":"Point","coordinates":[30.373610659481646,60.0074848462628]},"properties":{"unit_id":"0d20da91-fb8d-4998-bef5-afad2796163c","address_id":"9baa9cee-9515-464a-8ad1-72d3d33701c8"}},{"id":"1695247d-8659-4a73-8eb1-47144736cab7","type":"Feature","feature_type":"anchor","geometry":{"type":"Point","coordinates":[30.372219261552754,60.007705372989392]},"properties":{"unit_id":"35d0cd5a-997c-4373-bc62-1775923bbe4c","address_id":"e4c3f6f2-ce4b-45a7-bd97-1c7bd1d0ba5d"}},{"id":"880341ee-ecca-443f-93eb-7e16a5775633","type":"Feature","feature_type":"anchor","geometry":{"type":"Point","coordinates":[30.372027505831365,60.007737726939567]},"properties":{"unit_id":"48d61c14-d085-4dcd-a728-9877d09636b4","address_id":"1e79d1d8-93c5-4725-b690-8f2a3a9e3b53"}},{"id":"2c5432aa-ba65-4eec-a830-f0280901e101","type":"Feature","feature_type":"anchor","geometry":{"type":"Point","coordinates":[30.3721410655446,60.007803990703579]},"properties":{"unit_id":"7b96e8ab-bf75-47b7-bd1f-7e73bf139fbb","address_id":"1d082166-251e-4c07-b6df-98f47321bd03"}},{"id":"9e6e07c6-6f34-408f-aef7-ee698836b954","type":"Feature","feature_type":"anchor","geometry":{"type":"Point","coordinates":[30.371974478249395,60.007751419857151]},"properties":{"unit_id":"db99461a-2033-4018-b5be-aa389da6b7f5","address_id":"dbd09391-dae4-4753-9831-a143a7d5dbfe"}},{"id":"5a0a415a-7fc0-4b7e-bdd7-f94537e31b16","type":"Feature","feature_type":"anchor","geometry":{"type":"Point","coordinates":[30.372278041624774,60.007700201231614]},"properties":{"unit_id":"94c22d7e-4d2c-46eb-9f4e-c03d7a544ef8","address_id":"18382b38-edc3-4308-b502-bcb0c284313b"}},{"id":"8b5f3e51-645f-423c-9d49-a1624f129767","type":"Feature","feature_type":"anchor","geometry":{"type":"Point","coordinates":[30.372077474820273,60.007858726146353]},"properties":{"unit_id":"2d3b189f-a4b9-41ee-b4ec-e731cf8ccf75","address_id":"633849fd-a8e6-47d1-8240-687fa95c3b49"}},{"id":"ebfc96b2-48ed-4777-a0a1-8e9cf7483a61","type":"Feature","feature_type":"anchor","geometry":{"type":"Point","coordinates":[30.3723261775721,60.0078167639353]},"properties":{"unit_id":"6b4bb7a1-5f4e-4a06-9838-2eb8dcc17132","address_id":"43feb3cb-9eca-4f43-8323-303bd7e75950"}},{"id":"1e45fa93-9b41-49bf-bd15-b6100cea543d","type":"Feature","feature_type":"anchor","geometry":{"type":"Point","coordinates":[30.372980211429109,60.007619693726532]},"properties":{"unit_id":"6cbd97ee-7fda-4c4e-a648-92809748ee8f","address_id":"c9447b0f-ddad-4400-9b1e-dda2c44bf1fb"}},{"id":"62c77183-89ff-4817-9a34-006bd7aad95b","type":"Feature","feature_type":"anchor","geometry":{"type":"Point","coordinates":[30.374020587797066,60.007339748322465]},"properties":{"unit_id":"5be7af87-4974-4a7d-8edb-fb798a6c774f","address_id":"80fd7aea-b6db-4e41-8dce-87983f316f41"}},{"id":"4129a462-dfe3-4dbb-84ab-28bd52b4afa2","type":"Feature","feature_type":"anchor","geometry":{"type":"Point","coordinates":[30.372085993202738,60.007666163523538]},"properties":{"unit_id":"79255c3c-04a6-41c7-b355-2946fa304bcf","address_id":"3ef7aaf8-786b-4a1a-a3f5-5e5800c48763"}},{"id":"d0316646-4c78-4c2b-b161-1bf5ad6363ae","type":"Feature","feature_type":"anchor","geometry":{"type":"Point","coordinates":[30.37213989847108,60.007647576867207]},"properties":{"unit_id":"98f0f3e7-3079-4c4d-bc8e-f25eba62db39","address_id":"916e8c1b-d753-459a-9c73-90a8969c622a"}},{"id":"e2974d46-83f7-468f-99ad-9687b62b4314","type":"Feature","feature_type":"anchor","geometry":{"type":"Point","coordinates":[30.372020583365352,60.0076677081347]},"properties":{"unit_id":"ccb69622-8726-4fbf-bc21-1dff1e94bdeb","address_id":"550c169a-956e-4ada-91df-c57925d341a0"}},{"id":"ecb667c5-d9b2-4abc-b819-ac0e56e71a56","type":"Feature","feature_type":"anchor","geometry":{"type":"Point","coordinates":[30.374074491844031,60.007321161391687]},"properties":{"unit_id":"9460bbb5-915c-4a52-94f5-72e5ff6adc21","address_id":"2cf50fe4-f346-4a2f-887d-7da3d6a3cfdb"}},{"id":"71ef83bd-fd76-4045-b1e1-3781e3cdc674","type":"Feature","feature_type":"anchor","geometry":{"type":"Point","coordinates":[30.37395517846489,60.007341292933631]},"properties":{"unit_id":"f34ed1d0-4463-4f00-95d6-9e16ffeb271e","address_id":"01b311d7-7e15-4f91-83dc-3ff5b179a17f"}},{"id":"8af766c1-8685-4908-9d7b-1752fd7ae55e","type":"Feature","feature_type":"anchor","geometry":{"type":"Point","coordinates":[30.372093183755005,60.007676814698847]},"properties":{"unit_id":"d50a1127-790f-4572-a691-a21bf370425f","address_id":"4ac2352f-a0bd-4fa3-ae7e-653184d7feca"}},{"id":"0df74e9e-b27e-43e3-b30f-1e3c2fff1704","type":"Feature","feature_type":"anchor","geometry":{"type":"Point","coordinates":[30.371217996148221,60.007319056076788]},"properties":{"unit_id":"1dc69fdb-57b7-4e7b-afb6-69800ec016bc","address_id":"700d34ee-316e-4e4c-9e00-24060ad60113"}},{"id":"12303ed2-b79b-4c91-b874-9fa3b036b232","type":"Feature","feature_type":"anchor","geometry":{"type":"Point","coordinates":[30.374582801691865,60.007494042572475]},"properties":{"unit_id":"2782d495-c26c-435e-a72b-d33f8c34f639","address_id":"607c00f4-dceb-4daf-bcf7-29826e9d2743"}},{"id":"65fb0e89-fed9-4e1b-8bee-c8bc948bd13e","type":"Feature","feature_type":"anchor","geometry":{"type":"Point","coordinates":[30.374347742992384,60.007536076140831]},"properties":{"unit_id":"09934854-d979-4eb4-b7c4-0aed845add3d","address_id":"0d42ab2a-d301-47fd-a9a7-df3ff61ea2eb"}},{"id":"67e2e32d-0af6-4d01-9086-3082582053e4","type":"Feature","feature_type":"anchor","geometry":{"type":"Point","coordinates":[30.373998323514915,60.00759503209364]},"properties":{"unit_id":"9ea4dceb-c282-4c7d-854c-0f9c8cda7273","address_id":"17e0ba41-c6c3-4980-961c-b3f9e8511feb"}},{"id":"90f9bb34-3e45-42c0-b007-082375a3e06f","type":"Feature","feature_type":"anchor","geometry":{"type":"Point","coordinates":[30.3741787857313,60.007574075277041]},"properties":{"unit_id":"305a734a-696a-431b-b6f5-95e647baaf3f","address_id":"c051b6c9-3b16-443d-b139-cb6db24b54a2"}},{"id":"08e5edc2-42a8-4891-b583-b63cdc443162","type":"Feature","feature_type":"anchor","geometry":{"type":"Point","coordinates":[30.372653587813438,60.007684295139832]},"properties":{"unit_id":"1daa6250-a578-4c84-80dc-f33f7a9ce6bd","address_id":"42978b7f-407f-4d1d-8445-885f400d40d6"}},{"id":"dde2f3a7-0440-411d-bdcf-572169f54fe5","type":"Feature","feature_type":"anchor","geometry":{"type":"Point","coordinates":[30.371419966512388,60.00760769115368]},"properties":{"unit_id":"b2db4a66-93ba-44eb-917e-39a3232e557f","address_id":"a39d45f3-1acb-49bb-bcaa-14bc3612eefd"}},{"id":"ed159716-c6be-4648-85a7-23f0088b5572","type":"Feature","feature_type":"anchor","geometry":{"type":"Point","coordinates":[30.37447951708052,60.007091465526088]},"properties":{"unit_id":"6867198e-0d22-400e-8dcf-73813de0bb1b","address_id":"7826d1a3-dffa-4d96-bb59-b457dc288359"}},{"id":"ab75724d-7ddb-4326-9584-2dbe97fdbe74","type":"Feature","feature_type":"anchor","geometry":{"type":"Point","coordinates":[30.37170694498564,60.008043339565596]},"properties":{"unit_id":"f91ae64e-4e95-4150-8b81-867fbd025590","address_id":"d9bbe67f-742d-4421-b15e-9e0922f9d86f"}},{"id":"8d486f0d-7677-447a-94e3-c5dadfec7ba6","type":"Feature","feature_type":"anchor","geometry":{"type":"Point","coordinates":[30.372782863017484,60.007664856038183]},"properties":{"unit_id":"62cb275d-4d48-42f1-826c-3c9fadc5a23d","address_id":"f539e4e1-9653-4c42-aa77-8a2fb9e3e9e1"}},{"id":"f0af91b8-5849-47ea-99fe-d8d55af2518f","type":"Feature","feature_type":"anchor","geometry":{"type":"Point","coordinates":[30.373426255229187,60.007549180909564]},"properties":{"unit_id":"af33ad0b-78d9-4887-a22b-38b69e682cff","address_id":"ecec9480-e84a-4823-a363-4047e8c9847f"}},{"id":"a6bf7afc-6309-4009-861e-ef21c5ade39c","type":"Feature","feature_type":"anchor","geometry":{"type":"Point","coordinates":[30.371709711873844,60.008128296472982]},"properties":{"unit_id":"a62b7fbe-5f04-403b-b704-2c9a2f03853f","address_id":"e68b315b-1220-4083-aed0-6ade8ce672d2"}},{"id":"953140d1-f334-4bdf-aaad-497f1282ffcd","type":"Feature","feature_type":"anchor","geometry":{"type":"Point","coordinates":[30.374873684025964,60.007594456020641]},"properties":{"unit_id":"1d938548-a67c-42d0-af5a-eac720b2257c","address_id":"833eebe8-fcb5-48ca-bed8-47e1fb93e009"}},{"id":"77b47533-6ea0-4af7-bd35-cec7f9b93993","type":"Feature","feature_type":"anchor","geometry":{"type":"Point","coordinates":[30.375069699507875,60.007561383282862]},"properties":{"unit_id":"0b44ed20-7370-4e94-9b79-e45720aff19c","address_id":"5cef56c4-ba9a-4c36-bb68-387754812bee"}},{"id":"68c7082c-9609-40f9-9710-11ad5c3a9f01","type":"Feature","feature_type":"anchor","geometry":{"type":"Point","coordinates":[30.371513693306355,60.008161369485215]},"properties":{"unit_id":"e2ba52a0-12c1-4dd7-8900-0c2b4ba36323","address_id":"2e14f57e-e5a0-467a-a312-d4fcdee003e0"}},{"id":"69658104-e656-479c-968b-32dda394568b","type":"Feature","feature_type":"anchor","geometry":{"type":"Point","coordinates":[30.374506785505602,60.006745166612475]},"properties":{"unit_id":"e145d13c-99b1-40c8-94b0-2871cb6a30d0","address_id":"961deff3-e2c1-424a-ade0-32278d939f86"}},{"id":"b42200b9-86ba-4abe-9dae-f06ad658e3ce","type":"Feature","feature_type":"anchor","geometry":{"type":"Point","coordinates":[30.370837894872292,60.007364205489239]},"properties":{"unit_id":"d68abf0c-7f39-4663-b73d-33c8a7225e99","address_id":"f659c0d6-2f51-4f01-a083-ca0855e9c0fe"}},{"id":"ad2810ab-cb3e-4e8a-8a11-4b3a76bf8000","type":"Feature","feature_type":"anchor","geometry":{"type":"Point","coordinates":[30.371326839881323,60.008088488703585]},"properties":{"unit_id":"31a3e483-7b5b-410f-9827-521e0c2ef55e","address_id":"521fbc69-205a-477b-82ec-b0974928a647"}},{"id":"7b098637-27a7-4bfd-af77-f3383cd24b77","type":"Feature","feature_type":"anchor","geometry":{"type":"Point","coordinates":[30.37499576611296,60.007469449826829]},"properties":{"unit_id":"6e019d44-01f6-4ce8-ab31-4449de5361e0","address_id":"d6e2d0d8-16ea-4c7c-bf61-c95be3309d6c"}},{"id":"fec37db2-5938-405e-8797-34470194d63b","type":"Feature","feature_type":"anchor","geometry":{"type":"Point","coordinates":[30.373044664171154,60.007490174457743]},"properties":{"unit_id":"20d572e7-120c-4667-850d-7d81264710dc","address_id":"6572da9e-841a-4f4b-b385-4d4fe7f5a4a1"}},{"id":"d39563cb-7a8f-4f17-9b63-24620e68867f","type":"Feature","feature_type":"anchor","geometry":{"type":"Point","coordinates":[30.373610659481646,60.0074848462628]},"properties":{"unit_id":"de8fc23d-6c39-428e-86c9-6c5cd4694ae8","address_id":"0d3ca89d-efe2-44eb-ac66-1d2d4aace3a3"}},{"id":"c090df9b-cdf3-4fd1-874a-5269f81cc8a1","type":"Feature","feature_type":"anchor","geometry":{"type":"Point","coordinates":[30.374510783345468,60.007088562930555]},"properties":{"unit_id":"a2df4cb5-4293-40a0-8030-4f46c9acb26f","address_id":"3cfff80d-7487-41b0-b17f-18205de11f26"}},{"id":"c8dc1a74-2c1f-49b0-a429-e84b68ca590a","type":"Feature","feature_type":"anchor","geometry":{"type":"Point","coordinates":[30.374027778625372,60.007350399497774]},"properties":{"unit_id":"768114bd-9f1d-4c15-8fea-aebd7663443f","address_id":"15ae4b5f-fdd1-4cc8-9931-95f5a6c3111d"}},{"id":"5bb977d5-6561-42eb-8f25-5cfb1751604c","type":"Feature","feature_type":"anchor","geometry":{"type":"Point","coordinates":[30.374138448282171,60.007514327258171]},"properties":{"unit_id":"40dbc465-9eea-4310-8b4a-81f392a822a6","address_id":"0f2a8a91-d964-4bed-b247-dfc172cd04ae"}},{"id":"4c685d53-9e97-43e2-b993-3deefb9a2f96","type":"Feature","feature_type":"anchor","geometry":{"type":"Point","coordinates":[30.374092495909853,60.007446260624448]},"properties":{"unit_id":"a3a830bb-dd79-4065-90ae-073b071f1fb5","address_id":"50c4ec97-884c-400d-89dc-c83c136ccc30"}},{"id":"2939a27f-24aa-4b23-b41b-4311f99c3936","type":"Feature","feature_type":"anchor","geometry":{"type":"Point","coordinates":[30.374582801691865,60.007494042572475]},"properties":{"unit_id":"ede074c4-7c13-46e6-8f4f-e84799098272","address_id":"81d1d7ae-f4ab-4969-a0d0-ee7dd2edce6a"}},{"id":"5e952fbc-5f72-4c04-9d43-82c7689a4694","type":"Feature","feature_type":"anchor","geometry":{"type":"Point","coordinates":[30.374331429898756,60.00750798057495]},"properties":{"unit_id":"5bcf8f90-f9f8-48f2-8877-cc7e9cdc9175","address_id":"8beffdb6-66ce-46ce-8f23-483cd242f719"}},{"id":"1c2afb93-ea9e-404a-a059-f37aa35d1005","type":"Feature","feature_type":"anchor","geometry":{"type":"Point","coordinates":[30.374353136237541,60.007544064590924]},"properties":{"unit_id":"a454fa3d-d09b-40ca-8948-8acddb3fa996","address_id":"f41b98fb-9ecd-4050-9d9a-00c24b8b7547"}},{"id":"d00f9eca-6975-4617-ab65-de924dedb8a5","type":"Feature","feature_type":"anchor","geometry":{"type":"Point","coordinates":[30.373998323514915,60.00759503209364]},"properties":{"unit_id":"33526bef-9c9c-453d-957a-36d0cec1399a","address_id":"d7e551cf-1fe0-4b5b-93d9-ad9f47b49f76"}},{"id":"152a1760-df4a-4ca5-b5e5-1cad4d4dffcd","type":"Feature","feature_type":"anchor","geometry":{"type":"Point","coordinates":[30.3741787857313,60.007574075277041]},"properties":{"unit_id":"5246728f-aeef-4e03-8c65-665e6780406b","address_id":"a843e2ed-7532-4739-9388-a6bbc6ecd786"}},{"id":"583adbab-8b59-41dc-b687-bdc2de887f47","type":"Feature","feature_type":"anchor","geometry":{"type":"Point","coordinates":[30.372662110194131,60.00768285729017]},"properties":{"unit_id":"a71ea206-057c-497d-afad-3da7911a2881","address_id":"ecc2aeeb-d299-45c4-b35e-6b7ca920a5c2"}},{"id":"6cece6e4-0b47-47e3-b8d9-f515beadde4c","type":"Feature","feature_type":"anchor","geometry":{"type":"Point","coordinates":[30.371419966512388,60.00760769115368]},"properties":{"unit_id":"bafa49f5-79e6-45bb-8ad9-1158c53d2caf","address_id":"4223376a-e2c3-4bf9-8234-527976844599"}},{"id":"e6e955c8-48dd-4813-a5c3-765eca80e1c8","type":"Feature","feature_type":"anchor","geometry":{"type":"Point","coordinates":[30.37447951708052,60.007091465526088]},"properties":{"unit_id":"d7051b26-d346-49e0-9b46-4dac29e6aac6","address_id":"32ffd769-08ac-4370-bb44-4b6e45f3b4a5"}},{"id":"8de95f85-cb62-42f5-b4e1-200c37308ae6","type":"Feature","feature_type":"anchor","geometry":{"type":"Point","coordinates":[30.374141392788069,60.007328856727938]},"properties":{"unit_id":"fc0dd8fb-e71d-4de0-bc74-918b3ad1d7a9","address_id":"a06640d2-9be2-4f16-b7c6-8b9d8786dfe9"}},{"id":"437d6265-d021-427d-baf3-2b7e116b4e5b","type":"Feature","feature_type":"anchor","geometry":{"type":"Point","coordinates":[30.3719766921951,60.007694096888777]},"properties":{"unit_id":"aeefbea6-612a-4b42-bd7c-1e3094938ec3","address_id":"8c612c0b-c90f-491b-944f-1aa4e629d837"}},{"id":"5a8d2c4c-1f6f-48aa-afe0-6a1fab95fb13","type":"Feature","feature_type":"anchor","geometry":{"type":"Point","coordinates":[30.37170694498564,60.008043339565596]},"properties":{"unit_id":"04f442f1-fd97-45a1-85e1-5110a3b0a018","address_id":"0efcc943-e51f-42ad-a63a-07ac3ddccf08"}},{"id":"c0b66b59-ca33-482d-9ba5-f15e50998591","type":"Feature","feature_type":"anchor","geometry":{"type":"Point","coordinates":[30.372782863017484,60.007664856038183]},"properties":{"unit_id":"23c501c1-5923-40c9-b583-42747524b234","address_id":"a704de01-ad39-4d65-b7f3-644e76d7fe3e"}},{"id":"d384bbe7-2d6d-4d84-b08b-b099ae4b906f","type":"Feature","feature_type":"anchor","geometry":{"type":"Point","coordinates":[30.372879519307578,60.007245551193215]},"properties":{"unit_id":"b5c4882f-9a40-4856-977f-dc7e45d4a300","address_id":"1192337d-5f89-40d9-83c4-6c1ba14f9a11"}},{"id":"93acc6fe-6b14-43f0-934d-3f78b6c1747b","type":"Feature","feature_type":"anchor","geometry":{"type":"Point","coordinates":[30.373426255229187,60.007549180909564]},"properties":{"unit_id":"8826cdef-7240-45c5-a616-f6f8294070be","address_id":"1bc47f8e-8916-4684-8322-4511feaef341"}},{"id":"9ad53f3e-7b88-4641-9823-7a8826d4b308","type":"Feature","feature_type":"anchor","geometry":{"type":"Point","coordinates":[30.372656949474095,60.007372878969441]},"properties":{"unit_id":"c3e415c1-f4ea-4055-84a7-514bfa409ea0","address_id":"8b6bd1ae-0b32-4e0a-a1f9-e846cd32a6c4"}},{"id":"b6f6f4a2-61d9-4851-b2df-dc168e976787","type":"Feature","feature_type":"anchor","geometry":{"type":"Point","coordinates":[30.373210906737373,60.007279412154737]},"properties":{"unit_id":"fccffd5e-5716-46c7-b2af-78e3a817872d","address_id":"0c5d90ad-6949-4b3c-bc34-ae569ca3efc2"}},{"id":"da073d70-732b-4a6e-8439-9d71bd28b13d","type":"Feature","feature_type":"anchor","geometry":{"type":"Point","coordinates":[30.373210906737373,60.007279412154737]},"properties":{"unit_id":"fccffd5e-5716-46c7-b2af-78e3a817872d","address_id":"8a1d820a-95d1-4475-a6e5-78cefa1b6cab"}},{"id":"4a23ebbe-c770-455e-a6eb-da7b066d3745","type":"Feature","feature_type":"anchor","geometry":{"type":"Point","coordinates":[30.371709711873844,60.008128296472982]},"properties":{"unit_id":"43f92b95-fcfd-4662-ae23-163105aa2763","address_id":"ef4d879e-1bd8-495b-b13f-99b372f7e040"}},{"id":"d6a63ef8-096d-4bd5-95aa-efe53773d562","type":"Feature","feature_type":"anchor","geometry":{"type":"Point","coordinates":[30.374915231639033,60.007634904084611]},"properties":{"unit_id":"2833bc76-9985-4e84-831f-78cf70048d0e","address_id":"236e92ed-ffb7-4523-ab5a-cddcb28c31d3"}},{"id":"91c2e09a-2bd6-4c69-8c6a-c93de8ba87e5","type":"Feature","feature_type":"anchor","geometry":{"type":"Point","coordinates":[30.374863297348828,60.007576338675811]},"properties":{"unit_id":"b3281630-04a5-406c-b27f-833e1c54e8b3","address_id":"5356b64a-59b6-442a-9b69-b2cceaf06ad8"}},{"id":"1e48ffe0-1710-45e9-8ce2-664f9061f9f6","type":"Feature","feature_type":"anchor","geometry":{"type":"Point","coordinates":[30.375095730081984,60.00756338211071]},"properties":{"unit_id":"ebb78705-9949-495b-9817-3c691fd55230","address_id":"5838a066-c829-4260-8dc9-92259c7e3bf7"}},{"id":"8bd0b157-af64-4091-adcf-ad7d707131ab","type":"Feature","feature_type":"anchor","geometry":{"type":"Point","coordinates":[30.371513693306355,60.008161369485215]},"properties":{"unit_id":"4d4f5e82-9e41-40cf-8666-484801dfa61c","address_id":"7cf0e5f2-1b09-4f95-9ff8-3524b7b92e32"}},{"id":"4d1be112-d5d7-4275-96c1-bc59711457a0","type":"Feature","feature_type":"anchor","geometry":{"type":"Point","coordinates":[30.370983043802443,60.007265453842876]},"properties":{"unit_id":"32d9da70-98a9-410d-a1ff-39dedc411cc3","address_id":"5b27b344-b972-47b4-97c9-e982f6acc1e3"}},{"id":"428627f6-064d-411e-b207-7ae72348736d","type":"Feature","feature_type":"anchor","geometry":{"type":"Point","coordinates":[30.374376979347137,60.006693508590629]},"properties":{"unit_id":"50fd25d0-d90e-4b2b-89ce-6f86342679b3","address_id":"382d0631-5c2b-4f8e-8886-7455c0382f2b"}},{"id":"5a91ef00-6405-4180-b10b-f798646eb992","type":"Feature","feature_type":"anchor","geometry":{"type":"Point","coordinates":[30.374506785505602,60.006745166612475]},"properties":{"unit_id":"25186fe9-2ef9-4eda-afb8-da45dfcd6608","address_id":"e6244e1a-a31b-43c0-87c0-82baa0a4492a"}},{"id":"b65aaa5f-8aa2-4e7c-9c91-d686d010ea1d","type":"Feature","feature_type":"anchor","geometry":{"type":"Point","coordinates":[30.370837894872292,60.007364205489239]},"properties":{"unit_id":"753db2e1-739b-4b72-9138-c3f2b462c87a","address_id":"1d4fc0f8-f928-408d-8e65-68fe51e21c0f"}},{"id":"1499ce36-e35d-404d-be42-ad07732016cc","type":"Feature","feature_type":"anchor","geometry":{"type":"Point","coordinates":[30.371326839881323,60.008088488703585]},"properties":{"unit_id":"53cc60c7-4a4b-47ac-b0e4-af0ceafe3318","address_id":"baf87050-b15f-4277-b1ef-f60cf3671396"}},{"id":"cc5a0df3-08fe-40da-b503-f7bc5215d210","type":"Feature","feature_type":"anchor","geometry":{"type":"Point","coordinates":[30.37499576611296,60.007469449826829]},"properties":{"unit_id":"89ae9caa-1720-4c3a-bf79-361ee3f4442e","address_id":"a7968cec-aa17-4c19-bc9b-6c390a796a47"}},{"id":"354bf477-00a8-4586-89d8-560f31f2ea02","type":"Feature","feature_type":"anchor","geometry":{"type":"Point","coordinates":[30.373044664171154,60.007490174457743]},"properties":{"unit_id":"506dd04e-359f-44b4-a012-66719e90b8bd","address_id":"652fccbb-ef5f-4e0d-9aad-56b42eeb1949"}},{"id":"8aa8855e-3404-4ff3-8b45-7242ef2045cb","type":"Feature","feature_type":"anchor","geometry":{"type":"Point","coordinates":[30.372093183755005,60.007676814698847]},"properties":{"unit_id":"b6c3abee-154c-45d2-958d-8b760a4610f6","address_id":"e61e43cb-8562-47f5-9db7-8769ec2debe1"}},{"id":"29fd9db2-89ea-4c31-b585-b14b7c3e476b","type":"Feature","feature_type":"anchor","geometry":{"type":"Point","coordinates":[30.374027778625372,60.007350399497774]},"properties":{"unit_id":"00bf1c29-59f0-47db-b648-da6b2404caba","address_id":"c57ac6c0-d86d-48d3-bba0-766b33c52e59"}},{"id":"4a22791b-d307-4017-a641-d581210bed6a","type":"Feature","feature_type":"anchor","geometry":{"type":"Point","coordinates":[30.373573959840979,60.007521886192187]},"properties":{"unit_id":"1abdd887-172e-43b1-8d0f-2cc2ca89a8f6","address_id":"57bd56ba-c78d-40a6-9706-d4958687dd54"}},{"id":"29d4ee59-76bd-4519-8bb4-e173fa1034dc","type":"Feature","feature_type":"anchor","geometry":{"type":"Point","coordinates":[30.374510783345468,60.007088562930555]},"properties":{"unit_id":"f8fa1927-b39d-4c7d-9a2f-9a444d28a29c","address_id":"edd00c97-502c-4f9f-b031-24f10e021d71"}}]}