{"type":"FeatureCollection","name":"anchor","features":[{"id":"e4405d87-5572-4aed-b0ec-8f53ec7ef22a","type":"Feature","feature_type":"anchor","geometry":{"type":"Point","coordinates":[30.374986286605569,60.007466261083742]},"properties":{"unit_id":"6df15e1c-ef6b-4efb-a27e-1643299402b6","address_id":"df4884a9-6a08-405b-91c4-47c8fc4cf72c"}},{"id":"cfa3abd9-f01e-423e-98d3-a419f9f1b2d6","type":"Feature","feature_type":"anchor","geometry":{"type":"Point","coordinates":[30.371580420026802,60.0080488108546]},"properties":{"unit_id":"17ec17f9-5969-4457-a370-4ee7e1165a4a","address_id":"e4d1d5ed-2e73-4e45-bf56-3ee31fdeafe0"}},{"id":"c77358a8-0e70-44be-900a-5bc6531cc2a8","type":"Feature","feature_type":"anchor","geometry":{"type":"Point","coordinates":[30.371452762950394,60.00807064564048]},"properties":{"unit_id":"d32eebe5-c1f3-468c-90f6-896c61a5a6eb","address_id":"e52a89f4-f483-4254-b6ad-0ee912bef4d0"}},{"id":"1560bd1e-4d83-43e2-9114-2348c15b7363","type":"Feature","feature_type":"anchor","geometry":{"type":"Point","coordinates":[30.371708077293427,60.008026976068727]},"properties":{"unit_id":"38088c21-5e03-4574-9558-1451ad5318f4","address_id":"975ea966-d220-4464-b878-50144c84d069"}},{"id":"a47f7a6e-1cd7-4700-8012-a54172d0cc72","type":"Feature","feature_type":"anchor","geometry":{"type":"Point","coordinates":[30.371554216126263,60.008010520525708]},"properties":{"unit_id":"eb6d4e89-6628-48f4-b1f8-714d80e5a149","address_id":"552ae0a5-26dc-48db-91d5-29575595f926"}},{"id":"63eb4970-a0b8-43a8-80ce-0af4e33e0f59","type":"Feature","feature_type":"anchor","geometry":{"type":"Point","coordinates":[30.371632827095404,60.0081253915124]},"properties":{"unit_id":"a7c194cf-4bb9-4281-b0b0-e6911434da01","address_id":"443cdea7-2544-4971-b1dc-1d66bd682ea5"}},{"id":"89e6d96d-27b9-48ce-b442-4284d3c110e0","type":"Feature","feature_type":"anchor","geometry":{"type":"Point","coordinates":[30.375112239716913,60.007444718313906]},"properties":{"unit_id":"b08fbac2-51bb-4b65-ad91-3251fbb5fe36","address_id":"6263bc39-78dd-4ba9-a1e8-f9948b661ed0"}},{"id":"9e120ab0-a270-4853-8041-dc7990820919","type":"Feature","feature_type":"anchor","geometry":{"type":"Point","coordinates":[30.374856929628628,60.00748838706231]},"properties":{"unit_id":"441b8a39-af98-420f-b613-a5678b6cd1b0","address_id":"850d5ce4-3948-4feb-8b6d-c7b65a1b70f0"}},{"id":"c81c1bcc-d79a-45c4-b94e-6574ee3dc87b","type":"Feature","feature_type":"anchor","geometry":{"type":"Point","coordinates":[30.37495837936607,60.007428262221978]},"properties":{"unit_id":"860503d4-438a-49d2-9cc9-6ee488f580ab","address_id":"bcffc74f-c352-433d-9b21-ffd0f4436f66"}},{"id":"3b830618-a599-41ca-affb-62f8ff42143a","type":"Feature","feature_type":"anchor","geometry":{"type":"Point","coordinates":[30.375036995829564,60.007543133757579]},"properties":{"unit_id":"30b4a2cd-b7c4-47a1-8e17-288892a5e853","address_id":"bc8b0b7d-eed9-42b4-bc64-b80555b81aba"}},{"id":"9fbafd47-c136-4caa-9307-6ef8438de63d","type":"Feature","feature_type":"anchor","geometry":{"type":"Point","coordinates":[30.371087168926447,60.007325259052607]},"properties":{"unit_id":"1685904d-514d-45d2-bebf-f5ca253c97a4","address_id":"82b48f62-12b1-4b57-974c-9ee603063df7"}},{"id":"5ea54d8e-4948-4fb0-be69-33673ec404d6","type":"Feature","feature_type":"anchor","geometry":{"type":"Point","coordinates":[30.371213123073577,60.007303715184968]},"properties":{"unit_id":"40f2c612-3845-43c2-ac0e-75c112e61478","address_id":"b8f9a408-0ee2-41a5-866c-0311c6963887"}},{"id":"6763fe11-ebf5-4622-8682-72797e977564","type":"Feature","feature_type":"anchor","geometry":{"type":"Point","coordinates":[30.374489598467587,60.006743291667121]},"properties":{"unit_id":"eb998574-5ae8-4111-acd9-1465dcd05f6a","address_id":"81b04d96-4b36-4a97-8d3d-d4fd2e2546f5"}},{"id":"22ebfa43-d745-4599-a91d-66414e5b25c0","type":"Feature","feature_type":"anchor","geometry":{"type":"Point","coordinates":[30.374361944322082,60.00676512617855]},"properties":{"unit_id":"7b67f50c-484e-4594-a27c-de216ed95ae9","address_id":"e888f67e-9259-477d-a4ab-48e177377e8e"}},{"id":"d667b742-8350-4a04-9d8e-e0cedd196170","type":"Feature","feature_type":"anchor","geometry":{"type":"Point","coordinates":[30.372063789065667,60.007560460134151]},"properties":{"unit_id":"a348ef9a-1e5c-463c-aa0d-ba0258ba99aa","address_id":"697f03db-8ba6-4ade-8374-990142cffe01"}},{"id":"07af2b1a-f648-4c18-83c0-aea6a0908e14","type":"Feature","feature_type":"anchor","geometry":{"type":"Point","coordinates":[30.374006776888489,60.007232407008523]},"properties":{"unit_id":"14437b6a-1bf3-40f0-8973-3308a48fe26a","address_id":"ebedc167-315c-4603-8b95-121d32852db3"}},{"id":"0bb112ac-6659-4745-b1c1-1039ad5d8fb2","type":"Feature","feature_type":"anchor","geometry":{"type":"Point","coordinates":[30.374515803428096,60.006781581996023]},"properties":{"unit_id":"e0db0d37-787c-4b5e-b763-1fcc24700113","address_id":"8d82c7b6-84e1-41f1-8d17-04198d6c65e2"}},{"id":"1194a966-e515-48cb-8c22-2a3740e3deae","type":"Feature","feature_type":"anchor","geometry":{"type":"Point","coordinates":[30.374617252254328,60.006721456881245]},"properties":{"unit_id":"8a5c5a97-30aa-4158-8a6f-2c4dff351802","address_id":"43478e06-d72d-4cc9-9ea9-483a88679179"}},{"id":"6506c32a-9c2b-43a9-977b-d9591ca43f7d","type":"Feature","feature_type":"anchor","geometry":{"type":"Point","coordinates":[30.374428453860705,60.006653947657838]},"properties":{"unit_id":"ea97c95d-ff74-4357-9865-93d96b41ab10","address_id":"14bc54d4-29cc-4063-b6cb-c79c94f2d893"}},{"id":"8562f9f7-77a3-4fd8-a432-dbe098b1c49c","type":"Feature","feature_type":"anchor","geometry":{"type":"Point","coordinates":[30.371111670397251,60.0073638405742]},"properties":{"unit_id":"5bca3caf-1df0-41b5-aa57-dcfbc1bf89f8","address_id":"b7791abd-ebdb-40e0-ab97-49bf7d7fc999"}},{"id":"33503d93-1b44-4434-8092-fad295fd844d","type":"Feature","feature_type":"anchor","geometry":{"type":"Point","coordinates":[30.370957811195474,60.007347385031174]},"properties":{"unit_id":"818e31b4-7700-4456-a2b6-645b764b83f3","address_id":"99fbf7ed-6e04-49a2-bf48-675325e8ce89"}},{"id":"a8b66e1e-3c0d-4126-9c79-05c70d83b17d","type":"Feature","feature_type":"anchor","geometry":{"type":"Point","coordinates":[30.3710243258061,60.007236205961561]},"properties":{"unit_id":"fb32822e-ae7b-4837-9e81-91b74e104b11","address_id":"2873a12b-87a9-4fae-9d5e-954ca7c28e53"}},{"id":"ed7357fe-fa8d-43e8-8ac4-c64dde97f171","type":"Feature","feature_type":"anchor","geometry":{"type":"Point","coordinates":[30.372102688881093,60.007617303087436]},"properties":{"unit_id":"ca304e8f-f194-4053-b312-1df56db5d956","address_id":"812e300b-5aae-4151-b681-f8fc0aad2df8"}},{"id":"633448fb-49ef-4cbe-94b5-54ba02b97fc8","type":"Feature","feature_type":"anchor","geometry":{"type":"Point","coordinates":[30.3721289379572,60.007655658735715]},"properties":{"unit_id":"f86baf68-23ff-49c9-82c8-059ef875cfd7","address_id":"932e096a-c5a8-4eaa-890f-d9e292fd9135"}},{"id":"f2919429-6e35-492a-8dd8-839ca1540eea","type":"Feature","feature_type":"anchor","geometry":{"type":"Point","coordinates":[30.37233358750731,60.007468502526415]},"properties":{"unit_id":"deb1c34e-8c55-418a-850e-b621313d21c9","address_id":"c9f2a1ac-868f-461c-aaca-830075d968d4"}},{"id":"f8d139f1-58df-4371-9739-fa0084bce19c","type":"Feature","feature_type":"anchor","geometry":{"type":"Point","coordinates":[30.371746369510493,60.007568941772995]},"properties":{"unit_id":"4c34370c-8c85-4be9-8128-fe6f7c787941","address_id":"83dc7503-ddea-428f-bc2e-3e06c6ebd938"}},{"id":"6da3b2de-82d2-43e5-8be8-892f538954ac","type":"Feature","feature_type":"anchor","geometry":{"type":"Point","coordinates":[30.374081693878786,60.007341875149564]},"properties":{"unit_id":"127158d8-b108-4133-9d7b-294fc9589808","address_id":"0674dcdf-c005-46a1-a886-92c65c6b46c7"}},{"id":"895dfe82-033b-48f9-b37c-cc3429b12afb","type":"Feature","feature_type":"anchor","geometry":{"type":"Point","coordinates":[30.374273948309,60.007136615318]},"properties":{"unit_id":"ab1e086d-90cf-444d-b96a-f0d541c02d42","address_id":"8fb8b382-6ee8-4ccd-9d81-a537729f29e5"}},{"id":"fc2071f4-8781-4585-ba48-76907e41aab0","type":"Feature","feature_type":"anchor","geometry":{"type":"Point","coordinates":[30.37368673620492,60.007237054839024]},"properties":{"unit_id":"0e40120b-c6df-4d09-a1c5-2072b887735d","address_id":"795d691e-b019-40a6-8c92-50c4fd32cd0a"}},{"id":"06f17bed-9607-4940-a3fd-ace51d689627","type":"Feature","feature_type":"anchor","geometry":{"type":"Point","coordinates":[30.372195069950575,60.007746738648621]},"properties":{"unit_id":"c490b2d5-79dd-431f-85ce-2434d3c6dd6e","address_id":"4815a902-5ec1-454a-b36e-ac324087b0b3"}},{"id":"573fe105-13e3-4998-b7a7-c8edded6ee3b","type":"Feature","feature_type":"anchor","geometry":{"type":"Point","coordinates":[30.374132345477211,60.007415886395542]},"properties":{"unit_id":"b4879bff-8979-473c-bd05-53b5b965dd12","address_id":"353521da-a43a-431f-80da-4cb98e8866ba"}},{"id":"ca3b228d-c751-45f5-823f-78a174e5061e","type":"Feature","feature_type":"anchor","geometry":{"type":"Point","coordinates":[30.372295410887034,60.007888497890519]},"properties":{"unit_id":"41989e4e-8596-4467-b3b6-d362012c1748","address_id":"2e0093ac-22ae-4a89-9636-3572207d585c"}},{"id":"fa84bc8a-8fed-4b2e-9350-e3eff9073c10","type":"Feature","feature_type":"anchor","geometry":{"type":"Point","coordinates":[30.372212434096589,60.007902690309223]},"properties":{"unit_id":"aff3dc61-ac36-4b43-b00d-59bf5983e14d","address_id":"faa7ebc6-19bb-414a-9c16-f04408a0ea02"}},{"id":"bdd623a9-76b6-4e11-8ea7-3b61a599d08b","type":"Feature","feature_type":"anchor","geometry":{"type":"Point","coordinates":[30.372380515560188,60.007873941549569]},"properties":{"unit_id":"59b692f6-fc4a-4b0e-a303-ce3762d86d98","address_id":"5de1e72c-a7b3-45d5-9acd-79af27d1712a"}},{"id":"dd9fe9ea-a353-4b39-8377-2b2669cd24a2","type":"Feature","feature_type":"anchor","geometry":{"type":"Point","coordinates":[30.375026354890512,60.007499804230818]},"properties":{"unit_id":"6de63484-ef90-4634-bd52-ec7f978d9ca4","address_id":"a90fd5a1-0d91-410a-89f4-d5901222312d"}},{"id":"aa6e91da-02d6-455a-9db1-838cf8d662cd","type":"Feature","feature_type":"anchor","geometry":{"type":"Point","coordinates":[30.374814377817252,60.007495665232781]},"properties":{"unit_id":"c0728626-ad3b-42c2-90e2-22faf3e934cb","address_id":"1c9e7d21-97f6-4067-ba71-f4558eff100f"}},{"id":"db949355-2fda-4b08-ab76-49e7f256e0ed","type":"Feature","feature_type":"anchor","geometry":{"type":"Point","coordinates":[30.374954134773226,60.007609583873936]},"properties":{"unit_id":"6761c4c9-9032-4c57-b57a-b962c22f9c34","address_id":"7ad94fb6-a693-4ede-b5ff-555648eeb236"}},{"id":"13f7f099-9c8e-4d1b-ba37-c763f1be6a22","type":"Feature","feature_type":"anchor","geometry":{"type":"Point","coordinates":[30.375123554777829,60.007530703589815]},"properties":{"unit_id":"c41c92e5-a947-4136-b016-d0312d3cdd9e","address_id":"9c0d0f9b-a595-4225-938e-56bf7c55f663"}},{"id":"ad7b0bfd-eb1c-4f4b-81f3-f6c05ab84f1d","type":"Feature","feature_type":"anchor","geometry":{"type":"Point","coordinates":[30.374913370639952,60.007550021109594]},"properties":{"unit_id":"b7c8c73f-02dc-49cf-aca0-2fd41307757d","address_id":"8fb23973-9d19-401d-9e14-9a50cde67e84"}},{"id":"e96d1e7b-6d1a-4e24-a067-1a2a336b2ef9","type":"Feature","feature_type":"anchor","geometry":{"type":"Point","coordinates":[30.374786696008773,60.007094060841325]},"properties":{"unit_id":"931826f0-fdfc-467b-81c4-e801abf4823c","address_id":"e24b716b-5734-4a88-8e60-30d673a29af6"}},{"id":"6aafcc40-79e9-40da-beb9-71cd8c8fde99","type":"Feature","feature_type":"anchor","geometry":{"type":"Point","coordinates":[30.374562497447105,60.00676646632359]},"properties":{"unit_id":"df53e9f5-928c-4b83-895c-20d67dd939c6","address_id":"3ccb6ba1-808a-4098-854b-87c0f777c194"}},{"id":"cfaad673-8a86-445f-91f6-235b048d671d","type":"Feature","feature_type":"anchor","geometry":{"type":"Point","coordinates":[30.3745828789679,60.006796247842985]},"properties":{"unit_id":"fa29a663-030e-486c-89ea-cee42eb967f8","address_id":"0a3494aa-ea98-4463-8f5d-ebdc30a41cd8"}},{"id":"8f3efa49-18fa-4a5e-9aad-d63688cd9114","type":"Feature","feature_type":"anchor","geometry":{"type":"Point","coordinates":[30.374603260781548,60.006826028813478]},"properties":{"unit_id":"108ca127-5f61-4e05-a8d8-c488b9d59bf8","address_id":"4335be57-9dea-49e8-8801-6c46dbe9f3f9"}},{"id":"ae9c4b8d-4b6d-412a-bc4b-5502fb63c769","type":"Feature","feature_type":"anchor","geometry":{"type":"Point","coordinates":[30.374623642339053,60.006855810058426]},"properties":{"unit_id":"dbe6fb1d-adb7-4eb8-b321-ddf8dde19901","address_id":"fcedff9c-9400-4d43-9468-1742400a1eea"}},{"id":"15b886ce-71a6-4de3-b8b0-f029b29afe20","type":"Feature","feature_type":"anchor","geometry":{"type":"Point","coordinates":[30.374644023914907,60.00688559157782]},"properties":{"unit_id":"c58a9e25-c667-4e55-a153-3ea31215833e","address_id":"37b616cd-6f5d-4355-859d-a2fd09d5ad59"}},{"id":"15ba0778-12ba-439b-ac8b-95cc785a65aa","type":"Feature","feature_type":"anchor","geometry":{"type":"Point","coordinates":[30.374680419896418,60.006938772529189]},"properties":{"unit_id":"3a035fbb-4465-43b4-994d-c00354b45ce4","address_id":"94b217fd-20a9-48fb-ba9a-96c5e9c6f3fd"}},{"id":"3dd142af-8497-4ee7-8f3c-dd1d15ca92ea","type":"Feature","feature_type":"anchor","geometry":{"type":"Point","coordinates":[30.374740836891039,60.00702705276575]},"properties":{"unit_id":"d524c6df-7108-4371-8bb9-648d41310a4f","address_id":"1f0d71df-6fb9-4875-9b64-e28dc3e1b7b2"}},{"id":"4fb5f898-a098-45f2-8564-af407556ff21","type":"Feature","feature_type":"anchor","geometry":{"type":"Point","coordinates":[30.374844201919839,60.007178086810363]},"properties":{"unit_id":"ca42471d-78f5-4864-bb61-d612851e3270","address_id":"4c5fdd18-c416-437f-bcab-0417957e0d3f"}},{"id":"00ea16de-e992-4d20-b843-981980e7f37e","type":"Feature","feature_type":"anchor","geometry":{"type":"Point","coordinates":[30.374875502739979,60.0072238224505]},"properties":{"unit_id":"423ed8c0-9746-474b-bb67-c655dd52847f","address_id":"babd8188-06b2-4c49-900b-925ddbf4051f"}},{"id":"22a7d974-a86b-4e22-8b61-918fd7aaff88","type":"Feature","feature_type":"anchor","geometry":{"type":"Point","coordinates":[30.37489588440538,60.007253603695439]},"properties":{"unit_id":"a53d1497-1eed-4c91-9d5d-e9ec92dd3643","address_id":"f04895cc-2638-4522-9efa-ec7a98b43b08"}},{"id":"e807b509-99db-4cb9-b931-1273c70d62da","type":"Feature","feature_type":"anchor","geometry":{"type":"Point","coordinates":[30.374916266363631,60.007283384940379]},"properties":{"unit_id":"cfb00476-db66-4a07-928f-b9576a436657","address_id":"a20786f7-1e9a-4c6e-8d8a-080ba3fb2975"}},{"id":"527cc7b4-a9fa-4c6e-a67a-fdb23950ccdf","type":"Feature","feature_type":"anchor","geometry":{"type":"Point","coordinates":[30.374989058986202,60.007389747392025]},"properties":{"unit_id":"8a4a6a38-d110-429b-88e7-a767afe8dfc9","address_id":"4bd9ba84-9eaf-4a49-a77c-44d54d1df39d"}},{"id":"2d465ed0-b965-489e-a76b-d9b07ff064e1","type":"Feature","feature_type":"anchor","geometry":{"type":"Point","coordinates":[30.374936648340228,60.007313166734228]},"properties":{"unit_id":"310ce78a-ab33-4288-bfc3-5367bd61be02","address_id":"01e2bfb3-4845-49e6-a2ea-aa770ed11b5b"}},{"id":"2a70e5de-9914-44c3-a685-a9ef6cb5e92f","type":"Feature","feature_type":"anchor","geometry":{"type":"Point","coordinates":[30.374957030060692,60.007342947979176]},"properties":{"unit_id":"5b2652d2-cb03-4013-a090-85d26376aa5a","address_id":"544ebe9d-2ef1-425b-badc-410397df29e4"}},{"id":"28a0c41e-1767-4b49-98bc-3efa70992f58","type":"Feature","feature_type":"anchor","geometry":{"type":"Point","coordinates":[30.375012353103084,60.007423782904496]},"properties":{"unit_id":"2e5562b5-b221-485d-a023-4b681c6983e5","address_id":"26c14b4e-c40e-4478-a9c9-8c280eea3680"}},{"id":"8f50832e-fcb6-4581-991c-aceaa4f8b5c0","type":"Feature","feature_type":"anchor","geometry":{"type":"Point","coordinates":[30.375112239716913,60.007444718313906]},"properties":{"unit_id":"ca7af7a5-254a-4dd3-a0bf-9f626f3a471b","address_id":"3bbdc7ad-6a41-48b7-853c-de1986c0f111"}},{"id":"650ee10a-fe19-4763-a8a4-f29e529fc360","type":"Feature","feature_type":"anchor","geometry":{"type":"Point","coordinates":[30.374640360071723,60.007463647759735]},"properties":{"unit_id":"a0e76dac-b65f-4180-83ab-11fc2894ad6c","address_id":"aca457cb-6850-4615-a457-5a978e55e4b9"}},{"id":"4682d6ed-ac7c-4b09-a5c8-651c82c07118","type":"Feature","feature_type":"anchor","geometry":{"type":"Point","coordinates":[30.374383508313727,60.00747728331703]},"properties":{"unit_id":"fd31fcec-adab-4cd1-9b18-324b7ee2b805","address_id":"307e2d5c-e3eb-45b5-8766-0c2b4b342fcb"}},{"id":"8d572ad3-1947-47a9-bb20-d3e34762b421","type":"Feature","feature_type":"anchor","geometry":{"type":"Point","coordinates":[30.374402070257187,60.007504405679072]},"properties":{"unit_id":"4be1ea8f-634f-43a7-91d4-29cb2d46ec64","address_id":"c1bc47be-be1a-45cc-b766-e991d8ccef78"}},{"id":"dae44595-059d-48a2-a7d2-ca08f49200f7","type":"Feature","feature_type":"anchor","geometry":{"type":"Point","coordinates":[30.374072853073823,60.007551211404305]},"properties":{"unit_id":"54e80400-12a1-49c7-bf48-e81478fccee4","address_id":"ea932d35-5e6a-45f6-b548-fd0acb96758c"}},{"id":"3ee908dd-a2dd-48f6-a7a1-bff6c751e1c2","type":"Feature","feature_type":"anchor","geometry":{"type":"Point","coordinates":[30.374220665789842,60.0075449388229]},"properties":{"unit_id":"0c7e1501-55a6-4437-b873-3d979501b348","address_id":"39ebfbef-815e-4232-a71e-4b1434c71779"}},{"id":"0e84cb6d-0b9f-4aa7-ad8c-657c9eeaac6d","type":"Feature","feature_type":"anchor","geometry":{"type":"Point","coordinates":[30.374133316058391,60.007417304484719]},"properties":{"unit_id":"105ca5ec-791e-4c50-86fb-325ddb5f08c9","address_id":"21d29a59-5565-49fb-94cc-5e9f8540e5ed"}},{"id":"a3d1feb5-155c-4e74-8b1a-94d49a84cf59","type":"Feature","feature_type":"anchor","geometry":{"type":"Point","coordinates":[30.374319393196011,60.006772404349022]},"properties":{"unit_id":"6d8a8f32-c1cc-4ac6-8801-7b9d17d17669","address_id":"2ca17a7f-93d7-4343-a3e0-f85177e6826d"}},{"id":"3cf126bd-8092-4c0e-8981-2dfd43b0c6b1","type":"Feature","feature_type":"anchor","geometry":{"type":"Point","coordinates":[30.374532149556202,60.006736013496649]},"properties":{"unit_id":"2fcb3f34-ee38-4ec6-9cc4-246d1808e1e2","address_id":"c1f41468-7572-4c92-8322-7ff37a70d375"}},{"id":"8b293de7-874b-4a4e-aea8-c071adfaeb5a","type":"Feature","feature_type":"anchor","geometry":{"type":"Point","coordinates":[30.374428453860705,60.006653947657838]},"properties":{"unit_id":"4278b52f-8a26-4d9e-959a-6102a4d1fd4f","address_id":"12270580-4a11-4238-b2dc-79ff7d1be6d3"}},{"id":"83c49d82-4c79-4ac5-bec4-0135a09b7bc0","type":"Feature","feature_type":"anchor","geometry":{"type":"Point","coordinates":[30.373277934825108,60.007431501294647]},"properties":{"unit_id":"76067107-c474-47d7-bdf9-a10b104b865f","address_id":"5ee2f690-647f-4362-a79b-b1b7cbd01d97"}},{"id":"3af04799-0406-40f9-9a61-fb8b6a671d97","type":"Feature","feature_type":"anchor","geometry":{"type":"Point","coordinates":[30.372885789383169,60.007499141705708]},"properties":{"unit_id":"a41ff0f3-8566-44a2-bcd0-9a152d675408","address_id":"4a896bef-00fd-43d2-a403-dd9aeaedecaf"}},{"id":"c36c0544-3664-4ab7-bd9f-0dab1c8219ed","type":"Feature","feature_type":"anchor","geometry":{"type":"Point","coordinates":[30.3730872079955,60.007458413152648]},"properties":{"unit_id":"1c82b064-6ba2-45b0-9cf3-2135e0de00f2","address_id":"0ee14a6b-b581-40ef-ba50-5b39089cc255"}},{"id":"8864f658-62eb-49ce-b36a-fa39b7edb80d","type":"Feature","feature_type":"anchor","geometry":{"type":"Point","coordinates":[30.372624091738583,60.007304871996631]},"properties":{"unit_id":"97442c3a-eced-421f-8aa9-e4cf5f4e2e89","address_id":"5200fa93-e5a8-43d5-9754-17e80934063e"}},{"id":"d7c535e3-c937-4697-93f8-1e12dd7fe658","type":"Feature","feature_type":"anchor","geometry":{"type":"Point","coordinates":[30.373265695204395,60.007233031384928]},"properties":{"unit_id":"a0da9917-68ed-44c9-81b4-e89db15ba738","address_id":"0d8142aa-3bd8-4eda-bbf5-c584057b4436"}},{"id":"02618a3b-8c2d-4fff-856e-5f5747262ad8","type":"Feature","feature_type":"anchor","geometry":{"type":"Point","coordinates":[30.373265695204395,60.007233031384928]},"properties":{"unit_id":"a0da9917-68ed-44c9-81b4-e89db15ba738","address_id":"384067fe-f109-44ad-bd07-5f3c113aea01"}},{"id":"4f7a1cd4-aa91-4a80-843e-ee11fd0bbdc4","type":"Feature","feature_type":"anchor","geometry":{"type":"Point","coordinates":[30.374059509780754,60.007156660133369]},"properties":{"unit_id":"f1c8f247-84d5-4308-83cf-7984248ad667","address_id":"d448e20b-ccb9-4aaf-961a-70f508a2e83a"}},{"id":"4bbfeb0d-2108-4046-bddc-64a2cd8c0ff3","type":"Feature","feature_type":"anchor","geometry":{"type":"Point","coordinates":[30.373872282348465,60.007188684193238]},"properties":{"unit_id":"f7b51441-f16b-4816-a59d-cfe16437d423","address_id":"0a1fa6f6-b09a-4893-97c8-144d2d7be037"}},{"id":"29978d0b-5f08-4d7b-90c4-dcf6f941e983","type":"Feature","feature_type":"anchor","geometry":{"type":"Point","coordinates":[30.373920765950079,60.007106727860446]},"properties":{"unit_id":"125fb752-4914-4c53-a5d7-4bddda7d6504","address_id":"eaf6db35-94ed-4cc0-bd52-f05235471e30"}},{"id":"e96f99ec-ef18-409e-8fab-5afccb76587e","type":"Feature","feature_type":"anchor","geometry":{"type":"Point","coordinates":[30.374327229454352,60.007084729227223]},"properties":{"unit_id":"32066833-d87a-402d-99c4-a0c351ab8928","address_id":"dacb3e09-cd3f-4d32-a3df-fb5d2c0f4d19"}},{"id":"c891d80c-0fa9-4204-b47d-7e706b964d6c","type":"Feature","feature_type":"anchor","geometry":{"type":"Point","coordinates":[30.374263402310358,60.007095646620165]},"properties":{"unit_id":"ae213e16-37d5-464b-bb4e-99a05a7b0d7b","address_id":"d86b82b6-8a28-49d5-810c-2dadaab7d56d"}},{"id":"ed8af859-4fa3-4d62-a09a-1930b5300cbf","type":"Feature","feature_type":"anchor","geometry":{"type":"Point","coordinates":[30.373411603853935,60.00724134231514]},"properties":{"unit_id":"4c2c70f3-1251-4a0c-9412-474d4d58c1b0","address_id":"e0da3ab3-0cee-47da-a326-c0f96a9c6e92"}},{"id":"d467e600-46bf-47e3-b11c-566e94046606","type":"Feature","feature_type":"anchor","geometry":{"type":"Point","coordinates":[30.373696700172886,60.007192578106384]},"properties":{"unit_id":"3f8785bd-f831-4c4f-adef-4a4c26ac44f8","address_id":"9efd3d7f-9ce7-491b-b093-a34c712dcc3c"}},{"id":"1b9bac46-4db7-43c7-8d84-f9dcbd441120","type":"Feature","feature_type":"anchor","geometry":{"type":"Point","coordinates":[30.373940148442998,60.007343413448353]},"properties":{"unit_id":"cf56f2de-286d-45ed-975a-79fecce511ef","address_id":"d2000fc4-358d-4cad-9ea6-424cf24cdb02"}},{"id":"d0bd71c9-325a-478b-82ff-734693573535","type":"Feature","feature_type":"anchor","geometry":{"type":"Point","coordinates":[30.372212011512215,60.0077744458661]},"properties":{"unit_id":"7a581465-114b-4b5c-b354-caf70893b596","address_id":"b20e94d2-a462-4ec3-8184-84a9ae2924d8"}},{"id":"0c57a13a-5c66-4255-b0a6-2062768561bb","type":"Feature","feature_type":"anchor","geometry":{"type":"Point","coordinates":[30.372119148001335,60.007488547341787]},"properties":{"unit_id":"01dc6afd-7c7f-4666-872c-db2cf1dabc82","address_id":"d8470442-6534-4759-a494-605b6dd0275d"}},{"id":"4aa6adda-02bb-4b73-bb5a-e08987a5b665","type":"Feature","feature_type":"anchor","geometry":{"type":"Point","coordinates":[30.37193191841569,60.00752057167611]},"properties":{"unit_id":"b31a357b-8f5d-4592-b93b-2a257040900b","address_id":"5682e2f9-ad14-43d1-97aa-5accc475d7dc"}},{"id":"8d0065a1-b5b4-4e6e-880f-437a324d637d","type":"Feature","feature_type":"anchor","geometry":{"type":"Point","coordinates":[30.372025533231181,60.007504559371725]},"properties":{"unit_id":"4b0ccf54-600e-43a8-8db3-b26697d80bc0","address_id":"3c9791be-19f5-4ab8-a8dc-bee86634e481"}},{"id":"8b2e21cf-ea5d-4e89-926c-1435cbb51504","type":"Feature","feature_type":"anchor","geometry":{"type":"Point","coordinates":[30.371978463594154,60.00743577861607]},"properties":{"unit_id":"284b572c-a74c-4dab-8681-eb2e4bce87a4","address_id":"d0d93a4e-4843-4dac-9654-edbf588f092a"}},{"id":"2bfd0371-64c4-447e-95d4-dc5f00aa1680","type":"Feature","feature_type":"anchor","geometry":{"type":"Point","coordinates":[30.372226780712065,60.007592184493355]},"properties":{"unit_id":"ff2048b4-b9eb-41a1-9af0-11118bd4362b","address_id":"3faca7c5-49ea-4bf7-80fc-50df4b6c72b0"}},{"id":"9a9f1ad3-63e8-4dc5-aeb7-c02aba52986d","type":"Feature","feature_type":"anchor","geometry":{"type":"Point","coordinates":[30.371110550170464,60.007653931888974]},"properties":{"unit_id":"dbefad6e-8328-4475-acfd-6c1abe7420bc","address_id":"530bc860-5ed1-4090-b1df-0bc85020f6c5"}},{"id":"067cd756-071f-44fa-9d5b-504ea420026d","type":"Feature","feature_type":"anchor","geometry":{"type":"Point","coordinates":[30.371196438870772,60.007779438681716]},"properties":{"unit_id":"6af3017f-bfe9-4796-b2f0-61b8af2ce638","address_id":"9dd98150-d310-45ba-87c8-deab4c39dbc1"}},{"id":"bc74d637-70db-4a73-a00e-ca0db9970dc3","type":"Feature","feature_type":"anchor","geometry":{"type":"Point","coordinates":[30.371154222782891,60.007717749195294]},"properties":{"unit_id":"be996fd9-1554-4938-9e9d-7f93de9f4ab5","address_id":"af91fd52-c7e6-468c-ab7b-d24e19c8160c"}},{"id":"d2d8957c-0453-4380-b4ab-0f3e3219b653","type":"Feature","feature_type":"anchor","geometry":{"type":"Point","coordinates":[30.371317265097982,60.007775405896282]},"properties":{"unit_id":"34589270-f01c-406c-bc33-40f801be2875","address_id":"dbde1c1a-8676-4ffd-95a6-541709072d16"}},{"id":"33822745-0fa9-4de3-b341-22311a9f8e88","type":"Feature","feature_type":"anchor","geometry":{"type":"Point","coordinates":[30.371385348675734,60.0077637603844]},"properties":{"unit_id":"91f7ca30-3c87-4f49-9af6-61e98073e572","address_id":"ef14b524-29d0-4e56-a36c-64d2de4da745"}},{"id":"c1574d8d-e81d-447e-b951-712a719b8325","type":"Feature","feature_type":"anchor","geometry":{"type":"Point","coordinates":[30.371267434025416,60.007591455002157]},"properties":{"unit_id":"c5070aa2-e0c1-45ff-9700-3ac76b74246c","address_id":"979320d4-9596-4d39-b537-c90a686341a7"}},{"id":"4c0fe390-4da6-4b04-a33e-d62199c3f0eb","type":"Feature","feature_type":"anchor","geometry":{"type":"Point","coordinates":[30.371199350055306,60.007603099965131]},"properties":{"unit_id":"4c41d7d1-92de-40e8-acd1-45b5482999e5","address_id":"aeaad81d-5323-48c0-a7a8-bcb9ec381785"}},{"id":"6e740150-747f-4b64-b05a-840ddb673805","type":"Feature","feature_type":"anchor","geometry":{"type":"Point","coordinates":[30.371295988855824,60.007688748489464]},"properties":{"unit_id":"2760f90f-99fb-4f09-886d-467b7f56e02f","address_id":"3ab187ad-48e7-4ecb-878f-c4c01efd7466"}},{"id":"7e81aaa7-fb73-4df8-8c51-68cd47b94d12","type":"Feature","feature_type":"anchor","geometry":{"type":"Point","coordinates":[30.371508976754075,60.00802776374357]},"properties":{"unit_id":"da661ced-2d77-4ba1-b579-8fc7a09aec67","address_id":"b3b1fbb3-4faa-4aa0-89dd-99c7090c25bf"}},{"id":"a5e2eb0e-5d70-4fa4-abff-f84bd07165c3","type":"Feature","feature_type":"anchor","geometry":{"type":"Point","coordinates":[30.371449899108374,60.007946359880982]},"properties":{"unit_id":"1e757a59-e5c7-48f5-8f6d-f40d26cfee60","address_id":"6d26df57-b7c3-43c8-9e4f-cf36ca15750f"}},{"id":"435d33c8-b520-4802-84cc-fa29d93787f0","type":"Feature","feature_type":"anchor","geometry":{"type":"Point","coordinates":[30.371407074493575,60.007878856969953]},"properties":{"unit_id":"c3f2b89c-1704-426d-807c-b2113b1202cd","address_id":"fa2695da-b107-44a4-9a92-b5ed2a3cfbb5"}},{"id":"799ffdce-65b0-45b2-bfc5-5f65d633b347","type":"Feature","feature_type":"anchor","geometry":{"type":"Point","coordinates":[30.371386693657364,60.007849075176111]},"properties":{"unit_id":"9267985d-51b2-4d1b-8469-f4f7ad1ed49c","address_id":"696b05b9-dd2c-4146-8e22-88ebf143decb"}},{"id":"003aa7d4-2439-4870-80fb-c654ea59ec18","type":"Feature","feature_type":"anchor","geometry":{"type":"Point","coordinates":[30.37136631311397,60.007819293931163]},"properties":{"unit_id":"119ea660-49e7-4443-a2c6-0dfa3a40d4b5","address_id":"35d6cc69-40c4-4c8e-a918-ac12885ba45c"}},{"id":"c15cd356-99ae-42d5-a32c-1c014451605c","type":"Feature","feature_type":"anchor","geometry":{"type":"Point","coordinates":[30.371766673865348,60.008099009070705]},"properties":{"unit_id":"f008a00f-99b9-4368-a1a6-432260a31476","address_id":"33b9b55a-cfab-42eb-8f03-7f1e0859f44c"}},{"id":"c73aad7f-fe42-4290-b7a6-923b9504b4ef","type":"Feature","feature_type":"anchor","geometry":{"type":"Point","coordinates":[30.371557530286253,60.008135728990027]},"properties":{"unit_id":"6c0761ce-baa6-4491-b197-7186b8455377","address_id":"cfc2a8fb-8dc1-4d61-ab20-c30969b131e9"}},{"id":"0418c3bf-8224-4ce5-821c-582b747a745e","type":"Feature","feature_type":"anchor","geometry":{"type":"Point","coordinates":[30.371238654105603,60.007299348118011]},"properties":{"unit_id":"5fb7436f-7cfa-47c4-82b9-c607db4d8639","address_id":"86a391ca-c569-4ab5-be12-135d025db852"}},{"id":"2cf10c12-cef1-43a8-a717-dca626114bbb","type":"Feature","feature_type":"anchor","geometry":{"type":"Point","coordinates":[30.371032836328951,60.00723475027258]},"properties":{"unit_id":"17cd6908-6e51-4c7b-8129-9bd21f16e4c2","address_id":"1352be76-e208-4648-91d9-bf928606d3ff"}},{"id":"32a45b98-1ae5-4daf-9e11-a8ec3a090b0f","type":"Feature","feature_type":"anchor","geometry":{"type":"Point","coordinates":[30.370957811195513,60.007347384482273]},"properties":{"unit_id":"e4f0bb2d-a30e-4919-b76b-f78571276bd2","address_id":"0ae25f38-45f6-40e2-b376-3d9597aecf48"}},{"id":"ec75acba-3ddb-4715-a3f6-a688237bfa05","type":"Feature","feature_type":"anchor","geometry":{"type":"Point","coordinates":[30.374054701588307,60.007302433498019]},"properties":{"unit_id":"f1ed9bcd-397a-46cd-8f11-80e72bdc4d26","address_id":"bf3d0daa-7140-4f21-9d3b-9e3ff0871cd9"}},{"id":"097c058f-0c06-4659-a343-55507a5e9ece","type":"Feature","feature_type":"anchor","geometry":{"type":"Point","coordinates":[30.372102689155589,60.007617303087436]},"properties":{"unit_id":"40430bae-f16c-40bf-8899-81f5edf93756","address_id":"b882fead-1f71-4762-a13a-40fc94b093a8"}},{"id":"c7ba1b9f-d411-47c0-a719-6606e64a6adf","type":"Feature","feature_type":"anchor","geometry":{"type":"Point","coordinates":[30.374223785679376,60.007471486359492]},"properties":{"unit_id":"28995861-a404-44d9-af80-5e47cbb4e3a3","address_id":"f8390ac9-c85e-447c-9080-54d6d76075db"}},{"id":"c999920f-0420-49a1-8e99-0cf0fa7c06c1","type":"Feature","feature_type":"anchor","geometry":{"type":"Point","coordinates":[30.374145166907219,60.007484933368829]},"properties":{"unit_id":"9f57e575-dcfc-47b3-b571-b5e4fc05e18e","address_id":"92a7a9d8-51f6-4fe5-b2b9-fab2d9e7c037"}},{"id":"85505321-88b4-47e9-bdba-6cd2eae2e075","type":"Feature","feature_type":"anchor","geometry":{"type":"Point","coordinates":[30.374193266034144,60.007491011364358]},"properties":{"unit_id":"100e1787-a9ce-49d5-bfad-71dc4b75efe2","address_id":"181fab5d-0725-4b99-8601-cd338a22fd61"}},{"id":"3e30e802-e2e0-49d4-9ee4-6b7a8242b853","type":"Feature","feature_type":"anchor","geometry":{"type":"Point","coordinates":[30.373054507368522,60.007368956069485]},"properties":{"unit_id":"c1a8a350-ace0-4f37-a75e-fda8d05a9c67","address_id":"6189743b-f1f0-4336-b6ab-8d934252154e"}},{"id":"51712900-b443-4bda-a15f-2fe74759f064","type":"Feature","feature_type":"anchor","geometry":{"type":"Point","coordinates":[30.371188712169477,60.007559770987278]},"properties":{"unit_id":"4cf0b1f9-ad11-4bbd-aeeb-73ec8161b27d","address_id":"05c46e2d-d7d8-4968-9e11-18f8c0dd8c7b"}},{"id":"46a2d6a9-e88f-46ae-9661-720b415e53aa","type":"Feature","feature_type":"anchor","geometry":{"type":"Point","coordinates":[30.37116687602548,60.007527862471342]},"properties":{"unit_id":"e8d23f38-e141-4712-91ca-2739e334fa52","address_id":"efb5ca12-31cc-48bc-b939-0dea71e7e852"}},{"id":"0d167bf2-7c3f-4bb9-a5bc-4afde150c3a8","type":"Feature","feature_type":"anchor","geometry":{"type":"Point","coordinates":[30.371145040177048,60.007495953955413]},"properties":{"unit_id":"bdbd0d5b-e981-4af5-a13e-d47272bbcb3a","address_id":"8824c4a5-b84b-41db-86b0-6f4445129c24"}},{"id":"1f9b013f-2077-477a-9fd7-693822c1ab10","type":"Feature","feature_type":"anchor","geometry":{"type":"Point","coordinates":[30.371123203800714,60.00746404516503]},"properties":{"unit_id":"02b6d9bd-27c6-4146-8114-d9f18a1c3659","address_id":"42a337be-1e91-4cdf-9b90-34bd06cf0a56"}},{"id":"0044edd6-8cdd-41b9-abe3-b8f8d4d22435","type":"Feature","feature_type":"anchor","geometry":{"type":"Point","coordinates":[30.37110136771992,60.007432136649093]},"properties":{"unit_id":"7d3c110b-3598-4f46-93d5-2579400d8927","address_id":"cce8b8b6-8f63-405c-82a1-7cfcd2ec93db"}},{"id":"d51f2e39-ec5f-4b0c-b0a3-ce942c0fdd86","type":"Feature","feature_type":"anchor","geometry":{"type":"Point","coordinates":[30.371079532209183,60.007400228133164]},"properties":{"unit_id":"01b19e30-389f-47b7-b109-a312cee227ef","address_id":"ea20ab05-fc08-4fad-be61-8c7e88e0db3b"}},{"id":"e37b0d57-e0b9-441f-aa37-4f8d66777168","type":"Feature","feature_type":"anchor","geometry":{"type":"Point","coordinates":[30.371057696170524,60.007368319617228]},"properties":{"unit_id":"f188eaee-5c20-49ff-b901-b427ff286b4c","address_id":"0fabd8b6-4973-4b02-ba8c-85c565051c6d"}},{"id":"0c2749ce-f5df-4fa4-ac81-b7f868735c86","type":"Feature","feature_type":"anchor","geometry":{"type":"Point","coordinates":[30.372932893973186,60.007232925446772]},"properties":{"unit_id":"d3f4a9f6-9964-4da2-bef6-8862a2b5c0c4","address_id":"41e011b2-87ab-479c-a19f-d2309c579d83"}},{"id":"aec6797d-f23a-4e3c-bdb2-a0027ab583b6","type":"Feature","feature_type":"anchor","geometry":{"type":"Point","coordinates":[30.371452762950394,60.00807064564048]},"properties":{"unit_id":"d64823bd-c157-4353-9f82-461a9f0e4ff0","address_id":"1ca54f0c-0673-4259-8740-5013598420ff"}},{"id":"18fb67e4-6520-45b8-abc0-9a97212cbdbe","type":"Feature","feature_type":"anchor","geometry":{"type":"Point","coordinates":[30.374196914757036,60.007301871422037]},"properties":{"unit_id":"a13425cc-e584-4c38-aeb8-c951fc4d8e6d","address_id":"7a4392e4-0d17-42b4-8c8a-65a3f15d30cb"}},{"id":"aef4893a-54aa-4dc1-9f4b-4130cc403a8c","type":"Feature","feature_type":"anchor","geometry":{"type":"Point","coordinates":[30.371750629788384,60.0080196981727]},"properties":{"unit_id":"3adf84f0-410b-4b32-8281-d504b5c98894","address_id":"2338f088-5821-4502-8929-b2db1a1ed58c"}},{"id":"f5ca95df-2393-4855-9c47-579ce8fc870b","type":"Feature","feature_type":"anchor","geometry":{"type":"Point","coordinates":[30.371988034280481,60.007659331715665]},"properties":{"unit_id":"ba54b57f-48bd-474c-9c62-8af8ab9afb8f","address_id":"81fe42ad-7577-4614-a251-6a8048ef3d0e"}},{"id":"ade46dc1-9e45-41a2-97dd-c59913432b8e","type":"Feature","feature_type":"anchor","geometry":{"type":"Point","coordinates":[30.371445705079854,60.007577596316068]},"properties":{"unit_id":"a1cbc4ba-f109-4bd3-9df8-c7c6177dcbe4","address_id":"40d9b600-efa4-4910-b672-c96fcda66d56"}},{"id":"0d7300fe-71cc-49ab-8414-abfa736c536a","type":"Feature","feature_type":"anchor","geometry":{"type":"Point","coordinates":[30.37451871117166,60.007051977048405]},"properties":{"unit_id":"4cc17b9a-bce2-4a79-a615-2d217b76a0ee","address_id":"935e82ad-56c0-4e4d-b0ce-af848bef5d18"}},{"id":"444f2a12-35e0-4678-8d4f-84a444904617","type":"Feature","feature_type":"anchor","geometry":{"type":"Point","coordinates":[30.374454884090873,60.007062894441347]},"properties":{"unit_id":"025cf848-8a1c-4318-98ec-c32defb18979","address_id":"e920df39-1dab-4a89-9016-32ee70885a7f"}},{"id":"8424f44d-9047-4d4a-a0f8-acf72a4f352e","type":"Feature","feature_type":"anchor","geometry":{"type":"Point","coordinates":[30.374391056851771,60.007073811834289]},"properties":{"unit_id":"8970e5a2-6952-40b9-84ea-1c1f90f05a4a","address_id":"b06b7446-56aa-4b7c-a9d2-2df7722b8fa4"}},{"id":"96fdcf0e-6362-4d71-bf4f-85fc9343f9f5","type":"Feature","feature_type":"anchor","geometry":{"type":"Point","coordinates":[30.37356555605837,60.0072150095491]},"properties":{"unit_id":"7af27665-3019-4d47-a13c-40b3ba8d7334","address_id":"18c98953-cf5e-44c3-b874-591348673a96"}},{"id":"dae86bac-9ad4-4ec6-ad3e-c7441582216e","type":"Feature","feature_type":"anchor","geometry":{"type":"Point","coordinates":[30.373501728800196,60.007225926942041]},"properties":{"unit_id":"e1ff1bda-6bfe-4c24-9c02-17d131d308a0","address_id":"7a81e355-7363-455c-9081-e1a03ddd8ead"}},{"id":"1b96a11d-d754-4b4e-92d3-774f9e53a286","type":"Feature","feature_type":"anchor","geometry":{"type":"Point","coordinates":[30.374199574596314,60.007106563738652]},"properties":{"unit_id":"4b5547de-7cf1-4e6b-91db-378cf6e926be","address_id":"9116c2a9-03e3-405c-9561-efcc48817d4e"}},{"id":"601ed64c-7494-4dd1-afe7-26c64a34c47b","type":"Feature","feature_type":"anchor","geometry":{"type":"Point","coordinates":[30.374135747684672,60.007117481131594]},"properties":{"unit_id":"58daff34-0f6e-4274-a2e7-08d7816977c8","address_id":"c93d8965-14f7-40b3-8345-01380f8be4e7"}},{"id":"22342b26-4cff-4a56-9752-1cceaf264bad","type":"Feature","feature_type":"anchor","geometry":{"type":"Point","coordinates":[30.372577843928077,60.0073839515323]},"properties":{"unit_id":"1fbd2631-75ea-4d2d-bb74-784317b53a03","address_id":"5432e83a-abe6-40d0-8e25-a0fa3cfec490"}},{"id":"4e00c26d-7deb-445e-9226-671dd6b04f88","type":"Feature","feature_type":"anchor","geometry":{"type":"Point","coordinates":[30.372514016481105,60.007394868925239]},"properties":{"unit_id":"62bd4f1d-ea6c-4c2a-9d46-8267de2d9810","address_id":"8289a10a-d496-4c14-92ac-40ba7f319191"}},{"id":"7d8c15b3-5e37-457c-a138-7bf31b4f38c1","type":"Feature","feature_type":"anchor","geometry":{"type":"Point","coordinates":[30.372450188189578,60.007405786318181]},"properties":{"unit_id":"29964fcd-60e2-495f-89c1-27c1db1e3b2b","address_id":"b15be0c4-8042-4598-a5dc-0df2ddf7aaff"}},{"id":"40804bca-b3ab-4873-9575-bf6be2f2356a","type":"Feature","feature_type":"anchor","geometry":{"type":"Point","coordinates":[30.372386360425971,60.007416703711115]},"properties":{"unit_id":"60cccbff-39f6-410c-ae9a-d7a20f451069","address_id":"a1174367-996e-4d6f-b881-e083ae4e0fee"}},{"id":"2c4c4f71-cca9-4a11-9946-37084f9f4429","type":"Feature","feature_type":"anchor","geometry":{"type":"Point","coordinates":[30.372322532641306,60.0074276208296]},"properties":{"unit_id":"659b6637-afc7-469d-b87f-8a863a238b62","address_id":"01bffac8-b90e-4664-af83-948a57250850"}},{"id":"66dc8d8d-3b69-40d8-813d-ec501361f044","type":"Feature","feature_type":"anchor","geometry":{"type":"Point","coordinates":[30.372258704561048,60.007438538497]},"properties":{"unit_id":"41d06d0e-bc66-4f26-9ac3-a10dd6a9990e","address_id":"cb30c6e8-cdb4-442d-baa3-ca102465758f"}},{"id":"32e0b554-b359-44df-be45-f0ce6f4e8036","type":"Feature","feature_type":"anchor","geometry":{"type":"Point","coordinates":[30.37219487673423,60.007449455889933]},"properties":{"unit_id":"c96194b8-6ebe-41ca-9152-8ca7bf52ffcd","address_id":"de5d4e7b-1b37-4997-a624-451842699d28"}},{"id":"69790035-311a-40c0-bc30-456960d65745","type":"Feature","feature_type":"anchor","geometry":{"type":"Point","coordinates":[30.371539319544745,60.00756158428613]},"properties":{"unit_id":"b5b01a1b-5d32-4cd6-a7fa-3071c2989dbd","address_id":"2b43f991-f9da-4341-9578-694fd2b26fb1"}},{"id":"9c275ebb-872e-4553-97ce-ae0dcbdbbd46","type":"Feature","feature_type":"anchor","geometry":{"type":"Point","coordinates":[30.371632934513304,60.007545572256191]},"properties":{"unit_id":"1210b864-aaa2-462a-8c72-2ddc2e83ee75","address_id":"b461e963-19e0-4052-ad6f-8aa5621c8917"}},{"id":"a51a8a41-708b-45db-89a0-357ddce49cbe","type":"Feature","feature_type":"anchor","geometry":{"type":"Point","coordinates":[30.37169676225114,60.0075346545888]},"properties":{"unit_id":"650eb33f-5c9d-4cb4-993e-6aaf776e10b2","address_id":"aea9baa0-0dc4-4542-b2ab-183c7802da84"}},{"id":"a397815b-9abf-4639-b6e0-f6dc92ad156d","type":"Feature","feature_type":"anchor","geometry":{"type":"Point","coordinates":[30.371760590242371,60.007523737470315]},"properties":{"unit_id":"0382f89b-b0c4-46e1-a65d-a07f134b294c","address_id":"201558f9-b8d4-428b-9ba4-76e207deef38"}},{"id":"73940949-686d-4345-a8af-6fc6e0445000","type":"Feature","feature_type":"anchor","geometry":{"type":"Point","coordinates":[30.371824418212547,60.007512820077373]},"properties":{"unit_id":"361422c6-5121-4ed3-af12-6ebe3538b6a7","address_id":"306acaeb-c36e-4340-8bf6-568f7296c524"}}]}