{"type":"FeatureCollection","name":"anchor","features":[{"id":"68319822-54fe-4c85-9647-194e52b3cfff","type":"Feature","feature_type":"anchor","geometry":{"type":"Point","coordinates":[30.373273314223148,60.00761793531791]},"properties":{"unit_id":"0bc69477-2c06-462c-a018-693a1735806e","address_id":"09e5f143-8471-442a-a00e-c655284dd55f"}},{"id":"c424ec09-7ec5-4132-be52-6ec9709df6f6","type":"Feature","feature_type":"anchor","geometry":{"type":"Point","coordinates":[30.373166995984725,60.007664348303521]},"properties":{"unit_id":"96efc0f6-00d5-4214-9276-51109d5472c2","address_id":"fa86e8cd-366c-44ce-8a75-0d61bdd47d27"}},{"id":"a0f05155-1fe3-4f02-96ca-6fd8274ab98a","type":"Feature","feature_type":"anchor","geometry":{"type":"Point","coordinates":[30.37209399350181,60.007670983160466]},"properties":{"unit_id":"03c2ef65-0d49-41b7-8eae-24bc50bc9a05","address_id":"28db9430-ebb0-4752-a91b-3b3aaec314cf"}},{"id":"a19c381e-c48d-4de6-8dbb-592dd1caab03","type":"Feature","feature_type":"anchor","geometry":{"type":"Point","coordinates":[30.374028588197625,60.007344567684946]},"properties":{"unit_id":"52b50f2f-1024-43e1-9189-d78a4f78ea2f","address_id":"67cbe7dc-be41-4a6a-899d-621e8f2be2e9"}},{"id":"ac7ba089-fe8e-40f8-b3bd-637b970696c7","type":"Feature","feature_type":"anchor","geometry":{"type":"Point","coordinates":[30.37209399350181,60.007670983160466]},"properties":{"unit_id":"5617071b-9c30-49bd-b452-6590d77d71ef","address_id":"fd3be79a-6506-49a0-b687-3dd1eeca3ec5"}},{"id":"2944f510-fd07-459d-a9d6-748915b1fafe","type":"Feature","feature_type":"anchor","geometry":{"type":"Point","coordinates":[30.37209399350181,60.007670983160466]},"properties":{"unit_id":"948f174e-9fb0-43f3-927c-e659cc62cb9a","address_id":"9a6f7d5a-d732-41d0-891e-7b0cfc20685f"}},{"id":"41cd8dd3-0974-4c76-9759-db41ecdf3afc","type":"Feature","feature_type":"anchor","geometry":{"type":"Point","coordinates":[30.374028588197625,60.007344567684946]},"properties":{"unit_id":"33f4e6fb-2d54-46b9-b704-97c998cb9ebf","address_id":"8b331db1-8f8c-4eb8-bb8e-0ff14c39c187"}},{"id":"15c6375a-4e6a-4377-ae67-f4c3922fef24","type":"Feature","feature_type":"anchor","geometry":{"type":"Point","coordinates":[30.374028588197625,60.007344567684946]},"properties":{"unit_id":"2f49ff0f-7ee6-4576-8a4b-1e1ccf157870","address_id":"886e8605-3113-4279-bde1-b6ab67921865"}},{"id":"dffe306e-27a9-4010-90af-63004094b378","type":"Feature","feature_type":"anchor","geometry":{"type":"Point","coordinates":[30.374028588197625,60.007344567684946]},"properties":{"unit_id":"51e117db-add3-4a62-a80c-035d45de7ceb","address_id":"dd249f03-b871-47fa-9f01-c1b11b5d02b7"}},{"id":"36b2a533-1fa2-4edc-90aa-82405ef86b32","type":"Feature","feature_type":"anchor","geometry":{"type":"Point","coordinates":[30.374028588197625,60.007344567684946]},"properties":{"unit_id":"d85d8361-76ac-44b9-9453-480ad555f7d7","address_id":"18d0ff8f-e2d2-4b90-8ab7-be654b5a7678"}},{"id":"c8c1a697-15a1-411c-b80f-b29a79324dd7","type":"Feature","feature_type":"anchor","geometry":{"type":"Point","coordinates":[30.37209399350181,60.007670983160466]},"properties":{"unit_id":"7a962979-b045-4f5a-b45d-f5b9093a674f","address_id":"e17a07b5-f4e9-4bd4-9c28-36323ffe8305"}},{"id":"998765b6-4785-435b-aa57-d8e7eb34b415","type":"Feature","feature_type":"anchor","geometry":{"type":"Point","coordinates":[30.37209399350181,60.007670983160466]},"properties":{"unit_id":"ef48eb03-273a-4b0d-8c95-2c3cbdffcf08","address_id":"5ebcf440-ac39-426e-b18e-1be50e7be51d"}},{"id":"41ac7099-e017-4ec5-a81d-4e53493b63ef","type":"Feature","feature_type":"anchor","geometry":{"type":"Point","coordinates":[30.374507594890964,60.0067393350741]},"properties":{"unit_id":"d9ae4e3f-214c-44f9-90b7-e66c639a22d7","address_id":"32e6cbaf-d566-4e13-bdb9-3cb8f10a6eed"}},{"id":"2eaa8515-63b4-4537-b499-684838c5ae0f","type":"Feature","feature_type":"anchor","geometry":{"type":"Point","coordinates":[30.370838704725919,60.007358374225305]},"properties":{"unit_id":"cb4155d5-fde5-4a66-9564-0cd3e5196c9e","address_id":"b18306d8-5407-4b1b-86db-6fbcd505a0e8"}},{"id":"10d28ad0-f9d3-45f1-bcfa-51270cb9af6b","type":"Feature","feature_type":"anchor","geometry":{"type":"Point","coordinates":[30.371327649700717,60.008082657439658]},"properties":{"unit_id":"be5fd5bc-c7e4-41cb-a355-618cc3a6a3f2","address_id":"ead6afe1-286c-4ef8-b6c2-b2e1998f6200"}},{"id":"12a89d5f-ba38-42df-9422-bb985eeb5d66","type":"Feature","feature_type":"anchor","geometry":{"type":"Point","coordinates":[30.374996575326826,60.007463618288448]},"properties":{"unit_id":"1dc5cc4d-726a-4600-8968-3c91ce8c634d","address_id":"011a1144-7f71-493e-baf0-ca1fdff4b55b"}},{"id":"5a94dea0-f187-4b9a-bfd7-a5be04c70127","type":"Feature","feature_type":"anchor","geometry":{"type":"Point","coordinates":[30.374790094008198,60.0075233726197]},"properties":{"unit_id":"3c001852-e64e-463f-8b36-b39f86cfc6bf","address_id":"f1e1f687-76b6-4116-9114-fe04bdd4250d"}},{"id":"1193c795-00e5-44bf-8768-efc00b912d11","type":"Feature","feature_type":"anchor","geometry":{"type":"Point","coordinates":[30.374507594890964,60.0067393350741]},"properties":{"unit_id":"d8541040-6ac8-4468-99b1-2fd32906ab04","address_id":"899a0334-f8d4-4b4c-aa00-d503e06b5d9c"}},{"id":"c7a24cba-204e-4ae4-b2b6-753535549b43","type":"Feature","feature_type":"anchor","geometry":{"type":"Point","coordinates":[30.370838704725919,60.007358374225305]},"properties":{"unit_id":"8ba21960-c7f2-4922-8201-ab00cc8cbfee","address_id":"5ae4e401-6404-4f82-889c-da4780fabbae"}},{"id":"a6e8a0d0-a9fa-4397-9b05-6777ccaf1a33","type":"Feature","feature_type":"anchor","geometry":{"type":"Point","coordinates":[30.371327649700717,60.008082657439658]},"properties":{"unit_id":"ce0b80b0-2e17-48da-a07c-da116b8ffd17","address_id":"b6c88ad5-b8d7-4847-8396-4fe9ee2ae4b2"}},{"id":"c5c6ec5a-b33d-44a7-a2c2-74e470339aab","type":"Feature","feature_type":"anchor","geometry":{"type":"Point","coordinates":[30.374996575326826,60.007463618288448]},"properties":{"unit_id":"eb9282e6-795e-4acc-80db-516935e7605c","address_id":"1702a86d-f744-44eb-b166-73816eec4d8e"}},{"id":"1299e90b-a091-4534-bfda-4a1d8fb0128c","type":"Feature","feature_type":"anchor","geometry":{"type":"Point","coordinates":[30.371180454913137,60.007319695273559]},"properties":{"unit_id":"d0efa42f-9cc5-44ec-9e84-3726027ca58b","address_id":"4f3e60b3-21cb-4830-acb7-b185a06fbc7d"}},{"id":"15eda91b-54bc-4a17-9505-f0edcbc4053f","type":"Feature","feature_type":"anchor","geometry":{"type":"Point","coordinates":[30.371669403069713,60.008043978487912]},"properties":{"unit_id":"6c3b48b6-0efb-473d-a730-50690c74933e","address_id":"26deebc5-a9c0-49d0-a6d9-046448bbe39f"}},{"id":"75b242ef-e35f-4c8c-921f-1d573b9ff430","type":"Feature","feature_type":"anchor","geometry":{"type":"Point","coordinates":[30.374818457537582,60.007512654752759]},"properties":{"unit_id":"e148f4aa-e45e-4e76-b540-ff39feb4f466","address_id":"77b44125-1a49-4350-9a7f-f8a9b82353ab"}},{"id":"426672f2-bfb9-45f8-8d10-80bedb594d7f","type":"Feature","feature_type":"anchor","geometry":{"type":"Point","coordinates":[30.374329478689578,60.006788371538406]},"properties":{"unit_id":"e9a6416a-29da-47b4-8926-6bc87b0d1dda","address_id":"eaf262ee-5cba-434c-a13d-f5d1e0d5b09b"}},{"id":"bddbfba4-6036-4e8a-a526-2b7758e12e6d","type":"Feature","feature_type":"anchor","geometry":{"type":"Point","coordinates":[30.371451876584008,60.007767459606654]},"properties":{"unit_id":"3a0500bc-1dc8-4b2f-a4b2-9b3f58eb770b","address_id":"d216dc14-d70b-4d14-b0eb-24f87896e9b8"}},{"id":"f9be0926-9453-4d4b-93c0-dd7aa21a2904","type":"Feature","feature_type":"anchor","geometry":{"type":"Point","coordinates":[30.371382977554042,60.007777897807856]},"properties":{"unit_id":"3ea6696d-1eb1-40e0-928f-7240f60738c9","address_id":"a0192ba4-5a52-4a6d-8a59-bb583bf00221"}},{"id":"771c1661-7396-4b9e-8c04-469f339f6334","type":"Feature","feature_type":"anchor","geometry":{"type":"Point","coordinates":[30.374455182831078,60.006767161677836]},"properties":{"unit_id":"1be8ef3f-3cb1-4061-9d63-af2c46e62b92","address_id":"d16754fd-f3da-4346-a36a-7e2ec8f8b2c0"}},{"id":"26d783cd-b524-4f19-8370-61a55f575811","type":"Feature","feature_type":"anchor","geometry":{"type":"Point","coordinates":[30.374944162898743,60.007491444892189]},"properties":{"unit_id":"cce973fb-1f02-43cb-b176-a3293c9bfc69","address_id":"7706495d-6784-4daa-99df-00fd2b990b7d"}},{"id":"a503b610-0f6d-429d-9498-14f3ff254784","type":"Feature","feature_type":"anchor","geometry":{"type":"Point","coordinates":[30.371543695608402,60.008065188074035]},"properties":{"unit_id":"b39f1659-8104-4119-9fc2-c823d40f72e5","address_id":"b96907ba-2d9d-44e9-abe9-95bc696cc53e"}},{"id":"8e2c6ae2-38ee-4f37-abf8-8b4f6966931b","type":"Feature","feature_type":"anchor","geometry":{"type":"Point","coordinates":[30.374898381241426,60.007455270581779]},"properties":{"unit_id":"19b0366b-42a3-4189-9511-2d72b3a660be","address_id":"3d022954-6157-4356-9e42-505df1d43915"}},{"id":"8bf32dac-19d3-4d05-839b-9c3dab44675a","type":"Feature","feature_type":"anchor","geometry":{"type":"Point","coordinates":[30.371512829632721,60.008026497595331]},"properties":{"unit_id":"13baa446-1487-444c-8b51-e6cb5ec33b15","address_id":"1053ad4d-b2af-4eda-a834-0a4ba1a7375e"}},{"id":"d2a19850-4d6d-4a8a-857f-ff714eaf23ac","type":"Feature","feature_type":"anchor","geometry":{"type":"Point","coordinates":[30.370969365098162,60.0073339554817]},"properties":{"unit_id":"16a4b03e-350d-4b7e-a95d-d58e81f34c82","address_id":"e1eb0100-8b5b-4386-a951-f6ba03ef5dcf"}},{"id":"f66d142c-0d85-4fea-9e44-b18e42207c3e","type":"Feature","feature_type":"anchor","geometry":{"type":"Point","coordinates":[30.374486050077429,60.006805852156539]},"properties":{"unit_id":"b0ad45e9-4cf7-492a-9c37-17edd833e17f","address_id":"306013db-93f3-4e7a-955e-56ae87e67bdf"}},{"id":"bb8b3e9b-75af-4e90-84d9-ae3242bea773","type":"Feature","feature_type":"anchor","geometry":{"type":"Point","coordinates":[30.371077091408949,60.007381033462487]},"properties":{"unit_id":"99abd60c-ef4f-416f-ae13-a0e5a7c89bed","address_id":"e810418a-d926-422d-9c35-0de07edf7ced"}},{"id":"ffbd1a46-2031-4099-9195-5537d43ad5d6","type":"Feature","feature_type":"anchor","geometry":{"type":"Point","coordinates":[30.370994456235245,60.007265654192231]},"properties":{"unit_id":"bb5cdb1e-b96a-48a2-ae03-fc34e7473a79","address_id":"cade7ec8-f844-4bc7-ad7d-41cf39463d8a"}},{"id":"13a25b2b-36a5-4a70-90f4-41b63b257e22","type":"Feature","feature_type":"anchor","geometry":{"type":"Point","coordinates":[30.374411931616084,60.006689034762168]},"properties":{"unit_id":"7f30c6ff-0abe-4989-b945-4bc91b368ed3","address_id":"4793e924-46b9-4ca4-b387-481985ec50bb"}},{"id":"1414025e-e35e-44ea-9ceb-a03ec9d15012","type":"Feature","feature_type":"anchor","geometry":{"type":"Point","coordinates":[30.374236267686488,60.00716003413099]},"properties":{"unit_id":"efbde408-47c3-4faf-a6eb-702e958d289d","address_id":"84456ae5-42e7-47b7-bfbb-c714d3592668"}},{"id":"f3af3651-fade-45f1-ac63-7e5b05edc418","type":"Feature","feature_type":"anchor","geometry":{"type":"Point","coordinates":[30.373639700665954,60.007260690742889]},"properties":{"unit_id":"27a0be9c-4a98-41c5-8888-e3479c556814","address_id":"e1eec464-1cb4-457e-a456-11716653b521"}},{"id":"c3a59bbe-a2a1-4851-8a2a-111f97547118","type":"Feature","feature_type":"anchor","geometry":{"type":"Point","coordinates":[30.372301679001023,60.00748644960651]},"properties":{"unit_id":"fdbdf20f-c8ed-4d9b-a2de-4b42dbe6f2b8","address_id":"426f81a5-d5f6-45d3-b538-204e38a457d1"}},{"id":"4a9fea2f-b46a-419a-b766-775bf38fe028","type":"Feature","feature_type":"anchor","geometry":{"type":"Point","coordinates":[30.371705106641507,60.007587106218416]},"properties":{"unit_id":"09e41ce5-ebee-4c99-91b0-cc710c01c0ba","address_id":"497ea632-cf78-478f-af4a-032efcaed69f"}},{"id":"83d5b435-caa4-42c3-a704-34fb8f9242cd","type":"Feature","feature_type":"anchor","geometry":{"type":"Point","coordinates":[30.374101215358859,60.0074521451319]},"properties":{"unit_id":"a03cf687-dfd1-4f42-adc3-797c7d19577b","address_id":"d432b82e-f2dc-4d5f-b1cf-5a6f4b307c9a"}},{"id":"e4ce1f63-3968-4ce0-9125-cce62d7428dd","type":"Feature","feature_type":"anchor","geometry":{"type":"Point","coordinates":[30.3721853134636,60.007806253827894]},"properties":{"unit_id":"fc66c60c-5580-4d4a-8aa2-cf22fe338677","address_id":"a2adc701-fd60-4133-a17f-54a767fb03ec"}},{"id":"15708fa0-0096-4f92-83e3-11d2d7fa54ed","type":"Feature","feature_type":"anchor","geometry":{"type":"Point","coordinates":[30.37402139736982,60.007333916509637]},"properties":{"unit_id":"a9011b6c-561c-40fa-a6be-768a797981c0","address_id":"aab25af1-c5f6-401e-acc6-4dc850bb67bc"}},{"id":"0771bd99-8f84-4c3a-940a-c31b3047c8f3","type":"Feature","feature_type":"anchor","geometry":{"type":"Point","coordinates":[30.372086802950044,60.007660331985157]},"properties":{"unit_id":"c267587a-b3e0-401e-9ae2-bac789ff60e7","address_id":"317f1f53-ddea-4dbc-a60e-87ceed924271"}},{"id":"15a2f1cb-da05-4ea1-8c57-0d5a3de63d6f","type":"Feature","feature_type":"anchor","geometry":{"type":"Point","coordinates":[30.375004460583291,60.007566695834086]},"properties":{"unit_id":"270b14c7-f9bb-444d-bee0-7e57da9786aa","address_id":"975f3f65-2781-44fa-910d-f0285b1dcab7"}},{"id":"72f11e14-095a-42fa-a011-3fe92df0392e","type":"Feature","feature_type":"anchor","geometry":{"type":"Point","coordinates":[30.371586945021633,60.0081433149897]},"properties":{"unit_id":"9dd154dd-46d6-4f97-96d0-299b5a9b28e0","address_id":"4595e222-6434-4b07-97be-6cf52d4f23f3"}},{"id":"2726cef6-8d69-40c9-bf13-66a1085a57f2","type":"Feature","feature_type":"anchor","geometry":{"type":"Point","coordinates":[30.373531409307184,60.007898288556412]},"properties":{"unit_id":"6027c8e7-8e83-4067-8981-1be25f907dc0","address_id":"9fce965c-a054-4e6a-b27b-55577ba3b399"}},{"id":"445db41d-d9e5-4a5a-a5b8-c9e2586e9ca9","type":"Feature","feature_type":"anchor","geometry":{"type":"Point","coordinates":[30.373503711196655,60.007902961910865]},"properties":{"unit_id":"37530dca-daf0-4184-88da-c2da416a60e8","address_id":"31033a06-696a-47a8-8317-3a08cb7e403d"}},{"id":"9e6c129b-cce8-448b-9076-1e1d509bcb90","type":"Feature","feature_type":"anchor","geometry":{"type":"Point","coordinates":[30.373132982875912,60.007965512625049]},"properties":{"unit_id":"adda0028-995a-4910-8586-d64150dfdb40","address_id":"5d644504-3202-427e-beb2-504de69a5ecc"}},{"id":"de9a9aef-8c87-4ed5-ad18-b6dd4c1e20e1","type":"Feature","feature_type":"anchor","geometry":{"type":"Point","coordinates":[30.370917754129675,60.00727859566252]},"properties":{"unit_id":"7817fbad-c327-44cd-9ef1-765dd5c8766b","address_id":"85da2728-f6e9-4bf6-b01f-0015c34e1fad"}},{"id":"80161500-3c57-48c4-b9ab-e5a836f8a6b8","type":"Feature","feature_type":"anchor","geometry":{"type":"Point","coordinates":[30.370872318376009,60.007288634811729]},"properties":{"unit_id":"6e83e21d-c4bf-45ba-8bc9-2fe280ba8c52","address_id":"29a522f9-5041-4184-855e-82afacb186a2"}},{"id":"4b645be9-73a3-4725-9daf-8d488c5a5ce9","type":"Feature","feature_type":"anchor","geometry":{"type":"Point","coordinates":[30.371119469929788,60.00724693415264]},"properties":{"unit_id":"85d664c9-c98e-460c-a6f7-5586fd3804df","address_id":"88ff065b-c643-415d-99f7-c754dcd4a4dd"}},{"id":"d6c484fd-b930-40e3-8a99-76fe9d698315","type":"Feature","feature_type":"anchor","geometry":{"type":"Point","coordinates":[30.370988439187887,60.007221584470678]},"properties":{"unit_id":"5190f9b9-c8ed-4b70-82fc-2b133df6584d","address_id":"adee67d9-f41e-4978-ab6a-343bdea58d52"}},{"id":"fe68d5aa-7f1c-41e8-9dc8-2e127bc3920e","type":"Feature","feature_type":"anchor","geometry":{"type":"Point","coordinates":[30.371145354875029,60.007285278548416]},"properties":{"unit_id":"d604a5ab-3d0e-4330-af28-a3da44764fdb","address_id":"b6224494-6fea-4abf-b051-f972cd46ceb9"}},{"id":"818beb98-e349-4892-b3e9-0e430e299213","type":"Feature","feature_type":"anchor","geometry":{"type":"Point","coordinates":[30.371090708548724,60.007204329176957]},"properties":{"unit_id":"8a66953d-d320-46bb-93a7-954659c3d6e9","address_id":"9a0ecd97-8b24-4e12-b535-58845c2924c1"}},{"id":"293b8735-984f-4fcc-8077-f36413413191","type":"Feature","feature_type":"anchor","geometry":{"type":"Point","coordinates":[30.370843557136009,60.007246029836047]},"properties":{"unit_id":"9fcd2417-c102-4a8c-aa68-64b0c5110e0c","address_id":"39826f28-3a37-48eb-8e08-448a92cfdf2c"}},{"id":"637933ca-622b-4ce1-8ae0-0b0d8c0835ed","type":"Feature","feature_type":"anchor","geometry":{"type":"Point","coordinates":[30.370898203194294,60.007326979207505]},"properties":{"unit_id":"d9dee5ee-06d5-4900-89a0-9211dbbf5957","address_id":"fd62e588-55f2-4f11-84bd-d1c5e693847b"}},{"id":"6055a068-5a62-4f27-aa7b-fac3c93c772f","type":"Feature","feature_type":"anchor","geometry":{"type":"Point","coordinates":[30.371015308124854,60.007296542847634]},"properties":{"unit_id":"07f6271d-b0ba-4e90-a5ad-80f5a2eb410d","address_id":"3718ecca-297a-4bda-b8e8-d53282121eb8"}},{"id":"ab886919-d894-480c-bfb0-11c831eb7d78","type":"Feature","feature_type":"anchor","geometry":{"type":"Point","coordinates":[30.373273314223148,60.00761793531791]},"properties":{"unit_id":"e3548b45-4b42-4580-a456-0738823892d1","address_id":"b01e8e3f-b536-4d60-8d4e-f035471838f8"}},{"id":"dfc89b74-b567-4517-97f2-2e4dc6b843c8","type":"Feature","feature_type":"anchor","geometry":{"type":"Point","coordinates":[30.37324791779503,60.007784213752544]},"properties":{"unit_id":"a91226a4-2f21-4dec-a42d-85afd7426173","address_id":"01772cb7-3ffd-440f-8cff-5f9eaebb0e10"}},{"id":"bb2b7054-fc86-4907-acb1-a27177f3d8c8","type":"Feature","feature_type":"anchor","geometry":{"type":"Point","coordinates":[30.373160681038829,60.007960839270595]},"properties":{"unit_id":"3646e923-0068-4770-95c6-3f62ba2efcd0","address_id":"14122176-829b-4ba8-a347-d65dae3e9984"}},{"id":"0afa73a6-68af-4aab-af63-d0b3e5343b6b","type":"Feature","feature_type":"anchor","geometry":{"type":"Point","coordinates":[30.373467490690246,60.007909073389435]},"properties":{"unit_id":"d21ffdd3-2e76-400d-a7d6-e7c4c319b78a","address_id":"103c71b2-0d5a-498b-b984-a5b4dd9df14a"}},{"id":"fa4d4890-2006-455b-9e50-cf7534de42cd","type":"Feature","feature_type":"anchor","geometry":{"type":"Point","coordinates":[30.373224599755805,60.007950054986466]},"properties":{"unit_id":"b1270b29-9850-427f-80ff-4a89d51a306e","address_id":"be056915-7dc6-454b-a6a8-c84542f63c86"}},{"id":"5fae8a6a-952d-448e-9b7d-abf59347eea1","type":"Feature","feature_type":"anchor","geometry":{"type":"Point","coordinates":[30.373343011562465,60.007619226336196]},"properties":{"unit_id":"d342df7c-0199-4b96-af84-48b9a75c8924","address_id":"e55526fc-8d2d-49ee-97ed-65eaff2c2446"}},{"id":"ffd1c2cc-375c-4263-9ebe-e6e2c4bcb964","type":"Feature","feature_type":"anchor","geometry":{"type":"Point","coordinates":[30.373253525827455,60.007634324992651]},"properties":{"unit_id":"e57ff6bb-70f5-4116-95c4-71658b7d6fca","address_id":"1a6cfcb0-8c69-4c2e-bf9c-4530dade7d20"}},{"id":"cb275935-4520-4602-9c2c-52f9b9bf67b0","type":"Feature","feature_type":"anchor","geometry":{"type":"Point","coordinates":[30.373025550125593,60.007672790146941]},"properties":{"unit_id":"ab33a450-bec8-4e35-b984-1e4a750390d1","address_id":"337f686b-9edd-45c2-bb51-b3447b861c12"}},{"id":"9c55288e-82d5-4770-9f8e-6c87d7f62742","type":"Feature","feature_type":"anchor","geometry":{"type":"Point","coordinates":[30.374291128243524,60.006794842273557]},"properties":{"unit_id":"2f1d2aa1-4158-47f7-be69-5756b2a20bcc","address_id":"ad6fbe36-5282-49ea-a519-69ed649fbaff"}},{"id":"4cc98238-6fd5-484e-8e65-63ad07162f36","type":"Feature","feature_type":"anchor","geometry":{"type":"Point","coordinates":[30.37496838477913,60.007449984926772]},"properties":{"unit_id":"093cb3a4-42f8-4820-a8f9-23f6df0c5b5b","address_id":"49d0505b-3452-4b3c-8b36-f0125a10960f"}},{"id":"9685dac4-1df3-4fb7-a5b9-9a706782ebf7","type":"Feature","feature_type":"anchor","geometry":{"type":"Point","coordinates":[30.374930991763108,60.007394598485831]},"properties":{"unit_id":"073e4b75-8726-416b-b21a-7450c7518920","address_id":"95f55846-b79c-474c-803d-ea1e3e5c0c72"}},{"id":"dbbe9c34-8ea6-4f76-9915-aac6e215062e","type":"Feature","feature_type":"anchor","geometry":{"type":"Point","coordinates":[30.374897194293833,60.007344537769768]},"properties":{"unit_id":"59bb4906-f65b-4e09-9d07-22e134e010b5","address_id":"57d03258-808f-4965-87e8-e31549d648be"}},{"id":"9a743145-7643-48f4-87f6-44bb65548766","type":"Feature","feature_type":"anchor","geometry":{"type":"Point","coordinates":[30.374828880606209,60.007243350918209]},"properties":{"unit_id":"9d3a37f1-9c44-4c94-90c5-d883e69db2d0","address_id":"c4b4a232-e4ed-403b-be58-e786aab19367"}},{"id":"b65d3fa2-ad7b-4269-bd54-2b64f085a4fc","type":"Feature","feature_type":"anchor","geometry":{"type":"Point","coordinates":[30.374863037423893,60.007293944343992]},"properties":{"unit_id":"34e4f14c-652b-4de7-8f47-fc0b720c8503","address_id":"8de0e51e-7bc1-4c08-9fdf-27922c6308dd"}},{"id":"d2f2c265-b279-403e-8cb0-023291e4d381","type":"Feature","feature_type":"anchor","geometry":{"type":"Point","coordinates":[30.374806588737069,60.007210332247311]},"properties":{"unit_id":"35d640f0-32b2-407a-9418-27e134591a1c","address_id":"b6d3ac9f-9cae-4fd9-a531-99b7fc8213b8"}},{"id":"a7c8aed8-376e-4f32-a651-fdfe6e8719be","type":"Feature","feature_type":"anchor","geometry":{"type":"Point","coordinates":[30.374781061011983,60.007172520286794]},"properties":{"unit_id":"112a87cd-d3b4-430b-abd2-ebfc3c004b92","address_id":"98f75443-c269-48e9-9962-222374839024"}},{"id":"e249789a-33b3-441f-8e29-b3b11da8098d","type":"Feature","feature_type":"anchor","geometry":{"type":"Point","coordinates":[30.374576121230319,60.006868960555487]},"properties":{"unit_id":"fc7a79e4-d262-4687-b377-471585c89bda","address_id":"0ee6cb21-5040-4959-b1ad-c9627eb938ff"}},{"id":"67dae50b-0f09-4944-807d-e065b59f519a","type":"Feature","feature_type":"anchor","geometry":{"type":"Point","coordinates":[30.3745344144145,60.006807183519143]},"properties":{"unit_id":"ce632f9b-c3ed-4ada-a8dd-6742df4bb80f","address_id":"a0ef481a-95b5-423c-8ba3-c92893c98dd2"}},{"id":"30324287-dd5a-463f-b252-aa92e4381b74","type":"Feature","feature_type":"anchor","geometry":{"type":"Point","coordinates":[30.374655939649816,60.006987189177757]},"properties":{"unit_id":"a12d847e-0fe0-4b7f-8829-e4a205b11dda","address_id":"424d07b8-219f-4348-9b84-1b79e6586e24"}},{"id":"cee45798-ea0f-49e7-a8b6-06bd33dbf9b2","type":"Feature","feature_type":"anchor","geometry":{"type":"Point","coordinates":[30.37460812056322,60.006916358546341]},"properties":{"unit_id":"c7099632-e19b-4a83-8d25-91cc9218d9d2","address_id":"9957753d-e816-4080-803c-9e37d13e597f"}},{"id":"14d6739c-2e6b-4515-83cc-2e03c1f9adb4","type":"Feature","feature_type":"anchor","geometry":{"type":"Point","coordinates":[30.374630412096966,60.006949377217239]},"properties":{"unit_id":"eed1c008-9d99-441d-9070-26a674801955","address_id":"650bcae1-17e9-41c8-89d9-9608e4c5f786"}},{"id":"98e1fc12-da79-4a73-a7d2-1630a161a088","type":"Feature","feature_type":"anchor","geometry":{"type":"Point","coordinates":[30.374691174961811,60.00703938018377]},"properties":{"unit_id":"6acc9a91-a51a-4bce-9588-53743ae110eb","address_id":"7222f434-9ece-4cb0-8334-f81f19ef7f4f"}},{"id":"aca08a4d-4232-461f-9aa2-defe224acf79","type":"Feature","feature_type":"anchor","geometry":{"type":"Point","coordinates":[30.374743668309669,60.007117134120307]},"properties":{"unit_id":"35dc89a6-0c33-4d76-8eaf-70e6187baf6b","address_id":"24e559bf-d05f-4262-b48f-ed3f54043b28"}},{"id":"0ae242fd-b7a8-4a81-8161-b4e031e05e93","type":"Feature","feature_type":"anchor","geometry":{"type":"Point","coordinates":[30.374281966361952,60.006710963684796]},"properties":{"unit_id":"4c6457e8-073b-42a6-9f31-e3bdfd4bd51e","address_id":"f74bfa45-5984-4317-99dc-0d019b51696f"}},{"id":"ccfb0ca6-d962-4441-a871-36cd93b63d62","type":"Feature","feature_type":"anchor","geometry":{"type":"Point","coordinates":[30.374477979521593,60.006677890672563]},"properties":{"unit_id":"2d09ed78-90d4-4fb0-89b3-811a6504aa53","address_id":"39890ad9-812c-4172-9932-b36615913d93"}},{"id":"a6a10190-fdae-42a7-bbe5-6c40b3d40c1d","type":"Feature","feature_type":"anchor","geometry":{"type":"Point","coordinates":[30.372925390085364,60.007306467276251]},"properties":{"unit_id":"b7f3c896-19ea-4e8d-9577-032b6dcc1383","address_id":"14ee6cf0-aaaa-4983-a1cd-d200ef8cd12e"}},{"id":"c246d807-0e6d-41aa-91df-f28f6c367902","type":"Feature","feature_type":"anchor","geometry":{"type":"Point","coordinates":[30.372582388126975,60.007415357697589]},"properties":{"unit_id":"c3c869dc-3e5b-499f-8731-93514f121b35","address_id":"b07f5e54-b055-4a2f-b280-601448ca9f99"}},{"id":"469ce90e-781d-4e70-a6f9-a5ea9a181f97","type":"Feature","feature_type":"anchor","geometry":{"type":"Point","coordinates":[30.372481183882822,60.007432433500242]},"properties":{"unit_id":"6cec0436-0343-4c27-876e-1b5a013bd341","address_id":"06aeb0d8-4736-4da7-841a-e0ea5eb0fb11"}},{"id":"8f8642e2-45be-48cc-b7ae-1cee0137d6da","type":"Feature","feature_type":"anchor","geometry":{"type":"Point","coordinates":[30.372382110244175,60.007449149771872]},"properties":{"unit_id":"039e129b-a38a-44e8-aae1-b42c781a3b29","address_id":"78988429-05aa-4b12-accf-704e240578d3"}},{"id":"cf89fc16-73cf-4058-9013-36a59304252f","type":"Feature","feature_type":"anchor","geometry":{"type":"Point","coordinates":[30.372316061489922,60.007460293861477]},"properties":{"unit_id":"86f982d4-bb9d-4b5d-8013-bc8be717f73d","address_id":"d5bbdbfd-1412-43d6-9799-119cc81d638b"}},{"id":"ecaacbdd-6e52-4886-a561-49dafd5a5525","type":"Feature","feature_type":"anchor","geometry":{"type":"Point","coordinates":[30.372250012164422,60.007471437951075]},"properties":{"unit_id":"dcb4f1a7-9503-477a-83e1-13e423fd1de1","address_id":"94a5893c-96ac-463d-898d-a0019428d22c"}},{"id":"bbce0302-f85c-472b-9d3a-145af21f9419","type":"Feature","feature_type":"anchor","geometry":{"type":"Point","coordinates":[30.372183963365657,60.00748258204068]},"properties":{"unit_id":"0c9e4a23-3618-4f08-a48f-68907833a5c2","address_id":"d6071e57-0cd8-458f-8ff8-d3dbbaf0c87d"}},{"id":"4804e5de-3bd2-4341-81ad-138640596c1b","type":"Feature","feature_type":"anchor","geometry":{"type":"Point","coordinates":[30.374790094008198,60.0075233726197]},"properties":{"unit_id":"2ef5f4e6-aaac-4b4c-a51d-032414fd823f","address_id":"d0db8bbc-2bad-44ed-b5e9-d2fc4736a58d"}},{"id":"123b7034-34f3-4895-bbe8-7c5e07679cce","type":"Feature","feature_type":"anchor","geometry":{"type":"Point","coordinates":[30.374402986288363,60.007108174936434]},"properties":{"unit_id":"eb589893-ca6e-4547-bd58-d2db41d6486e","address_id":"2831e4fa-3369-4116-82c0-6d971677b84e"}},{"id":"609da1af-2df8-4be2-b66e-95d7f0ce4129","type":"Feature","feature_type":"anchor","geometry":{"type":"Point","coordinates":[30.374316697441795,60.007122734296352]},"properties":{"unit_id":"a130b74e-d309-41b0-b275-4678bea193f3","address_id":"f1494e55-a3d8-470d-9f3b-5ef7cb65d58b"}},{"id":"f4c878e2-b2cf-42b7-b6c1-a25e8ef3a2ec","type":"Feature","feature_type":"anchor","geometry":{"type":"Point","coordinates":[30.374250649064926,60.00713387838595]},"properties":{"unit_id":"fb2b2de5-68ae-40c7-a1a6-ce0637f9d9b8","address_id":"b6b5f3a7-1358-4994-aed9-a706d66782f9"}},{"id":"7cb3ebb0-158d-43bd-a7cc-3f7a6de04df6","type":"Feature","feature_type":"anchor","geometry":{"type":"Point","coordinates":[30.3741846006658,60.007145022475555]},"properties":{"unit_id":"87d8407a-49ed-47c4-a0f6-8404e0437575","address_id":"44e41503-6391-4dd3-bb83-7cba1a19ed05"}},{"id":"cb7ad2c4-6fb9-4788-88e2-0078d4c7be51","type":"Feature","feature_type":"anchor","geometry":{"type":"Point","coordinates":[30.373596556005896,60.007244241237792]},"properties":{"unit_id":"73d4de0a-9f47-46e4-98c4-a10198dde6cb","address_id":"7839926b-7419-43df-aff8-f8f1a83abcc7"}},{"id":"f48e772e-7540-4e26-b3a6-f7b4cc9056d5","type":"Feature","feature_type":"anchor","geometry":{"type":"Point","coordinates":[30.374118552244418,60.00715616656516]},"properties":{"unit_id":"8cd5faca-930f-4b46-9fcb-13db625cebed","address_id":"23e1bbe9-67f9-488e-9680-6e600e80901c"}},{"id":"3e7db27d-17d5-49f6-b22e-3856245ef6a0","type":"Feature","feature_type":"anchor","geometry":{"type":"Point","coordinates":[30.373917850200318,60.007180538926519]},"properties":{"unit_id":"1b3bfb8e-c887-4d2a-a4ab-45b52eab00bb","address_id":"dba4cb9c-fca3-424c-90f7-7fc4649864e6"}},{"id":"34918c7c-cbc4-46f4-b99e-f40d36495d66","type":"Feature","feature_type":"anchor","geometry":{"type":"Point","coordinates":[30.37319661612965,60.00725121284632]},"properties":{"unit_id":"c819c8dd-e4ff-4f9f-addc-d11d1db3090b","address_id":"916df6d7-dde1-4edd-ab0c-4c92e73451ad"}},{"id":"d54f7010-95e8-4237-aab3-7acde5d2c7fe","type":"Feature","feature_type":"anchor","geometry":{"type":"Point","coordinates":[30.374103681490748,60.007458610378023]},"properties":{"unit_id":"767d0df8-e2de-4008-87ce-543fc14677f2","address_id":"84e61fb1-04b3-4255-98f3-ee0a52f24f0d"}},{"id":"b7d955d8-1833-49c2-988e-4f6bdcdfee4d","type":"Feature","feature_type":"anchor","geometry":{"type":"Point","coordinates":[30.374252454727632,60.007398448761236]},"properties":{"unit_id":"4aeffd55-755c-460e-bf8f-af569529127c","address_id":"8a9f104a-975d-4fed-bf40-ad8f6d4b232f"}},{"id":"81e19c93-748a-4b8a-a1f5-2fd9adb5fa6d","type":"Feature","feature_type":"anchor","geometry":{"type":"Point","coordinates":[30.3739430180772,60.007407650285487]},"properties":{"unit_id":"3269f37b-1556-4121-88c5-8a53018e8927","address_id":"504a0c6c-87ec-4629-959b-dc05313099f3"}},{"id":"72ddc420-ced0-47a3-8a58-4ac5db523618","type":"Feature","feature_type":"anchor","geometry":{"type":"Point","coordinates":[30.371341148738317,60.007842498123352]},"properties":{"unit_id":"f71033f4-eb97-4d15-8b81-6b77e4e14618","address_id":"a3a60cf3-8a51-40e1-b057-c8d4d8fd66a4"}},{"id":"566e8d03-4265-4dcc-a553-a0b6d6eacf4c","type":"Feature","feature_type":"anchor","geometry":{"type":"Point","coordinates":[30.371363438953342,60.00787551679425]},"properties":{"unit_id":"7c388b27-3aec-468d-bd8b-c9d8919fc15a","address_id":"18cacd9c-c956-4be5-85f8-1638c51ce8b1"}},{"id":"731f2ef4-a1b8-4529-bc97-c402bdfceca8","type":"Feature","feature_type":"anchor","geometry":{"type":"Point","coordinates":[30.371385729190603,60.0079085357396]},"properties":{"unit_id":"b7647d93-f2f7-4c55-bf13-64b2ed0f8d6b","address_id":"bc6a43ca-2279-436c-8b53-478b1e3a5928"}},{"id":"34c1c790-c989-4044-85e6-81ab4206f4ae","type":"Feature","feature_type":"anchor","geometry":{"type":"Point","coordinates":[30.37140801972463,60.0079415544105]},"properties":{"unit_id":"18601bbd-b062-4c4b-8c8e-d22039dcc126","address_id":"271db24b-db7f-46af-91ae-d55890664cb0"}},{"id":"51827ef3-1c00-4e14-9c60-ae709d1472a8","type":"Feature","feature_type":"anchor","geometry":{"type":"Point","coordinates":[30.371430310006417,60.0079745730814]},"properties":{"unit_id":"6a320de3-f257-4bf8-81f1-71b6627a75cc","address_id":"43be9f24-2851-4022-a8ea-cee57b52bb60"}},{"id":"ca7a8054-609d-4c17-ae71-fc3cb219bf2b","type":"Feature","feature_type":"anchor","geometry":{"type":"Point","coordinates":[30.371452600310455,60.008007591752296]},"properties":{"unit_id":"fb0d4e25-aee1-444f-8f80-cf45f77c8cbb","address_id":"07b34bd0-b89c-4fbe-9c70-79bbdeb04f24"}},{"id":"36c43313-de45-4e04-9baa-27fb7f9b4ca9","type":"Feature","feature_type":"anchor","geometry":{"type":"Point","coordinates":[30.371474890911248,60.0080406104232]},"properties":{"unit_id":"093bf2e7-d87c-45ba-ab41-1309b52109ae","address_id":"a58e0b1b-3adb-41c6-b050-75bab12e9370"}},{"id":"a9038f55-aa17-4542-8eef-4a8ca474f6ac","type":"Feature","feature_type":"anchor","geometry":{"type":"Point","coordinates":[30.37102980553512,60.007381299954574]},"properties":{"unit_id":"91e502cc-84c8-47f2-aab6-44dd0d9fbcf5","address_id":"de6556ee-6354-4a7c-8278-b0d94c0dc1cf"}},{"id":"1ea6f92e-34a5-4054-998e-324dfadbcc6c","type":"Feature","feature_type":"anchor","geometry":{"type":"Point","coordinates":[30.371052095439289,60.007414318899926]},"properties":{"unit_id":"6c99188f-d47a-4de4-83fb-79be4237b746","address_id":"3ec1070e-36de-4133-a2cb-d7336822766b"}},{"id":"4b896285-809d-41bb-bdac-e6f7fcb99eeb","type":"Feature","feature_type":"anchor","geometry":{"type":"Point","coordinates":[30.371074385640231,60.007447337570824]},"properties":{"unit_id":"3fc9690f-73aa-4005-ba11-c360e26943f4","address_id":"afebbc2a-086c-4330-a1f8-694ccd302b38"}},{"id":"2cdff730-039a-4d30-be97-752e1514bd42","type":"Feature","feature_type":"anchor","geometry":{"type":"Point","coordinates":[30.371096675588909,60.007480356516176]},"properties":{"unit_id":"e0813dcc-e5fe-4109-bd7f-89f4b8cc5a89","address_id":"826b4ba8-c057-44ab-9eb4-c9e3fb90725c"}},{"id":"c65bc820-7a20-4c7c-b18a-db8d63948e1f","type":"Feature","feature_type":"anchor","geometry":{"type":"Point","coordinates":[30.371118965834356,60.007513375187074]},"properties":{"unit_id":"60453146-9f30-463d-bef5-648b19fc6533","address_id":"cbdb21e1-346c-432a-8f4c-6dbdbaf8c54e"}},{"id":"ca4b42d2-9986-4068-a59c-c4e2338d9d1b","type":"Feature","feature_type":"anchor","geometry":{"type":"Point","coordinates":[30.371141255827542,60.007546394132426]},"properties":{"unit_id":"12008ca5-6dea-433e-9a56-871821d55c29","address_id":"fa0ea676-e56a-4469-b9fb-c4a190393a92"}},{"id":"e39e2e6c-5259-4e83-88b2-c6e10170e440","type":"Feature","feature_type":"anchor","geometry":{"type":"Point","coordinates":[30.371163545842997,60.007579412803324]},"properties":{"unit_id":"47fa9218-7ad3-4b09-9de5-203b7ed3d929","address_id":"efc7aeab-9dfc-4146-90ed-ed5845ec668f"}},{"id":"d8be9a32-d5c2-4a27-8564-060518135b97","type":"Feature","feature_type":"anchor","geometry":{"type":"Point","coordinates":[30.371357758539926,60.007733509174045]},"properties":{"unit_id":"98aef696-eed8-4054-8df5-f73657c51355","address_id":"05a2aa3b-80c5-4a19-b5e7-0b1a001a9ccd"}},{"id":"63c19ee0-65e1-4e2b-9257-5111086f84ff","type":"Feature","feature_type":"anchor","geometry":{"type":"Point","coordinates":[30.371382977554042,60.007777897807856]},"properties":{"unit_id":"5e50cc14-2b9c-44d5-a174-2ab387e9610f","address_id":"5da84af1-9ffb-4979-af72-594e45cb68b2"}},{"id":"bb553040-edd4-410e-b16f-26437885e86b","type":"Feature","feature_type":"anchor","geometry":{"type":"Point","coordinates":[30.371283023880011,60.007819677783331]},"properties":{"unit_id":"c30b172d-eca2-4604-a409-ac3545d5882a","address_id":"650ac269-acf4-44db-9999-1a63d99e83ae"}},{"id":"2704429a-5b29-46a2-84cd-e81ea59aa6f7","type":"Feature","feature_type":"anchor","geometry":{"type":"Point","coordinates":[30.371144968546545,60.007615174339179]},"properties":{"unit_id":"d9129db5-3508-4a64-9bce-302a484bd273","address_id":"e2369a6a-9cf8-4f8c-b867-ba9b88b678b3"}},{"id":"7880f6fb-9cd8-4eda-9bc5-daecc35f3981","type":"Feature","feature_type":"anchor","geometry":{"type":"Point","coordinates":[30.371273683639611,60.007615999339386]},"properties":{"unit_id":"b4da2ef5-55fd-4621-91f6-53e71254a7ab","address_id":"2a8664b1-7441-46ed-bd2a-cd7ffcc5126d"}},{"id":"f768ef64-c770-4efc-a0ef-bd51ccb92151","type":"Feature","feature_type":"anchor","geometry":{"type":"Point","coordinates":[30.371308863483776,60.007661080687939]},"properties":{"unit_id":"8c290c24-c618-40cf-90c8-5d82107b8768","address_id":"37bf0aac-ae03-42ec-9fa6-08efb48586f3"}},{"id":"88b1152f-73f8-4513-a4eb-780a0252a3e8","type":"Feature","feature_type":"anchor","geometry":{"type":"Point","coordinates":[30.3712214914761,60.007708943324609]},"properties":{"unit_id":"472a658e-ebe1-4b52-9a20-3c2abcfbc3e9","address_id":"b10cc8ed-bb8b-466a-994c-b24bff4ac1bd"}},{"id":"251682d5-aa65-4f5d-a43d-8241fd630e59","type":"Feature","feature_type":"anchor","geometry":{"type":"Point","coordinates":[30.371485120495763,60.007600494220753]},"properties":{"unit_id":"4d8134fb-a0e5-4167-a9da-9c4a99065bfc","address_id":"e80d032c-0057-4180-b3c3-f457f6b68c2d"}},{"id":"cc2f2785-4482-4f78-92ff-9e1b225a5bc6","type":"Feature","feature_type":"anchor","geometry":{"type":"Point","coordinates":[30.371546908745398,60.007590069193206]},"properties":{"unit_id":"347e80f5-0eb3-4bfd-9846-4e7b6b2626d7","address_id":"212ce287-d78a-4dc1-8b7e-770d6369f1ca"}},{"id":"0691fcff-415d-4e5b-9e70-640dbbf21781","type":"Feature","feature_type":"anchor","geometry":{"type":"Point","coordinates":[30.371608696426577,60.007579643891205]},"properties":{"unit_id":"e99a86ab-b85a-4f20-818c-3bab6b2cab66","address_id":"fa8ace46-b693-4922-afc3-c4d34e574c66"}},{"id":"2aa8b7bc-5aca-4504-a252-4fde67f811bb","type":"Feature","feature_type":"anchor","geometry":{"type":"Point","coordinates":[30.371670484637256,60.007569218863658]},"properties":{"unit_id":"0d0b31e6-9d2c-4085-983b-53455b8a2e37","address_id":"49e3c8ca-3dcd-48ba-a816-b80f09d6e679"}},{"id":"5d4f3def-4d44-4de5-bace-22d7604ee6cb","type":"Feature","feature_type":"anchor","geometry":{"type":"Point","coordinates":[30.37173227227948,60.007558793561657]},"properties":{"unit_id":"4c60295e-1011-4919-a205-f555d4071297","address_id":"47c6d281-4911-43b0-8127-0bac8681e9b9"}},{"id":"cde09b74-085d-4ec5-8f56-a52234fa0679","type":"Feature","feature_type":"anchor","geometry":{"type":"Point","coordinates":[30.372642659082342,60.007344679661017]},"properties":{"unit_id":"0968502b-762e-434d-a732-59f0d5d24515","address_id":"0fdaec8b-4411-4a6e-a8eb-5429ebb921d0"}},{"id":"528db005-8f37-4e2c-ad27-a185974a7a6e","type":"Feature","feature_type":"anchor","geometry":{"type":"Point","coordinates":[30.373330231021306,60.007289177401681]},"properties":{"unit_id":"a7c0bf05-786f-4e55-a94d-c9463c3e122d","address_id":"99b96615-5158-4a7e-ace4-3f0c031eb744"}},{"id":"1a05c8e1-ee7c-410b-a21c-962bcc21d3a9","type":"Feature","feature_type":"anchor","geometry":{"type":"Point","coordinates":[30.37346232809859,60.007266888948031]},"properties":{"unit_id":"7a9d049b-333d-41f0-8b75-b493d0ca8c96","address_id":"d3fe3b11-5583-4e0c-81fb-bc90681cc2f4"}},{"id":"355faa0e-8e71-4c81-97ce-777b055c9ead","type":"Feature","feature_type":"anchor","geometry":{"type":"Point","coordinates":[30.373728653178187,60.00722195305859]},"properties":{"unit_id":"a48e7b9e-5214-48dc-b2be-03cef51fe0ed","address_id":"c4e6ed12-b3fc-47c7-8900-2aaa0bc73bab"}},{"id":"d50de6b9-7135-446e-86fb-56e9faec5dba","type":"Feature","feature_type":"anchor","geometry":{"type":"Point","coordinates":[30.373662604603169,60.007233097148195]},"properties":{"unit_id":"747c39d5-982d-4623-903d-d2bdf05d2d78","address_id":"aac3c944-b23b-4bd2-9aca-e52a6caeb055"}},{"id":"4231ac7e-f637-4089-bca1-94e9fe5df859","type":"Feature","feature_type":"anchor","geometry":{"type":"Point","coordinates":[30.371983259755527,60.007506954402039]},"properties":{"unit_id":"224f1caf-50bc-4b94-bf25-e13be2690588","address_id":"48b02e39-e6b2-4737-8a28-6284cde0fcfe"}},{"id":"2e8eb1f4-a530-4523-b632-06b30999798b","type":"Feature","feature_type":"anchor","geometry":{"type":"Point","coordinates":[30.371794060451212,60.00754836853411]},"properties":{"unit_id":"31997e6d-9112-442a-9d97-9504c8cf33b3","address_id":"47cfdec3-68d6-4654-85b4-04d684ef1433"}},{"id":"a0cfa184-befc-4e8a-b197-8a6f96ef0375","type":"Feature","feature_type":"anchor","geometry":{"type":"Point","coordinates":[30.372220071563291,60.007699541451011]},"properties":{"unit_id":"b6c81dd5-89d8-4960-8eb2-f737723d7f74","address_id":"e0336a4c-2070-41ef-b79d-25566feffa35"}},{"id":"9322ac61-376b-495d-8a49-9fa313f3e9cb","type":"Feature","feature_type":"anchor","geometry":{"type":"Point","coordinates":[30.372028315859204,60.007731895401186]},"properties":{"unit_id":"fc2667d3-2ad0-4aaf-87d0-573de7689e24","address_id":"3cd85b23-d136-49d5-aa77-1a35ed3b9dc3"}},{"id":"6914bb22-c8f9-4835-97ca-2a088afd93d2","type":"Feature","feature_type":"anchor","geometry":{"type":"Point","coordinates":[30.372141875563237,60.0077981591652]},"properties":{"unit_id":"c0967bc4-c8f7-41ba-b826-23412e0b3ca8","address_id":"e20975c2-cc85-4695-b97b-a1bf1c4ae36a"}},{"id":"cd253cc7-ed00-4792-9938-ef60850030af","type":"Feature","feature_type":"anchor","geometry":{"type":"Point","coordinates":[30.37197528800759,60.007745588044315]},"properties":{"unit_id":"a10f5d43-f8e7-47dc-b372-13e2a01e3705","address_id":"69634fc2-89f1-4a9d-a5dd-f95895c3a1da"}},{"id":"73495579-f5e3-4ee4-95a6-a2724e94987b","type":"Feature","feature_type":"anchor","geometry":{"type":"Point","coordinates":[30.372278851355578,60.007694369418786]},"properties":{"unit_id":"c40ea20e-9102-4092-80a1-c4e431bb73cb","address_id":"24efe453-ce7e-4597-b47b-9a271cf8db39"}},{"id":"2af392ba-0362-41ca-a4a5-5541289ee544","type":"Feature","feature_type":"anchor","geometry":{"type":"Point","coordinates":[30.372068927857036,60.007837755332744]},"properties":{"unit_id":"ba4c8d90-6045-4f54-b97a-560df9f6f0ad","address_id":"ae9ba88d-0f99-45c1-8d01-3025d9e7288f"}},{"id":"5e6ee16b-55dc-4fa7-93f7-9ad2cc7a160f","type":"Feature","feature_type":"anchor","geometry":{"type":"Point","coordinates":[30.372316855347343,60.007795923760447]},"properties":{"unit_id":"feed1b89-101a-434d-bc06-87c5c5abe6bb","address_id":"8981dfd5-fee8-4fce-a815-8dd3e2a1a4dd"}},{"id":"d09a0d5f-e4e9-41ee-ae10-03af00af53ad","type":"Feature","feature_type":"anchor","geometry":{"type":"Point","coordinates":[30.37298102123426,60.007613862188151]},"properties":{"unit_id":"7860bfcf-e412-4075-8a5c-de059b6faefa","address_id":"8d090562-e776-45b4-a9b1-a33ea01ffb83"}},{"id":"6c0587d3-6d4a-466f-b597-c0234fa242ce","type":"Feature","feature_type":"anchor","geometry":{"type":"Point","coordinates":[30.37402139736982,60.007333916509637]},"properties":{"unit_id":"af287f14-1a2b-4f2a-8001-46c439db7518","address_id":"ca433cc5-c1a2-4edf-812d-5a9c282c45e4"}},{"id":"8e7c9da5-23ce-4663-ad17-0d2ace877d14","type":"Feature","feature_type":"anchor","geometry":{"type":"Point","coordinates":[30.372086802950044,60.007660331985157]},"properties":{"unit_id":"892ed360-5b74-466b-bd1c-2cc52174bffe","address_id":"1f46b15e-f933-471e-8069-7d1bcc4c267f"}},{"id":"c8facaa0-c048-4373-8bff-4c870b35d78b","type":"Feature","feature_type":"anchor","geometry":{"type":"Point","coordinates":[30.371218806242318,60.00731322426396]},"properties":{"unit_id":"7a546463-99d0-4f7f-b2c0-6f1346f947c8","address_id":"4f62d97a-cdb5-4766-ac4d-bb5d88444e3f"}},{"id":"41fdc71a-5436-4870-816c-c0bcebd53b98","type":"Feature","feature_type":"anchor","geometry":{"type":"Point","coordinates":[30.374583611216938,60.0074882110341]},"properties":{"unit_id":"7332616e-6764-43b1-80fc-48e48bf0c91b","address_id":"e9310ea3-01b5-4173-a06d-3e2290d6f342"}},{"id":"ffb81c5a-8d54-4034-9740-6b3533bae0b5","type":"Feature","feature_type":"anchor","geometry":{"type":"Point","coordinates":[30.3743485522642,60.007530244602449]},"properties":{"unit_id":"779e0e50-0fc5-4688-a917-4b70477c9bf7","address_id":"998188cc-a5ba-4922-bec8-48a67ffbe067"}},{"id":"c65e85a2-a485-482c-96a1-51edb557af50","type":"Feature","feature_type":"anchor","geometry":{"type":"Point","coordinates":[30.373999132818255,60.007589200555259]},"properties":{"unit_id":"d610eb91-ce78-491f-873e-f0b5ab34554d","address_id":"f4aee590-49c0-4c8b-b49b-522cb3a90805"}},{"id":"1224af1a-65ac-4fb2-8faf-ab6aa4b37fe4","type":"Feature","feature_type":"anchor","geometry":{"type":"Point","coordinates":[30.374179595567472,60.007568243464213]},"properties":{"unit_id":"2cc4e884-b9fa-4269-91fa-675fdff6790d","address_id":"15c648d3-0e64-4003-9a96-12bfc2b0b261"}},{"id":"d1d32b9e-5bca-4fec-bb0e-1cd3327c05de","type":"Feature","feature_type":"anchor","geometry":{"type":"Point","coordinates":[30.371427061033135,60.007610290480677]},"properties":{"unit_id":"64bcd527-f441-4343-8884-9fc66ddaa5f3","address_id":"70011d19-9536-437c-b9a4-68009e82ad27"}},{"id":"9e260cce-0757-4bea-8695-8bc36499b4d9","type":"Feature","feature_type":"anchor","geometry":{"type":"Point","coordinates":[30.374493989054109,60.007105871193346]},"properties":{"unit_id":"8ae826ac-ede5-41b6-96d3-afc1a146f541","address_id":"f208915b-25b8-4aa6-a719-60d224d82d92"}},{"id":"44cbe321-7043-4017-be0e-270bcb5f352c","type":"Feature","feature_type":"anchor","geometry":{"type":"Point","coordinates":[30.371707754771009,60.008037507478313]},"properties":{"unit_id":"f1d8d40d-314e-442e-918d-26698ceacf95","address_id":"6e10eb5e-6572-44e1-9ea5-ddf60c149929"}},{"id":"6cdc718b-4575-4b66-ae62-42c7be3fb0ff","type":"Feature","feature_type":"anchor","geometry":{"type":"Point","coordinates":[30.37171052193451,60.008122464385707]},"properties":{"unit_id":"ac46a715-55cc-43c4-8329-787cc000625b","address_id":"c588105f-83cb-4cde-a45c-1ee6481d0b64"}},{"id":"c40ceae4-9b21-44ed-9b46-1a1a8f20c491","type":"Feature","feature_type":"anchor","geometry":{"type":"Point","coordinates":[30.374874493801116,60.007588624482267]},"properties":{"unit_id":"d4eee7be-b927-4bda-90d9-0e1375f14678","address_id":"9fc8289f-55c2-49d8-a0ed-78193ec5b8ed"}},{"id":"0c4e4634-fef3-4e1a-9368-7ff07f5619ee","type":"Feature","feature_type":"anchor","geometry":{"type":"Point","coordinates":[30.375070509265345,60.007555551470034]},"properties":{"unit_id":"a29d2211-c618-47f4-98e6-d2fbc9ef2201","address_id":"1498ef52-9472-4132-9bb0-d24cca2294b0"}},{"id":"444f489f-0e1b-4b21-8c90-727b17f5cccf","type":"Feature","feature_type":"anchor","geometry":{"type":"Point","coordinates":[30.371514502835709,60.008155537397933]},"properties":{"unit_id":"17ed57be-afdd-462d-b24c-4270501c7b62","address_id":"c509d846-ff7e-476a-8c82-7a944eec1a9b"}},{"id":"9d03a4ba-2172-432b-ba40-f3dc4b622242","type":"Feature","feature_type":"anchor","geometry":{"type":"Point","coordinates":[30.374507594890964,60.0067393350741]},"properties":{"unit_id":"14a558c6-14d9-4d68-81c1-e346d44423b0","address_id":"3891a798-90fe-4ace-a0e2-da0323b238c4"}},{"id":"3414f6a2-2d4f-463a-b483-b3ab7eed9a4f","type":"Feature","feature_type":"anchor","geometry":{"type":"Point","coordinates":[30.370838704725919,60.007358374225305]},"properties":{"unit_id":"796bdfd2-2761-481d-82c9-db0935bb6ba5","address_id":"43ad95eb-3580-424a-9b7e-526b3bc8c944"}},{"id":"624d8e89-dc6d-40f5-b626-c8a2f5fe6aae","type":"Feature","feature_type":"anchor","geometry":{"type":"Point","coordinates":[30.371327649700717,60.008082657439658]},"properties":{"unit_id":"e626cabd-c7e9-4e5a-9d05-e788a674bad0","address_id":"7e560cd9-213d-49b7-bf44-7e3763233578"}},{"id":"6115462f-ed8a-43eb-a0d4-511eeb787f77","type":"Feature","feature_type":"anchor","geometry":{"type":"Point","coordinates":[30.374996575326826,60.007463618288448]},"properties":{"unit_id":"5a5bbdf0-edab-4456-8712-41a6b9d39cd5","address_id":"67c66a32-c930-44f9-b5d4-b085329ae23b"}},{"id":"f3c238be-1f2d-4429-87bc-b225d395c0be","type":"Feature","feature_type":"anchor","geometry":{"type":"Point","coordinates":[30.373045473694546,60.007484342644908]},"properties":{"unit_id":"12c95118-b8e0-4b70-b9e9-bf5a6d5e7800","address_id":"8355b76e-527c-45c3-a72b-aa4332c3d5ea"}},{"id":"0553851c-726e-4214-b71e-c4c364ef91a1","type":"Feature","feature_type":"anchor","geometry":{"type":"Point","coordinates":[30.374511593009174,60.007082731392174]},"properties":{"unit_id":"f2c5bde5-b80e-4da9-95bc-9ecfe77a5623","address_id":"652e1cc3-30a1-484a-bb99-9af21238737a"}},{"id":"14ff0eae-bfbe-43da-a9cb-0864886d72f5","type":"Feature","feature_type":"anchor","geometry":{"type":"Point","coordinates":[30.3744594730313,60.007054745332312]},"properties":{"unit_id":"645c5d6f-d8e8-47b2-9904-0da476e10b38","address_id":"b66e085e-55ca-4ca1-8fc4-e7df18e7c167"}},{"id":"0eea7252-0e48-4dea-84ae-b0202454b940","type":"Feature","feature_type":"anchor","geometry":{"type":"Point","coordinates":[30.372266566615338,60.007926612740114]},"properties":{"unit_id":"bc421141-1760-4323-ba0a-c48d64a8c126","address_id":"dec3252a-fbe1-451f-8f89-5f96aafea8b3"}},{"id":"4392e2b8-3ea6-4978-a8a0-9bb1f3b4d5de","type":"Feature","feature_type":"anchor","geometry":{"type":"Point","coordinates":[30.372360314042083,60.007910795296048]},"properties":{"unit_id":"eafa0b0f-c7d5-4dc4-bf6d-790e6c2c866b","address_id":"0b36ec09-098d-4659-a30f-fb0dde3d30c0"}},{"id":"3e853ae6-34a6-4ef2-aaa1-372d90336850","type":"Feature","feature_type":"anchor","geometry":{"type":"Point","coordinates":[30.372172819143753,60.007942430184173]},"properties":{"unit_id":"b9db5459-29f6-4baf-a04d-c4e02a67b7d8","address_id":"fb0a1906-db50-4997-93c2-1a1800fc36d0"}},{"id":"66806615-5130-4563-81fd-ec5de5468857","type":"Feature","feature_type":"anchor","geometry":{"type":"Point","coordinates":[30.372917336733835,60.007480858761809]},"properties":{"unit_id":"192fef8a-c322-464a-8d30-7b58170c2009","address_id":"68e606c7-bca6-4174-8926-a2aa6a04d8bc"}},{"id":"17e004e6-4e20-4e79-9c61-a6ef96838d33","type":"Feature","feature_type":"anchor","geometry":{"type":"Point","coordinates":[30.373240266424038,60.007474066095448]},"properties":{"unit_id":"15d0adb8-14af-494c-980a-7523e6a6eb40","address_id":"b4468e85-45fa-4564-a0c3-f52d1b82698e"}},{"id":"b523e45b-5fa6-43a9-b945-e381739d5976","type":"Feature","feature_type":"anchor","geometry":{"type":"Point","coordinates":[30.373143181458214,60.007442753138541]},"properties":{"unit_id":"efefa349-401f-41ee-a220-c2854dd6bff4","address_id":"cba8b642-f14b-46c6-931f-21461e99ddfb"}},{"id":"de6d9123-0af5-4755-aec8-55bf86d47041","type":"Feature","feature_type":"anchor","geometry":{"type":"Point","coordinates":[30.373277789010341,60.007550739243285]},"properties":{"unit_id":"f80d296b-8d8a-4f58-9301-ad85d6223a47","address_id":"feadb2a3-195a-47e1-91a7-ec17c51feb6d"}},{"id":"ab93d14b-01f3-49b2-9e8f-17a822b74864","type":"Feature","feature_type":"anchor","geometry":{"type":"Point","coordinates":[30.373201511326631,60.007715474164563]},"properties":{"unit_id":"a82ad2a7-46e6-4a50-8a16-a471eac55315","address_id":"af5217bb-4fca-47de-8626-3ea4855eeaec"}},{"id":"ce4ac97d-8c82-435d-9c4d-18b13eb749ea","type":"Feature","feature_type":"anchor","geometry":{"type":"Point","coordinates":[30.373271085057976,60.007590025281019]},"properties":{"unit_id":"ee2cd1f4-a3b1-489a-8cf3-36e081370d5e","address_id":"1b2163de-2fda-4449-9300-d833f4ffa7e4"}},{"id":"47ae9523-c2db-40cc-ba21-61fdd94a97b5","type":"Feature","feature_type":"anchor","geometry":{"type":"Point","coordinates":[30.372993990972073,60.007636589214769]},"properties":{"unit_id":"cac12884-1a62-4271-8d2d-aeb0c395cec2","address_id":"e8a579cd-d670-4d34-bebf-74fd88e31bc7"}},{"id":"6e2069ad-6d77-4408-8a0c-ea5b486d3b5e","type":"Feature","feature_type":"anchor","geometry":{"type":"Point","coordinates":[30.373025746592678,60.007572304518121]},"properties":{"unit_id":"2a4b33c5-c4a4-4ff0-b9a4-ed80b94859a5","address_id":"77c0baae-36d8-4474-9b37-589b84c3f613"}},{"id":"70c97c4c-1d4d-42aa-bab7-fbf9148350d3","type":"Feature","feature_type":"anchor","geometry":{"type":"Point","coordinates":[30.374936744657418,60.007403119371183]},"properties":{"unit_id":"2d2103b2-7d68-4548-b7e1-bef855afc765","address_id":"822142b2-54bf-4a0f-9ef0-fd070edeb190"}},{"id":"c91a54d3-1873-435c-900b-20dcd94e6e1b","type":"Feature","feature_type":"anchor","geometry":{"type":"Point","coordinates":[30.37496838477913,60.007449984926772]},"properties":{"unit_id":"6cb0bf27-0f40-4666-915d-52b0e93a260e","address_id":"d22c7303-363f-4457-bd19-aeea100a8094"}},{"id":"7a9608fc-60af-4f90-ab48-ea8affff98f0","type":"Feature","feature_type":"anchor","geometry":{"type":"Point","coordinates":[30.374860520575073,60.0072902164738]},"properties":{"unit_id":"cf51d9cc-6da7-4e2e-a2a1-c8630948c7cd","address_id":"352ad850-1b61-426d-8991-b026b0626438"}},{"id":"e37b08ec-0821-4fcf-bc3b-f2084cbf7ad3","type":"Feature","feature_type":"anchor","geometry":{"type":"Point","coordinates":[30.374905104306045,60.007356254090048]},"properties":{"unit_id":"307fbba0-8261-40e8-be2e-0cc427b61e00","address_id":"a9113abe-e27f-4fb6-8932-358340d036bf"}},{"id":"65742b7d-d15a-4fea-a1bd-5bfe06fd0831","type":"Feature","feature_type":"anchor","geometry":{"type":"Point","coordinates":[30.374882812498054,60.007323235144696]},"properties":{"unit_id":"d9dea50d-16e3-4445-af60-1e0563cc7012","address_id":"65f05ba7-3f44-483c-b975-9e6e4866f76f"}},{"id":"22de0482-aae8-4dfd-bfea-826e61181e63","type":"Feature","feature_type":"anchor","geometry":{"type":"Point","coordinates":[30.374838228674342,60.007257197528446]},"properties":{"unit_id":"ed2010dd-fd3c-4012-9327-2874eb129f4b","address_id":"edcf16b2-71de-433e-be49-f0c437a3e55c"}},{"id":"25fd6ab2-a59c-4534-8911-0b97944f4b23","type":"Feature","feature_type":"anchor","geometry":{"type":"Point","coordinates":[30.374796880956929,60.007195953201816]},"properties":{"unit_id":"d9a5a1c3-6f0c-48bf-81d3-098f43ae68ef","address_id":"0eb08f29-3394-4941-a8b4-4bb3c3138f33"}},{"id":"b0683713-8b37-4639-8a0f-138b9b85aaad","type":"Feature","feature_type":"anchor","geometry":{"type":"Point","coordinates":[30.374651265584795,60.006980265872635]},"properties":{"unit_id":"da88ff4b-20f2-40e0-9597-336284a82b49","address_id":"53c76563-7d5c-4c34-a1f1-ea5e614037ba"}},{"id":"d69c0ec4-2ba9-44a5-b23b-af8527c0d8b5","type":"Feature","feature_type":"anchor","geometry":{"type":"Point","coordinates":[30.374752297442047,60.007129915585566]},"properties":{"unit_id":"ee8da39e-693b-47e7-8a54-9a1dc865fe49","address_id":"65adba1e-c108-4c6d-8ae7-1264645d5fa5"}},{"id":"5a74f0cf-b43f-4cdb-807a-f71ffb4fc429","type":"Feature","feature_type":"anchor","geometry":{"type":"Point","coordinates":[30.374707713878941,60.007063877969316]},"properties":{"unit_id":"33bb4ac7-71bc-45f9-bc1e-36339399ee37","address_id":"36c17ec7-748e-4107-94dd-cc9b840984bb"}},{"id":"397f6486-085d-4af2-bf0a-518945821da3","type":"Feature","feature_type":"anchor","geometry":{"type":"Point","coordinates":[30.374613873237095,60.006924879431693]},"properties":{"unit_id":"c0677380-2572-436f-8f12-03a0583853a1","address_id":"aaa2852a-c4de-48a1-b242-313ca3001440"}},{"id":"93e33852-be26-45cc-95fb-28c906c10b7d","type":"Feature","feature_type":"anchor","geometry":{"type":"Point","coordinates":[30.374591581582614,60.006891860760796]},"properties":{"unit_id":"98e5e4d8-20cf-426b-92cf-2f55547c7a8e","address_id":"58ff7530-2d51-4128-a9b1-2d7aa3efa647"}},{"id":"0ba4a48f-e822-4845-9aec-b50c1b4bb15c","type":"Feature","feature_type":"anchor","geometry":{"type":"Point","coordinates":[30.374569289950387,60.006858841815443]},"properties":{"unit_id":"4dc414cf-8a16-4e1e-90c2-ed7a39e88992","address_id":"5700dbcb-95cb-4b38-a42c-0afe62ea6e96"}},{"id":"72e986fa-9241-495e-8d87-0b33f88a7e3c","type":"Feature","feature_type":"anchor","geometry":{"type":"Point","coordinates":[30.374546998340413,60.006825823144545]},"properties":{"unit_id":"568eefa9-1f94-4fb8-882f-77a37823407d","address_id":"c95b0807-e391-407c-bbe6-c53bd5117a75"}},{"id":"528fb1cb-7887-4e39-ad22-ccc5d9f7eec2","type":"Feature","feature_type":"anchor","geometry":{"type":"Point","coordinates":[30.374524706889943,60.006792804199193]},"properties":{"unit_id":"455f49d1-55c2-4f8d-9699-d363f5b65a3a","address_id":"b226dfdc-2147-45f6-b9ba-f5462a97ff02"}},{"id":"5a6d32c0-b1ea-4a3a-8b3d-79de4685e617","type":"Feature","feature_type":"anchor","geometry":{"type":"Point","coordinates":[30.374301115254291,60.006799089405348]},"properties":{"unit_id":"c447b198-fb2b-4a5b-9481-c7f9e13587ca","address_id":"b1948d41-419d-492d-865b-34d726067bee"}},{"id":"7a282a8f-a520-4900-87a5-f3af3ed27d1c","type":"Feature","feature_type":"anchor","geometry":{"type":"Point","coordinates":[30.3744594730313,60.007054745332312]},"properties":{"unit_id":"1c6859a8-fd51-4d31-8a8b-c1c29935e6ba","address_id":"01be90ab-b474-4bc3-b37e-e0ffe052b1b9"}},{"id":"e4f0ca46-43a4-4ac0-a87f-819561937ba9","type":"Feature","feature_type":"anchor","geometry":{"type":"Point","coordinates":[30.373912097728535,60.007361849874876]},"properties":{"unit_id":"ad358111-3189-4dec-9e3b-0d2912d05566","address_id":"591244cb-c340-46f2-9503-5e9b56dbebcc"}},{"id":"8829a059-4d99-40c1-a027-87be2a300909","type":"Feature","feature_type":"anchor","geometry":{"type":"Point","coordinates":[30.37448607914466,60.007094154873066]},"properties":{"unit_id":"0ec3c2fb-59c0-4082-960b-fa81d9faab98","address_id":"828a71fc-101c-4036-a03a-471626d911ef"}},{"id":"f8e715ae-a80b-487f-90e1-94174f14a2dd","type":"Feature","feature_type":"anchor","geometry":{"type":"Point","coordinates":[30.374427488049296,60.007104040878517]},"properties":{"unit_id":"22546f7d-783d-43d8-95a7-2049fdf1b207","address_id":"5984e997-0aaa-4d92-9dff-5e2913ca3c19"}},{"id":"f86bff1b-bd49-4269-addf-5605c049906f","type":"Feature","feature_type":"anchor","geometry":{"type":"Point","coordinates":[30.374365700982175,60.007114465906064]},"properties":{"unit_id":"35e2afb8-b158-4381-992a-79c775fb321b","address_id":"12ee7fcb-bb92-45e1-8c31-d257c88893aa"}},{"id":"8deb0b10-a157-4a56-84b1-9b95cbd91d22","type":"Feature","feature_type":"anchor","geometry":{"type":"Point","coordinates":[30.374303913621077,60.007124891208065]},"properties":{"unit_id":"eb19b70f-ecc7-4645-9e13-e57b364a7918","address_id":"076331f6-e4c2-4c8e-922f-e06b23fb401a"}},{"id":"2a963156-1865-48ba-af16-7589623f4041","type":"Feature","feature_type":"anchor","geometry":{"type":"Point","coordinates":[30.374242126515,60.007135316235612]},"properties":{"unit_id":"f6b01506-247f-4ae0-bb01-779a70414350","address_id":"b8d0b3b3-1c84-4396-9e19-fb9d1a7a65f5"}},{"id":"1989ab62-aef3-476b-b69d-a69d18e6bc3f","type":"Feature","feature_type":"anchor","geometry":{"type":"Point","coordinates":[30.374180339389447,60.007145741537613]},"properties":{"unit_id":"fa6ea3fe-0cfe-4331-aca6-4747edfadb65","address_id":"59cf53f9-fe75-4828-be48-232d139b8b4f"}},{"id":"50dd4d95-fd53-4b06-bd86-ea09292c7562","type":"Feature","feature_type":"anchor","geometry":{"type":"Point","coordinates":[30.374118552244418,60.00715616656516]},"properties":{"unit_id":"1d7d3c77-b130-4fc5-9b1e-c01d12bd1921","address_id":"05188a94-45ce-4176-83a5-ac150ba9d81a"}},{"id":"2bc14b5c-a29a-41d8-bc4e-67d48d39282b","type":"Feature","feature_type":"anchor","geometry":{"type":"Point","coordinates":[30.37159591297824,60.007581800802917]},"properties":{"unit_id":"68805ccd-ac4b-486d-a38f-81427f6027a8","address_id":"2c2fafdf-98f3-4b10-9432-2acc0b49de15"}},{"id":"8c2a9805-5c57-4f51-86cd-97e3ac865091","type":"Feature","feature_type":"anchor","geometry":{"type":"Point","coordinates":[30.374045685885037,60.007206427630571]},"properties":{"unit_id":"b693afd7-f497-41a0-a580-17ed08fcbc30","address_id":"fa18f666-553a-4896-a4e4-fa2aa8493250"}},{"id":"c41a177b-f27c-46a8-a839-21c375400791","type":"Feature","feature_type":"anchor","geometry":{"type":"Point","coordinates":[30.373847540299963,60.007239860173833]},"properties":{"unit_id":"92756ef4-bea6-4ae6-8fc0-e0792bcac8da","address_id":"47602ff4-397a-4b3a-82e9-544b5e50a8f1"}},{"id":"4e69c4c8-25a7-4110-bb8c-72c6f3dcf651","type":"Feature","feature_type":"anchor","geometry":{"type":"Point","coordinates":[30.373946613254784,60.0072231439022]},"properties":{"unit_id":"d72cddff-51d5-438a-aafa-61a30232a78d","address_id":"9df334de-e7f4-44a8-8570-199e1151eb08"}},{"id":"87f878cf-216e-451a-b11d-9f232af990b2","type":"Feature","feature_type":"anchor","geometry":{"type":"Point","coordinates":[30.373896331105339,60.007155695058053]},"properties":{"unit_id":"0d8bf134-2235-4f2f-b881-8bcd536dc593","address_id":"ad60e767-2786-4b61-93ff-1ae7cf118d38"}},{"id":"72d4392a-cc37-49ea-8b9d-a5f0cca85211","type":"Feature","feature_type":"anchor","geometry":{"type":"Point","coordinates":[30.37365621267158,60.007234175741274]},"properties":{"unit_id":"c5c5df80-4b9b-4f53-bb2f-35fd3be8c7c2","address_id":"d7abc1fa-1f83-42c4-ad5d-b0bbed44d1cd"}},{"id":"49db3ec9-9e07-4979-9d1b-cd2a7e789493","type":"Feature","feature_type":"anchor","geometry":{"type":"Point","coordinates":[30.373357928612574,60.007284504047227]},"properties":{"unit_id":"a0502213-97fe-4a44-a929-47f0df775fca","address_id":"6d4ad504-5595-4e2a-8d5c-3c0c499bac15"}},{"id":"dffdd238-8603-44c4-8381-1ae004b28ea2","type":"Feature","feature_type":"anchor","geometry":{"type":"Point","coordinates":[30.373517723788872,60.00725754223911]},"properties":{"unit_id":"4b654624-8b28-47c1-803e-59eb117d0d81","address_id":"b1468a4e-71fe-4e22-8a66-23cd8284a29a"}},{"id":"ff1a50ff-245b-4388-a118-92656e618b76","type":"Feature","feature_type":"anchor","geometry":{"type":"Point","coordinates":[30.373451675142775,60.007268686603169]},"properties":{"unit_id":"809355b0-a185-4344-bf40-2e82c9215871","address_id":"6c4d2c2c-2d8d-4fc5-b5d6-00b30ceb3c5c"}},{"id":"ff30d466-b640-4079-9a96-e9fdc55e8d19","type":"Feature","feature_type":"anchor","geometry":{"type":"Point","coordinates":[30.373251984224535,60.007333227362757]},"properties":{"unit_id":"61e55149-3fcf-44a2-a644-1bd3328b5ce4","address_id":"eead8ce7-8cb7-48df-a0fb-602e4a5291b5"}},{"id":"ddfe09e3-eac5-45ce-8415-4bb5aeee5819","type":"Feature","feature_type":"anchor","geometry":{"type":"Point","coordinates":[30.372698026431355,60.007426694177454]},"properties":{"unit_id":"31721770-7d43-4d4c-b562-f0294e86ef97","address_id":"c0992d68-9c44-4e16-a1d6-9ab63e9dab43"}},{"id":"e36d22e5-6979-4363-8bcd-7b9d1d0e9bf6","type":"Feature","feature_type":"anchor","geometry":{"type":"Point","coordinates":[30.372581322524692,60.0074155374631]},"properties":{"unit_id":"7637b0c9-5355-48e4-9d6d-969a26d1cd29","address_id":"1f6bee2b-be44-48be-9872-1d2118aa9c9e"}},{"id":"cf21e52a-98bb-47bb-a57a-f4ffa17909d1","type":"Feature","feature_type":"anchor","geometry":{"type":"Point","coordinates":[30.372514208234914,60.007426861318216]},"properties":{"unit_id":"ed741135-b4fe-47df-ac47-3dbce9065bdd","address_id":"cba99b61-b5b5-4a5c-bdd3-5c942b1ec563"}},{"id":"9a1a3dcc-509c-4068-b509-b46a30027050","type":"Feature","feature_type":"anchor","geometry":{"type":"Point","coordinates":[30.372448159525174,60.00743800540782]},"properties":{"unit_id":"c19653f8-e419-4d4e-9c6b-784d7b238f93","address_id":"d4d791a3-f718-4aff-8b40-be9ba1c2940b"}},{"id":"3e710b44-4d6c-40b1-a982-c855f345d426","type":"Feature","feature_type":"anchor","geometry":{"type":"Point","coordinates":[30.372316061489922,60.007460293861477]},"properties":{"unit_id":"dc4ce0e2-1f92-4fe2-ae94-45462c4c1acf","address_id":"9e6880b0-42ce-4c80-8cfb-0784d1f56534"}},{"id":"4810df9e-54bd-4ecd-aec8-07a3b06b59b9","type":"Feature","feature_type":"anchor","geometry":{"type":"Point","coordinates":[30.372382110244175,60.007449149771872]},"properties":{"unit_id":"22390c42-f7fa-4e8b-b6cb-0e4a89d9506d","address_id":"8870016b-7305-4677-a69b-9717a9c6174a"}},{"id":"ab22f47a-88dd-45ea-aafc-fa6bff054562","type":"Feature","feature_type":"anchor","geometry":{"type":"Point","coordinates":[30.372250012164422,60.007471437951075]},"properties":{"unit_id":"e5bffb50-f47e-42c2-90a0-c96ed592093f","address_id":"0fff0dff-4aca-48d0-8c5c-a9734d90e23c"}},{"id":"9ea1d2bd-85ef-47f3-a175-67fc9b2484e2","type":"Feature","feature_type":"anchor","geometry":{"type":"Point","coordinates":[30.372183963365657,60.00748258204068]},"properties":{"unit_id":"537880e1-1194-4fbd-8d82-490bae87a20d","address_id":"d7583a2c-417d-448c-a89a-f134776f61c6"}},{"id":"52ebda9e-ed98-4714-afa8-3253253f9751","type":"Feature","feature_type":"anchor","geometry":{"type":"Point","coordinates":[30.371429724231039,60.007609840929668]},"properties":{"unit_id":"6670415b-2072-4ca7-970e-4e20f1f9b9b8","address_id":"0314aedf-5945-4323-aeba-eb007b00fdbc"}},{"id":"3f1adb11-19af-4b99-a758-4a30ccd6d345","type":"Feature","feature_type":"anchor","geometry":{"type":"Point","coordinates":[30.37151281862225,60.007595820866293]},"properties":{"unit_id":"402c9642-2ff9-4cab-a68d-acdd9cd96db3","address_id":"77dffe40-4494-4312-be15-006b0ec369b0"}},{"id":"7f438bf9-dcc3-450a-a48f-fc8ddfce2dce","type":"Feature","feature_type":"anchor","geometry":{"type":"Point","coordinates":[30.371661961975153,60.00757065671332]},"properties":{"unit_id":"c156ebb9-80bb-42d9-855f-69df56cc4b99","address_id":"27805fe2-ead6-471b-b3c3-d981cef394f2"}},{"id":"de33b4de-026f-46b3-8c17-cebc248b8710","type":"Feature","feature_type":"anchor","geometry":{"type":"Point","coordinates":[30.371728011498806,60.007559512623715]},"properties":{"unit_id":"92669c64-f214-44dc-acb0-2fd73aa52e46","address_id":"75739e0e-89e4-4a01-9557-d6b80cd82845"}},{"id":"a0718e32-c67c-472b-a678-c2bf33f4e494","type":"Feature","feature_type":"anchor","geometry":{"type":"Point","coordinates":[30.371794060451212,60.00754836853411]},"properties":{"unit_id":"eea1f0c5-d41e-4f6b-9502-d1655fbe5615","address_id":"321b3118-864e-4855-9a98-6d43c60a2ab4"}},{"id":"2bf39af9-00d9-41a3-9c3c-471c9bbe935d","type":"Feature","feature_type":"anchor","geometry":{"type":"Point","coordinates":[30.372135597238149,60.007528709048181]},"properties":{"unit_id":"6beb3ba5-549c-4dc2-9c11-4940a854135e","address_id":"7cbb34ab-0e11-4dd5-86ed-a6bd7c3bc2dc"}},{"id":"155f19f9-3312-4631-8a03-6ebaba12b4a4","type":"Feature","feature_type":"anchor","geometry":{"type":"Point","coordinates":[30.371884184492409,60.007571128494874]},"properties":{"unit_id":"93094991-018f-424b-bd3c-bbb511fe26af","address_id":"34ba307a-35bb-46b3-af43-52bf27e95762"}},{"id":"fb47a3d2-283d-40e9-844c-1589ce27320b","type":"Feature","feature_type":"anchor","geometry":{"type":"Point","coordinates":[30.372012021568583,60.007549559377722]},"properties":{"unit_id":"557bf58e-5346-4979-b949-e21ab166f57f","address_id":"39883c28-ba60-4b62-9793-c554fbef8e88"}},{"id":"a4d21507-5ca5-423b-83de-604d52ce21ab","type":"Feature","feature_type":"anchor","geometry":{"type":"Point","coordinates":[30.371961741143735,60.007482110533573]},"properties":{"unit_id":"01fda586-700c-4246-9d02-510b052294ae","address_id":"74576982-0022-43d3-be46-5f27560f75c1"}},{"id":"e2b12f49-0161-43c5-b636-ef056565cad9","type":"Feature","feature_type":"anchor","geometry":{"type":"Point","coordinates":[30.372207609256726,60.00764944039063]},"properties":{"unit_id":"f6cc636c-03b7-4cc5-ab11-55eb2d14fb3a","address_id":"2d625fa1-66ef-4ad6-bfc2-dda5bd3c3b1d"}},{"id":"faf3a83d-2117-41d1-bc21-419cf6ca67c7","type":"Feature","feature_type":"anchor","geometry":{"type":"Point","coordinates":[30.371218806242318,60.00731322426396]},"properties":{"unit_id":"00d1b03c-9229-4fc2-9e5f-1a4e4e97bb6a","address_id":"6af7a608-c55c-476e-96ad-2b6eb77c7a78"}},{"id":"5ab469df-634d-400b-981a-ce77ef781cd4","type":"Feature","feature_type":"anchor","geometry":{"type":"Point","coordinates":[30.3714299504413,60.007974040371685]},"properties":{"unit_id":"e3748102-d10d-4d6e-93dd-8ecef8b017ea","address_id":"3b08b0f9-b386-4817-808e-c4e0cefce149"}},{"id":"9e175443-e15c-44a4-8b86-64d48439239f","type":"Feature","feature_type":"anchor","geometry":{"type":"Point","coordinates":[30.371474171779553,60.008039545552677]},"properties":{"unit_id":"04577169-d594-4177-bfc6-d5fd455d6fc8","address_id":"744e4224-fadb-4aef-b87c-073c0c1bf9d4"}},{"id":"1efe42d2-8b7c-42b2-942a-721f8a0498f3","type":"Feature","feature_type":"anchor","geometry":{"type":"Point","coordinates":[30.371385729190603,60.0079085357396]},"properties":{"unit_id":"a641f3cb-7106-43e3-8a64-05b32b061de8","address_id":"f56ddb6a-7eb8-46a2-a6ae-108445de5443"}},{"id":"496b7730-1c4f-4c5e-b9d4-b413822c1013","type":"Feature","feature_type":"anchor","geometry":{"type":"Point","coordinates":[30.371363438953342,60.00787551679425]},"properties":{"unit_id":"f468f382-06ed-43c2-aeb1-0b24a10a8514","address_id":"52c8d1ea-39d1-47e9-9cad-f40dc4bfac49"}},{"id":"f45f0b54-3a2c-4869-bc93-388515aaf39b","type":"Feature","feature_type":"anchor","geometry":{"type":"Point","coordinates":[30.371341148738317,60.007842498123352]},"properties":{"unit_id":"b532bc2f-27ec-4f1a-a923-818d8074b3e1","address_id":"fefaa053-34cb-4727-bbd5-982c083e1916"}},{"id":"6aad606f-8059-49d3-b8e7-a2dbcf08ad54","type":"Feature","feature_type":"anchor","geometry":{"type":"Point","coordinates":[30.371030165093792,60.007381832664286]},"properties":{"unit_id":"8b4999f6-af9f-4e5d-b1ff-7d6caeed238a","address_id":"4ee53e6b-fd3f-429b-a9e9-6e58199a25f8"}},{"id":"573ef906-1fb0-4a02-a71c-fe4bf4f75979","type":"Feature","feature_type":"anchor","geometry":{"type":"Point","coordinates":[30.371052095439289,60.007414318899926]},"properties":{"unit_id":"7615076a-e964-4586-8f05-333ae974cd93","address_id":"2b81e5df-d988-4c57-8c18-1d13146e3f3d"}},{"id":"bf536d85-63f0-4487-80cd-1a22a1dd320a","type":"Feature","feature_type":"anchor","geometry":{"type":"Point","coordinates":[30.371074385640231,60.007447337570824]},"properties":{"unit_id":"d5f294ee-d5b0-4e69-a1a6-aa399e0ba70d","address_id":"f9f12922-8577-4090-a0d5-5f80765c1af7"}},{"id":"1bc6ad5b-e5ab-449d-85eb-7fc44b2c2a5b","type":"Feature","feature_type":"anchor","geometry":{"type":"Point","coordinates":[30.371096675588909,60.007480356516176]},"properties":{"unit_id":"f4e013cd-fb68-4d4c-b5c0-5e1846c1c098","address_id":"d42b0fd4-0478-4e0b-af7b-944feeea77f0"}},{"id":"5b589b5f-a6e7-46e2-b396-9178ab95a036","type":"Feature","feature_type":"anchor","geometry":{"type":"Point","coordinates":[30.371118965834356,60.007513375187074]},"properties":{"unit_id":"27f5db37-8a75-4ce9-98d7-253d896d72fb","address_id":"2a3bf34a-5b3d-411f-a75a-7d683b29c66f"}},{"id":"f83ee68a-e4f8-4dfa-930a-0c9e42ded5e3","type":"Feature","feature_type":"anchor","geometry":{"type":"Point","coordinates":[30.371141255827542,60.007546394132426]},"properties":{"unit_id":"25233315-f2ec-465f-b9a3-773c7484950e","address_id":"504813b4-f133-4a12-87d6-7b9459626499"}},{"id":"5016c85e-d03f-400b-a579-5bf8d5e45615","type":"Feature","feature_type":"anchor","geometry":{"type":"Point","coordinates":[30.371163545842997,60.007579412803324]},"properties":{"unit_id":"885db7d9-fb45-4790-9de2-99c5fdc6d840","address_id":"4deb4b3d-cc38-454e-ae07-1649359e573e"}},{"id":"b2fdc3a6-388e-46e5-a749-5b68e341f2c5","type":"Feature","feature_type":"anchor","geometry":{"type":"Point","coordinates":[30.371260820068326,60.007607491627681]},"properties":{"unit_id":"0eed3b35-1dbd-4f49-98b6-a87199c0674e","address_id":"493bb693-f567-42f3-9976-abdd7ee182db"}},{"id":"f7781d23-02b8-475f-983e-9d773593d3d9","type":"Feature","feature_type":"anchor","geometry":{"type":"Point","coordinates":[30.371199085428508,60.007625026587142]},"properties":{"unit_id":"156b964a-dab9-4a57-8fac-22b283ec43db","address_id":"de092d25-8713-45d9-b443-429c3e217226"}},{"id":"67ba90f6-cf7c-41a5-a102-6f2ec89b108f","type":"Feature","feature_type":"anchor","geometry":{"type":"Point","coordinates":[30.371306941197293,60.007784795040116]},"properties":{"unit_id":"cfb71252-fa4f-496f-97a3-411240167080","address_id":"ef6b5da5-67e7-4797-b9ae-4ffdf0cff6df"}},{"id":"8cdbf088-ebde-4160-b7cd-3688b0197d44","type":"Feature","feature_type":"anchor","geometry":{"type":"Point","coordinates":[30.371322760332419,60.007808227680684]},"properties":{"unit_id":"1f88f447-edc4-4aca-9427-4c1b9fcfdbd0","address_id":"5cc90a78-23da-4da0-b268-608f927497d2"}},{"id":"f396f536-fba2-4b9e-bb0f-391ecf562046","type":"Feature","feature_type":"anchor","geometry":{"type":"Point","coordinates":[30.371390913567073,60.007793169094093]},"properties":{"unit_id":"3f5d9bac-2744-4856-86bc-9f8b69905ae7","address_id":"c1e962e1-2566-498f-8986-a1ef658a5b23"}},{"id":"9a3a894e-d260-4e94-a5b3-adcd6938fcab","type":"Feature","feature_type":"anchor","geometry":{"type":"Point","coordinates":[30.371292110209861,60.007703059914959]},"properties":{"unit_id":"05751116-9f91-4a8c-ae99-d0040a5ffc3e","address_id":"ca3cd030-34d9-4a7f-beaa-3e7ef0d9c4b6"}},{"id":"86643641-968e-4a4c-9a0d-f3187878ad4d","type":"Feature","feature_type":"anchor","geometry":{"type":"Point","coordinates":[30.371033426076227,60.007724163837388]},"properties":{"unit_id":"7fa4e3ac-253a-4ed3-9bc5-960f543b2994","address_id":"64509db3-22c5-4f2b-b65e-351b65482b00"}},{"id":"bf6b9920-9370-4468-8c42-5e3a267910e9","type":"Feature","feature_type":"anchor","geometry":{"type":"Point","coordinates":[30.371093405315644,60.007661840643216]},"properties":{"unit_id":"5b814aee-7486-47bf-92cc-0ae241a52037","address_id":"d9d74db0-39a4-49b7-b1a0-8dbb9ffa2dc5"}},{"id":"d4123742-dc09-4e22-8e9a-82ad7df55e05","type":"Feature","feature_type":"anchor","geometry":{"type":"Point","coordinates":[30.371185442068427,60.007798176181169]},"properties":{"unit_id":"1c559c41-6481-444f-92d8-1d2291e12760","address_id":"b7a0a89b-bbd8-4aef-ac1e-0b3b11b25e04"}},{"id":"871af7c7-d032-4b42-b7f8-6cf8dabc0905","type":"Feature","feature_type":"anchor","geometry":{"type":"Point","coordinates":[30.372187111040635,60.00780891655311]},"properties":{"unit_id":"319e565a-cb47-4cfe-bc68-0484c1a62998","address_id":"a2500f8c-5480-48ff-b756-dfe1fe8f95f7"}},{"id":"6613f37b-dd8c-4fcd-b510-90c902d9d4b6","type":"Feature","feature_type":"anchor","geometry":{"type":"Point","coordinates":[30.374139257846672,60.007508495445336]},"properties":{"unit_id":"52b016ce-dfbe-4a96-942b-9337db5408ed","address_id":"22000b83-cee8-4fcf-8eac-9751f88a7afb"}},{"id":"ca3e44b5-9345-489b-8b6a-0dce6fb74023","type":"Feature","feature_type":"anchor","geometry":{"type":"Point","coordinates":[30.374093305477572,60.007440428811613]},"properties":{"unit_id":"3572c7c8-880f-4864-9907-bab422ea4d7d","address_id":"5e3dfe0f-e79a-4a52-a32b-9ef7b243358d"}},{"id":"b4434e9a-12a6-4c9a-ae20-7577f4e9a8f2","type":"Feature","feature_type":"anchor","geometry":{"type":"Point","coordinates":[30.374583611216938,60.0074882110341]},"properties":{"unit_id":"50770708-d91b-4f8a-b8e1-7237789bf28b","address_id":"49a18c31-c68c-44ee-a370-8ce269f6c5cb"}},{"id":"bb265cfb-e2c0-4260-a2d4-142c5033d028","type":"Feature","feature_type":"anchor","geometry":{"type":"Point","coordinates":[30.374332239446158,60.007502149311023]},"properties":{"unit_id":"7795f0b8-4ecd-434c-8b7d-819e952d46cb","address_id":"954c7e3e-2f19-405b-9c06-15b885fbd01d"}},{"id":"4526f675-af3c-4f86-a263-ef97a0df6c49","type":"Feature","feature_type":"anchor","geometry":{"type":"Point","coordinates":[30.374353945508975,60.007538233052543]},"properties":{"unit_id":"38079385-089a-4e10-993a-eb51cea3fa93","address_id":"e6f9fb6c-3eed-44ed-8d82-8d735e077f23"}},{"id":"600ed9ee-fa1f-46f0-870e-b0ef6fcb6fa3","type":"Feature","feature_type":"anchor","geometry":{"type":"Point","coordinates":[30.373999132818255,60.007589200555259]},"properties":{"unit_id":"8e47f451-c24a-49b0-85c2-2eb1e86fd064","address_id":"5fc8a9fc-c3f5-47ed-a900-72f0d5f7c46f"}},{"id":"b8d538f6-8e12-4d15-b9f3-51e3c47d3e96","type":"Feature","feature_type":"anchor","geometry":{"type":"Point","coordinates":[30.374179595567472,60.007568243464213]},"properties":{"unit_id":"50a5a17d-9f79-4975-9102-71182f4e5216","address_id":"bce74e48-39e3-4d7d-895f-1ec141bd3852"}},{"id":"c90337be-55dc-410f-9b1b-f2f7f8ec4a81","type":"Feature","feature_type":"anchor","geometry":{"type":"Point","coordinates":[30.374142202487281,60.007323025189557]},"properties":{"unit_id":"56b949ab-1a3e-4146-b204-53d05e5e1b68","address_id":"697de843-e53f-4ac5-9f1a-4b2aa6731b22"}},{"id":"5f502eb3-a793-49a5-8fb8-f7a68a59f649","type":"Feature","feature_type":"anchor","geometry":{"type":"Point","coordinates":[30.371977501677886,60.007688265350396]},"properties":{"unit_id":"96d46d7f-75ce-4209-93ff-366f8856dca0","address_id":"122950e7-e078-47a6-b122-816e17339276"}},{"id":"718f466e-945c-4ae1-ae0b-9dcebc52c7e2","type":"Feature","feature_type":"anchor","geometry":{"type":"Point","coordinates":[30.371707754771009,60.008037507478313]},"properties":{"unit_id":"697e5d32-c8a2-4fbc-969a-49f8af19223c","address_id":"1d877ed3-940a-4ef3-9490-cc58e0b59c1e"}},{"id":"46c6c265-2e25-4802-9f61-fd092250f2f0","type":"Feature","feature_type":"anchor","geometry":{"type":"Point","coordinates":[30.372880328842527,60.007239719654834]},"properties":{"unit_id":"b297223c-7dbf-4818-83e7-889d8c46b558","address_id":"a2143bb8-560e-44bd-9b41-5d50abeb9b35"}},{"id":"b061095f-6016-4d85-acae-982d84ab564f","type":"Feature","feature_type":"anchor","geometry":{"type":"Point","coordinates":[30.372647692259918,60.007352135675852]},"properties":{"unit_id":"c54903ce-3e37-49a7-89c3-4bbe2bba7f53","address_id":"331c0f0f-5ac6-45f2-b3b0-312abefadecc"}},{"id":"6e2e4ee4-287b-40f2-91ae-e68aca23dcca","type":"Feature","feature_type":"anchor","geometry":{"type":"Point","coordinates":[30.373201649499805,60.007258668861148]},"properties":{"unit_id":"634a0bed-6a18-47e3-8132-3b57cdad4c3a","address_id":"990d175e-85df-4499-b1ff-df32b19a1b19"}},{"id":"33863b9f-47ec-49fb-bd62-465560a2153e","type":"Feature","feature_type":"anchor","geometry":{"type":"Point","coordinates":[30.373201649499805,60.007258668861148]},"properties":{"unit_id":"634a0bed-6a18-47e3-8132-3b57cdad4c3a","address_id":"edc40da8-a901-42ea-ae34-0c5e94306564"}},{"id":"b788b34d-95eb-4c5b-be6d-4447eeed258a","type":"Feature","feature_type":"anchor","geometry":{"type":"Point","coordinates":[30.37171052193451,60.008122464385707]},"properties":{"unit_id":"d843e8d6-595c-4985-839c-aab1818932d8","address_id":"e2dad2f3-079b-4ea7-9eaf-a001841abb03"}},{"id":"a034b758-5ebf-44cc-8722-d19f1b0703e3","type":"Feature","feature_type":"anchor","geometry":{"type":"Point","coordinates":[30.374916041136522,60.00762907254623]},"properties":{"unit_id":"a554771f-4dd1-4d0a-b775-4e9281d80a78","address_id":"1498e0eb-7f8a-49f5-acac-d8f2d434a2aa"}},{"id":"e403421b-8e3e-469d-99b2-dc84bbe6055d","type":"Feature","feature_type":"anchor","geometry":{"type":"Point","coordinates":[30.374864106575682,60.007570507411884]},"properties":{"unit_id":"f1deeb85-c1c5-4d82-bae2-e842a628d9b1","address_id":"230673cb-6c69-484e-865e-35a898b6970c"}},{"id":"1284ed71-1064-4f30-8392-5a440e092b61","type":"Feature","feature_type":"anchor","geometry":{"type":"Point","coordinates":[30.375096539562684,60.007557550572329]},"properties":{"unit_id":"ed358211-d3aa-4698-9a6b-03e1bd2c9a77","address_id":"3f4f0875-26c2-48d4-b730-cca0a83999ae"}},{"id":"3f7cd704-f610-4693-852a-3c9b0592272f","type":"Feature","feature_type":"anchor","geometry":{"type":"Point","coordinates":[30.371514502835709,60.008155537397933]},"properties":{"unit_id":"ee405386-ff08-4ffd-9244-a81e03bb5db1","address_id":"be6a2e68-bdf4-4ecb-a21a-4f5ec83d8796"}},{"id":"4c8de612-4e7a-49e8-839c-3d57b16243ad","type":"Feature","feature_type":"anchor","geometry":{"type":"Point","coordinates":[30.370983853093108,60.007259622030048]},"properties":{"unit_id":"bbec9f03-04c3-45b2-af8b-3296af840bd3","address_id":"45373020-8091-4ba2-83e3-dd4788464292"}},{"id":"d0e432a1-51c6-4b88-a903-8441b6daca43","type":"Feature","feature_type":"anchor","geometry":{"type":"Point","coordinates":[30.374411931616084,60.006689034762168]},"properties":{"unit_id":"6a2727bb-d721-4ff7-b5d8-844750bcb1ea","address_id":"c4f9cf94-5e27-41be-825a-cedf452fd435"}},{"id":"437d5b4a-9854-40b8-bc2d-be2300c8e40d","type":"Feature","feature_type":"anchor","geometry":{"type":"Point","coordinates":[30.373045473694546,60.007484342644908]},"properties":{"unit_id":"f0eb4d11-5b91-43fe-a85d-f129fdbb84d2","address_id":"957ed073-d742-4c2d-990e-7273c6bc4d9c"}},{"id":"e92fe488-a7e7-4c34-a982-db940e36db9f","type":"Feature","feature_type":"anchor","geometry":{"type":"Point","coordinates":[30.374511593009174,60.007082731392174]},"properties":{"unit_id":"0ab00999-dc7b-402e-89f3-b0cf785ae4f1","address_id":"81d05ca1-4adf-44d2-b2d6-ede15674c0a4"}}]}