{"type":"FeatureCollection","name":"anchor","features":[{"id":"b2b5326b-1651-4c54-a65d-69412b387606","type":"Feature","feature_type":"anchor","geometry":{"type":"Point","coordinates":[30.373213524994767,60.007272601479613]},"properties":{"unit_id":"9d5d58ad-c1e2-4981-ab93-7d24c8fd4df4","address_id":"668d690f-5eaf-488e-b4be-ff3635424faf"}},{"id":"03756571-0417-4a5c-af70-9d461d685677","type":"Feature","feature_type":"anchor","geometry":{"type":"Point","coordinates":[30.374934117104047,60.007505831178428]},"properties":{"unit_id":"3682af3d-0862-4fc6-8c11-ee6d771b5170","address_id":"3e06089f-cac8-4598-84a3-29737150f003"}},{"id":"ed4e21a5-22a6-4a44-b6f5-612d7712a86d","type":"Feature","feature_type":"anchor","geometry":{"type":"Point","coordinates":[30.371528248165529,60.008088381223743]},"properties":{"unit_id":"8bc13b04-8ca4-4409-bf81-453fb6a11563","address_id":"0f5019f1-c3e9-4db3-826b-a6d7c262e694"}},{"id":"b0c39744-4327-448d-a195-54934cff1045","type":"Feature","feature_type":"anchor","geometry":{"type":"Point","coordinates":[30.371400590995524,60.008110216009619]},"properties":{"unit_id":"7aafe328-bb88-434d-8895-f37708997c6b","address_id":"b5811ad6-99f7-49c3-b6bd-5520acb0cb0d"}},{"id":"b6993640-554c-4967-a643-f8c788ef9dd9","type":"Feature","feature_type":"anchor","geometry":{"type":"Point","coordinates":[30.371655905525746,60.008066546437867]},"properties":{"unit_id":"e90207da-3e8a-4ba1-b8f5-1dc061b76c89","address_id":"f4af8201-1a48-4dbe-826f-f8e3331797ea"}},{"id":"054c5006-6c99-47b6-94ee-034cc7bb041f","type":"Feature","feature_type":"anchor","geometry":{"type":"Point","coordinates":[30.371502044279513,60.008050090894841]},"properties":{"unit_id":"2f8bf34c-40f7-4ffd-a436-c5d76def9192","address_id":"ce1b86e5-e3e9-41cb-aa40-c799c9c2a6f8"}},{"id":"d0e5ed65-fe3f-45be-b3f0-e13111785c1e","type":"Feature","feature_type":"anchor","geometry":{"type":"Point","coordinates":[30.371580655205076,60.00816496188154]},"properties":{"unit_id":"09b7c9ff-af88-4d25-b5e4-39c682536098","address_id":"63f5f189-d2fc-475e-b56e-3fd41b50d625"}},{"id":"679be033-dfa3-44ba-bc8d-69cff46ce95e","type":"Feature","feature_type":"anchor","geometry":{"type":"Point","coordinates":[30.375060070342045,60.007484288408591]},"properties":{"unit_id":"ff71a39b-5d41-44dc-afcf-51552b95c9fa","address_id":"41891de4-bd11-44ad-bb5d-c4d3213042e4"}},{"id":"6c67cce7-bf58-474f-81d2-d43b364fb20a","type":"Feature","feature_type":"anchor","geometry":{"type":"Point","coordinates":[30.374804760032269,60.007527957156995]},"properties":{"unit_id":"ec17df02-9946-4435-aa2a-54cda6423fbf","address_id":"c27e7764-ebed-4fcc-8491-76dbe3810a83"}},{"id":"77068a83-7119-4299-acfb-4c9fd8d370b8","type":"Feature","feature_type":"anchor","geometry":{"type":"Point","coordinates":[30.374906209877825,60.007467832316671]},"properties":{"unit_id":"a61f2056-b5c8-4b6c-bf91-6baa2bc3645b","address_id":"c9a0aa04-9e28-410d-b768-8d2fb75bb899"}},{"id":"ab7bf24b-7aac-4994-b289-6fb917cd53ef","type":"Feature","feature_type":"anchor","geometry":{"type":"Point","coordinates":[30.374984826297748,60.007582703852272]},"properties":{"unit_id":"eae06769-5d4d-4b1e-b551-ba1fb777e5b2","address_id":"5781fa09-85bc-419b-b4cf-b8e45651d0a4"}},{"id":"2da1048c-80d4-44f4-b48d-c130f9f5da77","type":"Feature","feature_type":"anchor","geometry":{"type":"Point","coordinates":[30.371034997340818,60.0073648291473]},"properties":{"unit_id":"792a4262-683a-4770-99a8-02eee22214d4","address_id":"c7054933-6d33-401a-b285-e207e233635a"}},{"id":"295a74a5-e7a8-4cca-b187-11dfaac26ebb","type":"Feature","feature_type":"anchor","geometry":{"type":"Point","coordinates":[30.37116095158029,60.007343285279653]},"properties":{"unit_id":"865ffae7-d58f-4d75-ac9a-f4efd8576f3e","address_id":"24bcba9b-0cd2-4973-8a5d-0ff2a091a5bd"}},{"id":"dc09d6af-103a-4342-88ee-bc3c78b8a829","type":"Feature","feature_type":"anchor","geometry":{"type":"Point","coordinates":[30.374437429239144,60.006782861761806]},"properties":{"unit_id":"3ab982c2-6e94-4304-b2db-def53cee1ac9","address_id":"e8ca6d28-8dfb-4d10-a9e0-7101c7c4faef"}},{"id":"7765b114-a4e1-4498-ab05-a4597d2330aa","type":"Feature","feature_type":"anchor","geometry":{"type":"Point","coordinates":[30.37430977500005,60.006804696273235]},"properties":{"unit_id":"014f274d-8816-4eae-8f14-e0cfc71aa59f","address_id":"e87e487e-1122-4b7a-bb29-185f808b7016"}},{"id":"78b771f5-0254-4e60-898c-b3990cca45b0","type":"Feature","feature_type":"anchor","geometry":{"type":"Point","coordinates":[30.372011617878769,60.007600030228843]},"properties":{"unit_id":"21c8133d-8d5c-4bfc-a04b-c80dec4e98d9","address_id":"71247d69-b8a0-4e8a-8e02-e400d187e72b"}},{"id":"b01a50c7-c7bb-4061-ac99-f912e102a167","type":"Feature","feature_type":"anchor","geometry":{"type":"Point","coordinates":[30.373954606985439,60.007271977103208]},"properties":{"unit_id":"85427139-ff45-45c6-9430-97bea498cf23","address_id":"7733ad97-08cc-4ab2-8e46-9ef71a7b2ec5"}},{"id":"df8e6eda-892b-4ae8-8ad1-ab162c1d76e5","type":"Feature","feature_type":"anchor","geometry":{"type":"Point","coordinates":[30.37446363418513,60.006821152090708]},"properties":{"unit_id":"3b64483e-6c81-4053-b496-0f7ea4ded520","address_id":"f50bbac5-94aa-48f3-b74d-f7bd9bb02b66"}},{"id":"6c397565-6b7e-4812-a7ae-9cf0679917ee","type":"Feature","feature_type":"anchor","geometry":{"type":"Point","coordinates":[30.374565083119471,60.00676102697593]},"properties":{"unit_id":"4e781530-2855-4a33-b515-2ca257401acf","address_id":"74e35ffd-11eb-4662-9893-c58ad2e96da1"}},{"id":"60d8e930-5454-43a9-a14b-5ffe7ebeb5d3","type":"Feature","feature_type":"anchor","geometry":{"type":"Point","coordinates":[30.374376284666152,60.006693517752531]},"properties":{"unit_id":"877c6e30-3589-4926-abb4-63c26d769de3","address_id":"3e45b84a-f220-4e39-bd46-a9d80f9c42cb"}},{"id":"687b423e-434e-4cfe-8bc4-19906ab909e5","type":"Feature","feature_type":"anchor","geometry":{"type":"Point","coordinates":[30.371059498795852,60.007403410668886]},"properties":{"unit_id":"7d0e7d9c-7950-40ae-94be-327e20bce5fd","address_id":"8ffebd18-56c2-4475-9017-1a247287e0a8"}},{"id":"3b6329e1-432b-4d8c-ba2d-f879c997c8a2","type":"Feature","feature_type":"anchor","geometry":{"type":"Point","coordinates":[30.370905639515009,60.00738695512586]},"properties":{"unit_id":"7d00850e-7c71-47b4-8dc9-53adec589af0","address_id":"69c3d0d2-7d51-4942-85d9-7ca172c04d40"}},{"id":"f40d2614-a6d7-4cd7-9a37-5b16d40d969c","type":"Feature","feature_type":"anchor","geometry":{"type":"Point","coordinates":[30.370972154253121,60.007275776056254]},"properties":{"unit_id":"b6828d7e-bdf5-4153-8563-2ed7a5dfdaec","address_id":"06ee1b00-1a95-463d-b73d-51648a0f12b1"}},{"id":"11f354f9-1a8b-452e-b2b2-ac6a7b2cb06c","type":"Feature","feature_type":"anchor","geometry":{"type":"Point","coordinates":[30.37205051767263,60.007656873182121]},"properties":{"unit_id":"abf1e94d-6b58-4a85-b613-05859cd1fb44","address_id":"c8e787f5-710b-447d-bcee-75088394a7f8"}},{"id":"35c642c3-d44d-4998-9fa7-4e44d11d78b4","type":"Feature","feature_type":"anchor","geometry":{"type":"Point","coordinates":[30.372076766734185,60.0076952288304]},"properties":{"unit_id":"c3a7fe06-b205-4825-b331-39578249e6ed","address_id":"e1c4fd02-c4f8-4490-a09b-6ff41619ccc3"}},{"id":"3d808ff6-73c2-4039-ba01-50b622c75543","type":"Feature","feature_type":"anchor","geometry":{"type":"Point","coordinates":[30.372281416554344,60.0075080726211]},"properties":{"unit_id":"50a63de8-cd59-4089-8b86-15e4b75b056d","address_id":"3cc3266d-f9d7-419a-bb39-adf17bf6e4e8"}},{"id":"a3060f15-1a79-4bed-9bba-51ca8d8fe880","type":"Feature","feature_type":"anchor","geometry":{"type":"Point","coordinates":[30.371694198127013,60.00760851186768]},"properties":{"unit_id":"b6bb6275-26f0-4f42-82e3-19b9e0e454c9","address_id":"bae0e004-c101-4728-a81c-e6a6e09a3cf5"}},{"id":"fc833f3a-5fce-47f5-bdd5-dc948bd24884","type":"Feature","feature_type":"anchor","geometry":{"type":"Point","coordinates":[30.374029523934215,60.007381445244249]},"properties":{"unit_id":"f3cf0af0-2357-4d05-a69e-65defe936ef3","address_id":"e3f83272-07a6-4348-95b6-cdb1ee5f57c0"}},{"id":"d57a2403-2272-4e0b-b3d0-2ab3dcd45126","type":"Feature","feature_type":"anchor","geometry":{"type":"Point","coordinates":[30.374221778641331,60.007176185412682]},"properties":{"unit_id":"6fe2e3d4-2da5-4df4-998e-4c712a4b6b36","address_id":"957e7876-029a-40ed-bafc-e54ecb01798d"}},{"id":"e58cbe34-3ed2-4fbb-8d30-d965950a4b06","type":"Feature","feature_type":"anchor","geometry":{"type":"Point","coordinates":[30.373634566106748,60.007276624933709]},"properties":{"unit_id":"004bde3b-3f56-484d-a82b-b0113014668b","address_id":"f282e758-29c1-4f7d-86bd-0977899f74db"}},{"id":"75e60b59-748a-4eb0-9e0b-ec9abc29c505","type":"Feature","feature_type":"anchor","geometry":{"type":"Point","coordinates":[30.372142898695284,60.007786308743306]},"properties":{"unit_id":"73e745de-e9dc-4ae2-b1ba-346a73f2953c","address_id":"da29a304-8650-437e-b21c-08cd7e3629bd"}},{"id":"02e3e479-3aad-4bc4-ad5d-bdaf09201f72","type":"Feature","feature_type":"anchor","geometry":{"type":"Point","coordinates":[30.37408017550457,60.007455456490234]},"properties":{"unit_id":"b6aab77d-ee11-4848-ba3e-000c57bd422e","address_id":"afc4e37c-7102-4c57-9a9a-0f71d77f4f62"}},{"id":"3b79776d-dce8-48c1-9a93-054c7d61dcb2","type":"Feature","feature_type":"anchor","geometry":{"type":"Point","coordinates":[30.372243239579941,60.007928068259659]},"properties":{"unit_id":"1aad4f8b-6683-4450-b4ab-2ae54a4196c4","address_id":"6381b11e-f0d8-4278-a2cb-e79fdec58f73"}},{"id":"3d76f9e8-1994-45e6-8072-3ccd898cb25f","type":"Feature","feature_type":"anchor","geometry":{"type":"Point","coordinates":[30.372160262728663,60.007942260678362]},"properties":{"unit_id":"d8742478-6ca0-48de-949e-3af42223704b","address_id":"d24067e0-780a-4ff1-9cf5-3f2c5935dc4b"}},{"id":"03da1e68-3f8a-4024-821b-5efd972ed608","type":"Feature","feature_type":"anchor","geometry":{"type":"Point","coordinates":[30.372328344315491,60.007913511918709]},"properties":{"unit_id":"515b62e7-add3-4fbd-ba6e-db74a7399326","address_id":"4a3dba97-a2b2-4219-9b70-ea86d9a1d711"}},{"id":"c24b67a4-2904-4fd5-b1f2-01eeeca0b6d4","type":"Feature","feature_type":"anchor","geometry":{"type":"Point","coordinates":[30.374974185386503,60.007539374325511]},"properties":{"unit_id":"19195841-2542-4e02-a762-25f49b7c985d","address_id":"64338d0e-e322-4efc-8ebc-871adbb5636e"}},{"id":"2317d056-e64d-489c-9a4c-27784f82f70e","type":"Feature","feature_type":"anchor","geometry":{"type":"Point","coordinates":[30.374762208189697,60.007535235327474]},"properties":{"unit_id":"6d9d48b5-4123-4485-a7f7-366c4cd8ed50","address_id":"57061c3e-c50c-4297-b808-90d914110359"}},{"id":"1d66ebb9-0052-43f6-8695-35333ec2a5b5","type":"Feature","feature_type":"anchor","geometry":{"type":"Point","coordinates":[30.374901965139429,60.007649153968622]},"properties":{"unit_id":"e705f187-6098-482a-9e66-63502aabfd51","address_id":"33afa63b-7a84-4d6a-a0e8-0d04dccdee05"}},{"id":"3cfab3f3-5fbb-4e1b-8abd-d19c1c0b5c6d","type":"Feature","feature_type":"anchor","geometry":{"type":"Point","coordinates":[30.375071385341908,60.0075702736845]},"properties":{"unit_id":"93c134eb-f88f-4092-93c7-45c10e77f552","address_id":"c30bce61-34d7-49f2-bd4b-d88e26d3bde8"}},{"id":"e59c45e8-8ba8-4a4f-b7f4-e9594d9e0e25","type":"Feature","feature_type":"anchor","geometry":{"type":"Point","coordinates":[30.374861201028747,60.007589591204287]},"properties":{"unit_id":"0671ae5a-d824-48cf-8370-f72255a8f79a","address_id":"077ed57d-6af1-4892-9b74-2de22816a95b"}},{"id":"1107392a-50ad-4be2-bef9-18d0ed9ddb5e","type":"Feature","feature_type":"anchor","geometry":{"type":"Point","coordinates":[30.374734526681408,60.007133630936011]},"properties":{"unit_id":"bfaff41b-be95-4725-9edd-e77fbdd638f4","address_id":"50a027da-438a-4af5-8d9a-3834b1eb78ca"}},{"id":"c026a4ec-a44d-4584-9aaf-714c27a97e07","type":"Feature","feature_type":"anchor","geometry":{"type":"Point","coordinates":[30.374510328243993,60.006806036418283]},"properties":{"unit_id":"05476cce-7e36-41a5-b403-aa88d4ccfc75","address_id":"978f8ffe-1fba-4c2e-b64d-f29b16f01633"}},{"id":"7d5d2455-b511-4ae7-9f72-6dabe612acf0","type":"Feature","feature_type":"anchor","geometry":{"type":"Point","coordinates":[30.374530709753493,60.006835817937677]},"properties":{"unit_id":"744f2581-ef1e-4731-8f48-982e6186e444","address_id":"bc98af84-4e42-4588-a6e8-4d89975f936a"}},{"id":"f000fd03-5e39-41de-af25-c3c9ca21f415","type":"Feature","feature_type":"anchor","geometry":{"type":"Point","coordinates":[30.374551091555848,60.006865598908171]},"properties":{"unit_id":"460575e8-dbb9-4ce9-8a48-320689316c73","address_id":"db9b2fc2-1088-4037-a564-78cb5eff86fb"}},{"id":"0baeeb93-9d43-484d-8415-d772493d0de7","type":"Feature","feature_type":"anchor","geometry":{"type":"Point","coordinates":[30.374571473102055,60.006895380153111]},"properties":{"unit_id":"9ccfc991-d0de-4f30-8b73-e5669570cfa9","address_id":"6896ff1d-93a9-4160-a1c0-602980a04652"}},{"id":"817f0d9e-0d63-4969-b7b3-a63409dc57c6","type":"Feature","feature_type":"anchor","geometry":{"type":"Point","coordinates":[30.374591854666612,60.006925161672505]},"properties":{"unit_id":"34e9b268-05ea-41e3-9dd4-1d1ed842049a","address_id":"d413344d-310c-4007-be43-ce2c50125567"}},{"id":"18092f33-d37e-475a-8ae8-3f36f456111d","type":"Feature","feature_type":"anchor","geometry":{"type":"Point","coordinates":[30.37462825062795,60.006978342623874]},"properties":{"unit_id":"c93b22ca-151b-4038-a55e-ce718c89070a","address_id":"0dff3c68-3fb8-4563-a897-3954cf29cbf4"}},{"id":"2852c99f-ecca-49e9-9dbd-558859f1ddd4","type":"Feature","feature_type":"anchor","geometry":{"type":"Point","coordinates":[30.374688667589091,60.007066622860442]},"properties":{"unit_id":"e894b806-dc9d-48f7-b250-3102085b59da","address_id":"f932033d-3154-4401-91ae-5ebb40c97826"}},{"id":"73339ae9-e9c7-4f57-879d-0b257e9f5d69","type":"Feature","feature_type":"anchor","geometry":{"type":"Point","coordinates":[30.374792032560602,60.007217656905048]},"properties":{"unit_id":"48da2d91-59bf-493f-8bcb-4a7ee2486ffe","address_id":"9d240f1d-89ae-4771-b900-bfea5ad06ad3"}},{"id":"e700aa24-d3d0-42b6-bfc7-8b73ec502149","type":"Feature","feature_type":"anchor","geometry":{"type":"Point","coordinates":[30.374823333363395,60.007263392545184]},"properties":{"unit_id":"3df1af19-88dd-4e35-9492-bad0e79a096d","address_id":"1a79209d-ad47-40bc-a0e7-a49418cb17ba"}},{"id":"dcd7c367-bf9d-40e7-b3c3-7bfae3119572","type":"Feature","feature_type":"anchor","geometry":{"type":"Point","coordinates":[30.3748437150175,60.007293173790124]},"properties":{"unit_id":"4161e689-164c-4967-84eb-99609fd7aafe","address_id":"8b19d761-3b3e-492e-9860-ebcd3a50040b"}},{"id":"db36fca1-b879-4554-9f4a-81406d65bced","type":"Feature","feature_type":"anchor","geometry":{"type":"Point","coordinates":[30.374864096964458,60.007322955035072]},"properties":{"unit_id":"b9f06b07-9c42-47e7-a8a9-09244cd1db94","address_id":"f79e39d7-6c7f-4ec5-ac1a-78b30184a895"}},{"id":"2469dd26-7f4e-4099-a7ce-74763a2f125c","type":"Feature","feature_type":"anchor","geometry":{"type":"Point","coordinates":[30.374936889546685,60.007429317486718]},"properties":{"unit_id":"298e078f-1ab9-414e-b365-7ffe88d71011","address_id":"228a7472-a1fc-46c9-ba37-eb1cc3bdf848"}},{"id":"5d7cee4b-5f05-408b-a185-64d4abc3241c","type":"Feature","feature_type":"anchor","geometry":{"type":"Point","coordinates":[30.374884478929758,60.007352736828913]},"properties":{"unit_id":"776e1b17-537b-41cc-a1b6-c364b13e2ebd","address_id":"5e24404f-0103-4826-96c9-3dfa108b70e4"}},{"id":"39477964-9174-4cac-9515-42a963ae33e0","type":"Feature","feature_type":"anchor","geometry":{"type":"Point","coordinates":[30.374904860638924,60.007382518073861]},"properties":{"unit_id":"5a471d95-b9fc-45af-a963-883a1e84ff60","address_id":"b234b427-95a0-4f6a-bc16-1576637c7bdf"}},{"id":"fb02aca6-8940-4284-9af7-6c32f4409879","type":"Feature","feature_type":"anchor","geometry":{"type":"Point","coordinates":[30.374960183650657,60.007463352999189]},"properties":{"unit_id":"230f1587-f38a-432f-9bfa-47d64ab1a9e3","address_id":"ffcbbf46-507b-459d-ae6b-7c293d1d5797"}},{"id":"db059ef0-f3fe-4c37-896b-ce8df227f335","type":"Feature","feature_type":"anchor","geometry":{"type":"Point","coordinates":[30.375060070342045,60.007484288408591]},"properties":{"unit_id":"9ac80c28-60f7-4729-962b-9dcd99168b65","address_id":"7e6cb007-4b2b-426c-9eb2-0f7ad50b3eeb"}},{"id":"527f9200-3293-4453-ad1e-fef96d9c8043","type":"Feature","feature_type":"anchor","geometry":{"type":"Point","coordinates":[30.374588190365319,60.007503217854428]},"properties":{"unit_id":"ff62fd11-4edc-42d0-a6c2-1716d31f1985","address_id":"cbda2646-ce71-4328-827b-0063f1f1f8ce"}},{"id":"07151d6b-3821-4780-ab39-b11597cdb9e1","type":"Feature","feature_type":"anchor","geometry":{"type":"Point","coordinates":[30.374331338442911,60.007516853411715]},"properties":{"unit_id":"7e1da9ab-2ddf-4c96-9639-1b1d13b6d8be","address_id":"7f0d4458-c16e-448c-9e0d-f76f800c64e9"}},{"id":"359e541f-61ac-4ebe-927f-2a6d51236181","type":"Feature","feature_type":"anchor","geometry":{"type":"Point","coordinates":[30.374349900376082,60.007543975773757]},"properties":{"unit_id":"c228128c-ced8-4a0d-bddc-8f9d265524c6","address_id":"dd161520-cc48-4b15-a50a-9c9b6a739adb"}},{"id":"02183a3b-be81-4aa7-ad8d-a33e2e4568cf","type":"Feature","feature_type":"anchor","geometry":{"type":"Point","coordinates":[30.374020682958854,60.00759078149899]},"properties":{"unit_id":"32b9a3b3-b57a-4092-9ca0-78955d435485","address_id":"009f3409-a038-4f12-8bdd-0ef8d901dc90"}},{"id":"6df188a9-724d-416d-9076-a80c6c8d9d3f","type":"Feature","feature_type":"anchor","geometry":{"type":"Point","coordinates":[30.374168495768249,60.007584508917589]},"properties":{"unit_id":"5557a93a-ffe8-4ed0-8512-b3a00dac0011","address_id":"7bd2874e-9189-4929-9c85-38ab4ab86bb3"}},{"id":"88bf8045-2932-4ca4-bc72-2c3ba72693be","type":"Feature","feature_type":"anchor","geometry":{"type":"Point","coordinates":[30.37408114608521,60.007456874579411]},"properties":{"unit_id":"04460ddf-74df-4e3f-92a3-9cc6b99ad658","address_id":"3d4f35b7-6822-4465-b461-568251bfdab9"}},{"id":"fbc35c60-bb08-4902-9883-66879ce5183a","type":"Feature","feature_type":"anchor","geometry":{"type":"Point","coordinates":[30.374267223842786,60.006811974443714]},"properties":{"unit_id":"497400c2-0f23-451a-b331-cabae32f4003","address_id":"357c4512-4c8b-478a-8921-a39ac6b01b51"}},{"id":"e0199ec4-1bbb-46fa-98ca-a0bdff884dec","type":"Feature","feature_type":"anchor","geometry":{"type":"Point","coordinates":[30.374479980358952,60.006775583591335]},"properties":{"unit_id":"a881b3b5-b972-44c8-812b-9972b8a18a90","address_id":"38b97ba1-b3d9-46d7-b522-814c2c7ed7c0"}},{"id":"8f51e275-09fd-421c-9229-afdda4c90e93","type":"Feature","feature_type":"anchor","geometry":{"type":"Point","coordinates":[30.374376284666152,60.006693517752531]},"properties":{"unit_id":"1e577828-65ef-4993-ba07-d58230008667","address_id":"fd1e5172-f389-4958-9c72-03ecab7ab1f7"}},{"id":"66ab4360-4836-4e08-be5c-e01516672639","type":"Feature","feature_type":"anchor","geometry":{"type":"Point","coordinates":[30.373225764466259,60.007471071389332]},"properties":{"unit_id":"1bacb788-43fb-468a-9976-c63c0655d978","address_id":"488884f9-597b-4d82-96be-1456d48bfae0"}},{"id":"87eeb090-4f31-4b95-8dbd-0e93a2e3b185","type":"Feature","feature_type":"anchor","geometry":{"type":"Point","coordinates":[30.372833618736379,60.007538711800393]},"properties":{"unit_id":"3d3711f7-cf53-498d-9002-578fd4c9a048","address_id":"20cf8435-a95d-4c19-9b24-297c6664cb64"}},{"id":"c0c3573b-c813-41b4-a4fb-5368d736c2d8","type":"Feature","feature_type":"anchor","geometry":{"type":"Point","coordinates":[30.373035037501328,60.007497983247333]},"properties":{"unit_id":"62b56aeb-17a8-4f7f-8ba9-9ef198ab9587","address_id":"d2534e8c-601d-4c16-9ebd-65d662658aa1"}},{"id":"691af80f-c2a3-4f70-b289-18efc49bfd8a","type":"Feature","feature_type":"anchor","geometry":{"type":"Point","coordinates":[30.37261242485696,60.00739442596106]},"properties":{"unit_id":"c8c16e63-87d5-47b1-b8da-d55c0757b242","address_id":"7dc574b7-4784-4c7b-966a-d673f7407345"}},{"id":"b107bd9b-d50c-4605-a532-fc85063664f0","type":"Feature","feature_type":"anchor","geometry":{"type":"Point","coordinates":[30.373213524994767,60.007272601479613]},"properties":{"unit_id":"9d5d58ad-c1e2-4981-ab93-7d24c8fd4df4","address_id":"93b4de76-7312-4c5e-9eec-b34bebd66145"}},{"id":"70476bed-967a-4d57-8ff1-f0470bb2a950","type":"Feature","feature_type":"anchor","geometry":{"type":"Point","coordinates":[30.374007339968994,60.007196230228054]},"properties":{"unit_id":"9ff4d255-dcb9-43db-a848-60a5b09bd834","address_id":"b7983a8e-b170-4daa-ad2d-8729d582a969"}},{"id":"33777dff-b773-4dd0-8e46-c0e45ee4f8e4","type":"Feature","feature_type":"anchor","geometry":{"type":"Point","coordinates":[30.373820112399443,60.007228254287924]},"properties":{"unit_id":"8508c1ee-8564-4d11-beb4-07371c9f3a68","address_id":"a5c863c4-4ee0-4ed5-b816-175ffe3eaab0"}},{"id":"9af2bb64-51cc-4211-b5fb-74b15a6486f7","type":"Feature","feature_type":"anchor","geometry":{"type":"Point","coordinates":[30.3738685960947,60.007146297955138]},"properties":{"unit_id":"8ac4ac64-904c-406a-82d0-015c07cdf67a","address_id":"ebcaae77-939f-42fd-b40c-73db6b7be74c"}},{"id":"510cbcad-6abf-45ca-bca7-9183f24345a0","type":"Feature","feature_type":"anchor","geometry":{"type":"Point","coordinates":[30.374275059859482,60.007124299321909]},"properties":{"unit_id":"b6d22f0e-9efa-4db6-a075-814527382131","address_id":"79a9d825-18d5-49ad-abd6-75597d1a9170"}},{"id":"1031ebd1-c3da-45b9-96dd-3fe2810b255d","type":"Feature","feature_type":"anchor","geometry":{"type":"Point","coordinates":[30.374211232668696,60.00713521671485]},"properties":{"unit_id":"f3bc7f6c-b266-4191-ad88-65fccbe6aff7","address_id":"3b6772f7-8c87-4862-b9be-dc1a92f8599f"}},{"id":"a9a6e85b-05a8-4113-bc93-ab98d04ee301","type":"Feature","feature_type":"anchor","geometry":{"type":"Point","coordinates":[30.37335943358779,60.007280912409826]},"properties":{"unit_id":"84aae478-b105-48e3-94d9-819c2dc135f2","address_id":"d0f5e64c-f27b-413a-8741-46fba8139942"}},{"id":"2b6d1fc9-7c5a-45b4-aec4-6c735382f1ad","type":"Feature","feature_type":"anchor","geometry":{"type":"Point","coordinates":[30.373644530115754,60.007232148201069]},"properties":{"unit_id":"3dcb87f9-849f-4c37-860f-b4807457fe1f","address_id":"24f19e68-4730-4456-ad04-dc1bcc9b9e6f"}},{"id":"eb6e667d-8778-4e68-94ad-0922a69515d8","type":"Feature","feature_type":"anchor","geometry":{"type":"Point","coordinates":[30.373887978412537,60.007382983543039]},"properties":{"unit_id":"7558b6a5-4c6b-44fc-b9f0-9ced9e247bf1","address_id":"d939c7f0-e136-42b5-9e01-68bdc1c7d503"}},{"id":"597d4103-2595-4b4e-873d-9b4e574d2e39","type":"Feature","feature_type":"anchor","geometry":{"type":"Point","coordinates":[30.372159840245189,60.007814016235237]},"properties":{"unit_id":"fe811c40-18d5-4b39-b8c2-e4cfa86bdfdc","address_id":"ffde7413-4e56-4951-8b65-5ca1326982ea"}},{"id":"9295240f-2278-4158-9a3b-b12cdd2af99e","type":"Feature","feature_type":"anchor","geometry":{"type":"Point","coordinates":[30.372066976904271,60.007528117436479]},"properties":{"unit_id":"ca0dfbb4-eb8d-4798-9748-04e6d61ad4c6","address_id":"26b44521-7e98-4e57-88af-acb32c836ac6"}},{"id":"8ed24960-e6aa-4b26-bcd5-3568e7518175","type":"Feature","feature_type":"anchor","geometry":{"type":"Point","coordinates":[30.371879747181364,60.0075601417708]},"properties":{"unit_id":"50fa0774-e2a6-43d8-ad73-2f0bd9eff528","address_id":"93862905-9e41-4316-b477-6ed629e10e11"}},{"id":"e3132e71-0972-4398-9635-87ee7a5f3eee","type":"Feature","feature_type":"anchor","geometry":{"type":"Point","coordinates":[30.371973362065486,60.00754412946641]},"properties":{"unit_id":"04aa0bfa-a6f6-43b6-81a6-1780b3386325","address_id":"9f879848-d5d0-4c7e-8639-c28dce3bd3f6"}},{"id":"06c16f15-119b-4fd4-96bb-1a4de2136837","type":"Feature","feature_type":"anchor","geometry":{"type":"Point","coordinates":[30.37192629245455,60.007475348710756]},"properties":{"unit_id":"a6b5ad33-8a32-4317-b603-7bfd895a925e","address_id":"45b49e7c-3ada-407f-8ac0-5ebbd5994303"}},{"id":"20ecf048-35f9-4282-82e1-85779fa30737","type":"Feature","feature_type":"anchor","geometry":{"type":"Point","coordinates":[30.37217460959765,60.00763175458804]},"properties":{"unit_id":"3eeaed7c-93fe-47f2-b472-9a490363f8e4","address_id":"4fe92f26-b81b-4162-985b-8a482db1a7dc"}},{"id":"0448b6d8-32e5-45d4-b675-a29fc8d4ca18","type":"Feature","feature_type":"anchor","geometry":{"type":"Point","coordinates":[30.37105837833958,60.00769350198366]},"properties":{"unit_id":"6c7de2b4-d992-476c-a40b-34e450e4997b","address_id":"fd0f7ca1-0be4-4f9f-91df-2688e6a08f0f"}},{"id":"4c42361f-07cd-4b8b-9b42-9bfd3451e24f","type":"Feature","feature_type":"anchor","geometry":{"type":"Point","coordinates":[30.371144266992253,60.007819009050856]},"properties":{"unit_id":"81a0d629-41a7-4960-ab65-6db3517daa4b","address_id":"a4a44ee7-a522-4a2b-b9ea-79d928d4be8b"}},{"id":"e51476cc-0f92-435c-a951-48ab8a6a67a2","type":"Feature","feature_type":"anchor","geometry":{"type":"Point","coordinates":[30.371102050927796,60.007757319289979]},"properties":{"unit_id":"6bb2f005-7225-4037-99cd-0f11d362f772","address_id":"4b39ce93-7174-471b-80e0-6e5afa334978"}},{"id":"6a6358a8-d470-4ae4-8d7c-bdbc57dc935c","type":"Feature","feature_type":"anchor","geometry":{"type":"Point","coordinates":[30.371265093294927,60.007814976265415]},"properties":{"unit_id":"fe1cabef-8be6-4a5d-aba0-e69b57512299","address_id":"010500f3-da89-4d60-8dce-14e97be625bf"}},{"id":"261fb7d8-b363-4c34-a9a5-28e1598b36af","type":"Feature","feature_type":"anchor","geometry":{"type":"Point","coordinates":[30.371333176922594,60.007803330753532]},"properties":{"unit_id":"1c1d1962-3712-40cb-b988-f48bfa772866","address_id":"8d45afed-f762-4100-83b2-9ffba9d234c7"}},{"id":"bd709048-2bbd-43be-b299-ab6bc6837be6","type":"Feature","feature_type":"anchor","geometry":{"type":"Point","coordinates":[30.371215262337664,60.007631025096842]},"properties":{"unit_id":"87a6d035-2b97-4639-8872-7c58348dcd22","address_id":"aca7147f-3eed-430e-ad8a-105ae5506aa5"}},{"id":"a17c925b-f3d8-4b04-a4aa-b5350428b8d7","type":"Feature","feature_type":"anchor","geometry":{"type":"Point","coordinates":[30.371147178317639,60.007642670059823]},"properties":{"unit_id":"4136bcb3-1745-44cd-af61-b296c5394d1f","address_id":"c340bf1f-4b7a-43ce-b4f6-d56a31ca85e7"}},{"id":"468db45d-fed1-4cb6-ba7f-c6254c59714a","type":"Feature","feature_type":"anchor","geometry":{"type":"Point","coordinates":[30.371243817108414,60.007728318584149]},"properties":{"unit_id":"ae4f4046-e051-4d26-a179-d1b76094fb0c","address_id":"c0a43da0-03d1-498b-bd00-8f1b360cc8ea"}},{"id":"075b1d41-1bae-4ab2-9857-1c42813fd474","type":"Feature","feature_type":"anchor","geometry":{"type":"Point","coordinates":[30.371456804866661,60.00806733411271]},"properties":{"unit_id":"32b501be-c468-4713-b5c1-1f94495b8dac","address_id":"a797f762-0d9e-49ee-91b3-0fdff6d25629"}},{"id":"04e6fabd-0387-4477-952a-0672df207293","type":"Feature","feature_type":"anchor","geometry":{"type":"Point","coordinates":[30.371397727249825,60.007985930250122]},"properties":{"unit_id":"018d9125-5ebd-4291-9d97-db69180541b7","address_id":"e120e68b-7322-4609-9040-563c3fb71bbe"}},{"id":"aed0f926-d0dd-4c42-a312-947010a34a64","type":"Feature","feature_type":"anchor","geometry":{"type":"Point","coordinates":[30.371354902662652,60.007918427339092]},"properties":{"unit_id":"24df8576-be19-4da8-a697-8847b7881063","address_id":"c5b25d25-0fc9-4775-8450-ae8dd383c656"}},{"id":"f8aa09cf-6b63-4f48-a25f-4a4913ab140e","type":"Feature","feature_type":"anchor","geometry":{"type":"Point","coordinates":[30.371334521837738,60.007888645545243]},"properties":{"unit_id":"31fd19ae-61fd-4854-ac74-80a76bfba1c8","address_id":"92487008-6d2f-4572-bbc3-8506d9616f4f"}},{"id":"3477248a-af17-4d70-8901-65bc17ebbb2e","type":"Feature","feature_type":"anchor","geometry":{"type":"Point","coordinates":[30.371314141305639,60.0078588643003]},"properties":{"unit_id":"f2d5fe2a-b81a-47f6-a18c-0a76a5d1870b","address_id":"63dc216e-6a6e-49c9-aa61-ba07bd3a2e3d"}},{"id":"4e5114f3-d4e1-4140-b5d2-1f14fcfedfa3","type":"Feature","feature_type":"anchor","geometry":{"type":"Point","coordinates":[30.371714502075903,60.008138579439837]},"properties":{"unit_id":"e0f30c41-5309-4e4f-b7fb-d2afd4a6abf0","address_id":"a5c1e8eb-585b-46c9-8679-416d4cb48555"}},{"id":"ff85938f-872d-4bc8-86e6-efecbb1d1c39","type":"Feature","feature_type":"anchor","geometry":{"type":"Point","coordinates":[30.371505358342723,60.008175299359166]},"properties":{"unit_id":"191ca7e6-48c4-4af3-a47b-899bd412bc53","address_id":"1e57946b-3c86-48a0-a733-8bed11ac38b9"}},{"id":"0f177701-8d7e-4087-9d95-ea200eedaee9","type":"Feature","feature_type":"anchor","geometry":{"type":"Point","coordinates":[30.371186482631035,60.007338918212696]},"properties":{"unit_id":"72f237c9-70e8-4be0-bb58-a1141f70a152","address_id":"c9da5afe-62f0-41c5-a718-a018aae1bd98"}},{"id":"8e4f407e-0550-40e1-bd83-9959eb9c0df5","type":"Feature","feature_type":"anchor","geometry":{"type":"Point","coordinates":[30.370980664782209,60.007274320367266]},"properties":{"unit_id":"560d043a-24e1-4d28-bb10-db16b185fb3e","address_id":"1d1ab02b-8469-4e7f-b6e3-7ba81b73699d"}},{"id":"1a968ac7-4376-4932-adeb-08a5a26fdff7","type":"Feature","feature_type":"anchor","geometry":{"type":"Point","coordinates":[30.370905639515048,60.007386954576958]},"properties":{"unit_id":"5fb70fed-2d32-4631-b868-a696e9f7c1ac","address_id":"cd5e35b4-066b-4862-9a1a-c9e469aed1ab"}},{"id":"dde86356-136c-4c9c-b01a-3901cafad7b2","type":"Feature","feature_type":"anchor","geometry":{"type":"Point","coordinates":[30.374002531658697,60.007342003592711]},"properties":{"unit_id":"8fd093b1-5e3e-4db9-86a7-a4deddd9f3a8","address_id":"36c6f362-9847-4621-91cb-80099975f99c"}},{"id":"9df08b7e-b035-4064-ba87-6b84a9215fd2","type":"Feature","feature_type":"anchor","geometry":{"type":"Point","coordinates":[30.372050517947127,60.007656873182121]},"properties":{"unit_id":"736f92ab-6f5a-4f2f-84cd-61ce29b57fed","address_id":"babced06-ec19-4c22-973f-beca9b2272d4"}},{"id":"c536aea6-a950-4cb0-975e-17ba5cf50e8e","type":"Feature","feature_type":"anchor","geometry":{"type":"Point","coordinates":[30.374171615717582,60.007511056454184]},"properties":{"unit_id":"b79458db-2991-42ee-8e0e-ac7bab206d34","address_id":"3c403d6f-700a-43ef-bc0f-09328d8520b4"}},{"id":"7c0fa363-9062-411b-ad28-7492d837aefc","type":"Feature","feature_type":"anchor","geometry":{"type":"Point","coordinates":[30.374092996887786,60.007524503463522]},"properties":{"unit_id":"e2383132-92fc-414c-acb7-36e422bae844","address_id":"155d7223-e02c-4e85-83ce-815e5be69ab4"}},{"id":"9e5d97da-0a69-43cb-9b6b-1f2361e10abd","type":"Feature","feature_type":"anchor","geometry":{"type":"Point","coordinates":[30.374141096038695,60.007530581459044]},"properties":{"unit_id":"a3e0202b-9cff-4b50-ba72-ecce40481276","address_id":"83b50df8-934f-4d98-bbd5-4010d9529a26"}},{"id":"dda74aea-6c8b-4d0a-bb55-b5f650d8f77d","type":"Feature","feature_type":"anchor","geometry":{"type":"Point","coordinates":[30.373002336925349,60.00740852616417]},"properties":{"unit_id":"c3e9d838-06f3-4e43-b312-48d0f0cfd7ad","address_id":"53f8ce4a-2e01-422b-82d2-701a786b2cde"}},{"id":"8fa049c9-4839-48ef-86c0-dc1b7d9a4f8a","type":"Feature","feature_type":"anchor","geometry":{"type":"Point","coordinates":[30.37113654045962,60.007599341081963]},"properties":{"unit_id":"18d8776c-61cb-42aa-8451-e7a5a4653714","address_id":"720f3ae1-a112-4e32-8beb-b1dc81266f03"}},{"id":"65bbf489-d0be-423e-a014-66814cab9eb7","type":"Feature","feature_type":"anchor","geometry":{"type":"Point","coordinates":[30.371114704327731,60.007567432566027]},"properties":{"unit_id":"bf362734-951c-4dd0-97cc-bd5e206d9401","address_id":"0041f93f-ebe2-4115-b564-ec551b988795"}},{"id":"f05b79a2-deda-499f-8538-82db20b1b6c1","type":"Feature","feature_type":"anchor","geometry":{"type":"Point","coordinates":[30.371092868491406,60.0075355240501]},"properties":{"unit_id":"bfbe72c0-01bc-4502-bb00-be02988ba183","address_id":"a8062ffc-155c-4958-b0de-b68c2d763224"}},{"id":"663a817b-2146-457b-a456-9eb638566ca5","type":"Feature","feature_type":"anchor","geometry":{"type":"Point","coordinates":[30.371071032127173,60.007503615259715]},"properties":{"unit_id":"8af57db8-c072-41f2-a9db-9ee1050de035","address_id":"485117e2-84f6-4223-ac62-825f70d6bf39"}},{"id":"0976bd8c-eb13-425e-b0cc-1ab463b9a70f","type":"Feature","feature_type":"anchor","geometry":{"type":"Point","coordinates":[30.371049196058486,60.007471706743779]},"properties":{"unit_id":"832f5050-099c-4d70-9688-5fa02578a802","address_id":"b6c9d401-91bb-41e5-a98c-db117839a3e2"}},{"id":"7b18a511-4763-4f5c-9a39-d444af17df73","type":"Feature","feature_type":"anchor","geometry":{"type":"Point","coordinates":[30.371027360559854,60.00743979822785]},"properties":{"unit_id":"eea629cb-815a-4648-95cb-24cb6784c0eb","address_id":"e596e2b0-9f29-4ce3-8837-00ce6bdc1f67"}},{"id":"c18ae3a2-db0e-413b-9c06-971dfc20fa2a","type":"Feature","feature_type":"anchor","geometry":{"type":"Point","coordinates":[30.371005524533302,60.007407889711914]},"properties":{"unit_id":"bea4290b-4f29-414c-b979-505a04b7f128","address_id":"12812fd1-f39f-4ae9-94a5-79d184da9ff4"}},{"id":"e3221d1d-74e0-4473-bea4-1f7c17690da1","type":"Feature","feature_type":"anchor","geometry":{"type":"Point","coordinates":[30.372880723564549,60.007272495541464]},"properties":{"unit_id":"e796246e-824c-41d1-b48f-c11857cee6fd","address_id":"53cea020-c440-4189-8a41-197a07538615"}},{"id":"38e21030-58ad-4df7-a60c-e823ebf1d243","type":"Feature","feature_type":"anchor","geometry":{"type":"Point","coordinates":[30.371400590995524,60.008110216009619]},"properties":{"unit_id":"ccabc9cc-495c-4d7f-b46d-00cf75f98766","address_id":"5df9b99b-db14-4137-91d1-c9685072c302"}},{"id":"bf6e87d4-f946-4193-982f-1e76960c8363","type":"Feature","feature_type":"anchor","geometry":{"type":"Point","coordinates":[30.374144744912943,60.007341441516722]},"properties":{"unit_id":"a919c494-2215-46d0-966c-255ab6858166","address_id":"141521a4-06fd-4803-bd66-84fe43e8715a"}},{"id":"5f253a86-c4ea-4625-b036-9357579500e1","type":"Feature","feature_type":"anchor","geometry":{"type":"Point","coordinates":[30.3716984580519,60.008059268541842]},"properties":{"unit_id":"6c2a3d45-75c6-4775-8857-dcd1e4a376aa","address_id":"27c0dc9d-1547-49ee-8516-55097379c082"}},{"id":"eb19b72f-6823-4ced-bae4-a8a1b591b51a","type":"Feature","feature_type":"anchor","geometry":{"type":"Point","coordinates":[30.371935862970275,60.007698901810357]},"properties":{"unit_id":"dace4d96-4ef5-455d-8bf7-71d96a4569cb","address_id":"4a786c20-c4d7-4ba7-920e-5133a5d3c4eb"}},{"id":"6904d7a8-675a-4179-bcb7-bd310fb86ceb","type":"Feature","feature_type":"anchor","geometry":{"type":"Point","coordinates":[30.371393533509679,60.007617166410753]},"properties":{"unit_id":"8da51dff-fb11-41d3-a96d-4e3a62fb350c","address_id":"b423f291-861e-4369-ba4e-f981078239ab"}},{"id":"ff8046a4-d8aa-4639-9e8c-777d1f33f8d6","type":"Feature","feature_type":"anchor","geometry":{"type":"Point","coordinates":[30.374466541717172,60.0070915471431]},"properties":{"unit_id":"6b9859d2-5093-478b-9919-1dfbf1843a09","address_id":"6a8a929b-c482-41b8-ad0d-3f2ada4b5e0e"}},{"id":"f2642933-ad12-45ee-af3e-12ce0e4e4b58","type":"Feature","feature_type":"anchor","geometry":{"type":"Point","coordinates":[30.374402714589593,60.007102464536032]},"properties":{"unit_id":"8b37733c-233e-4461-bbf6-24a2b7dfa02c","address_id":"f9435a52-2314-4bd2-ad5e-922221331321"}},{"id":"9194408a-0c90-4328-86b8-87cbc00fd608","type":"Feature","feature_type":"anchor","geometry":{"type":"Point","coordinates":[30.374338887303697,60.007113381928974]},"properties":{"unit_id":"b8c19721-03e2-4867-aa4f-f65daf0225a7","address_id":"20863e1b-8eb0-4d6a-a440-c3df612fcd8c"}},{"id":"b6c4d2dc-c91c-4129-990e-edfe2a62669b","type":"Feature","feature_type":"anchor","geometry":{"type":"Point","coordinates":[30.373513385905095,60.007254579643785]},"properties":{"unit_id":"601db1d1-3ba0-43e3-8290-e2ab8e823b7b","address_id":"696b2e63-95b3-4e7a-b2fe-bce1ee32b232"}},{"id":"941e15eb-fe44-4f4b-ab2f-db2fd57201bc","type":"Feature","feature_type":"anchor","geometry":{"type":"Point","coordinates":[30.373449558600125,60.007265497036727]},"properties":{"unit_id":"304ef7ca-1390-4e73-bfc5-a21549c85f04","address_id":"8e87215c-67cd-4eab-a8c0-31fe23c99969"}},{"id":"227bc5fd-20c9-44ec-afd9-b8d4927cc750","type":"Feature","feature_type":"anchor","geometry":{"type":"Point","coordinates":[30.374147404907855,60.007146133833338]},"properties":{"unit_id":"59d896eb-c2cb-477f-aa53-eaacea47fef1","address_id":"a5f8ac16-df02-4ebe-a000-7ae06f243342"}},{"id":"a07e328a-49db-4eea-a801-78948e144d77","type":"Feature","feature_type":"anchor","geometry":{"type":"Point","coordinates":[30.374083577949424,60.00715705122628]},"properties":{"unit_id":"e2b11c16-97cc-4524-affb-299cca2ab424","address_id":"1d17e2bd-f23c-4a35-b868-32e74c52823b"}},{"id":"caba621e-4de1-4bb8-85c0-4a02e4fd8a3a","type":"Feature","feature_type":"anchor","geometry":{"type":"Point","coordinates":[30.372525673187923,60.00742352162699]},"properties":{"unit_id":"bce54b85-9276-4949-a2ee-698c7d1200f8","address_id":"03484e0e-5d6f-4681-9635-f437a96cf14e"}},{"id":"66dd8bdc-a5ef-4012-b2a6-6c177151c11d","type":"Feature","feature_type":"anchor","geometry":{"type":"Point","coordinates":[30.372461845694154,60.007434439019924]},"properties":{"unit_id":"e1a2bc9e-da59-47da-992f-786ce6e04185","address_id":"9d769455-e550-426d-ae92-f51170533e56"}},{"id":"669785ff-0153-4545-a97d-75661b0545e5","type":"Feature","feature_type":"anchor","geometry":{"type":"Point","coordinates":[30.372398017355831,60.007445356412866]},"properties":{"unit_id":"91008844-7a56-4812-b5a0-2f29d584ef14","address_id":"3e416065-1870-4bd5-90a8-d738d1cee0d8"}},{"id":"a97de4fd-08ed-4f09-8a5e-7cbf620870ef","type":"Feature","feature_type":"anchor","geometry":{"type":"Point","coordinates":[30.372334189545427,60.007456273805808]},"properties":{"unit_id":"ff3555bc-a3bc-42a9-afe2-fded7c339a13","address_id":"42cc0a49-f60f-4aa8-a64c-8a40ed088bac"}},{"id":"aa75509e-911e-466d-854d-6a73575ac5d5","type":"Feature","feature_type":"anchor","geometry":{"type":"Point","coordinates":[30.372270361713969,60.007467190924295]},"properties":{"unit_id":"48b6fd38-1a80-4a19-b30f-94a60225cb70","address_id":"f2bafaf0-d964-43e1-82d2-7a0ef37e3ead"}},{"id":"799ec42f-5aa8-42c2-9931-ffd0e83990be","type":"Feature","feature_type":"anchor","geometry":{"type":"Point","coordinates":[30.372206533586919,60.007478108591684]},"properties":{"unit_id":"2072f6ac-bc8e-4dd2-9f09-1aca81dd8022","address_id":"4fd2825b-b16b-422a-a61e-3ea42bb185b3"}},{"id":"adeab76f-5a54-4d87-a5f8-b8fba35919a0","type":"Feature","feature_type":"anchor","geometry":{"type":"Point","coordinates":[30.372142705713305,60.007489025984626]},"properties":{"unit_id":"66274406-286f-4d05-8a82-26616224a28e","address_id":"d355180e-162f-4a50-a39f-328f81a1b478"}},{"id":"c4384419-956a-4da8-b6d5-7ce1a24426cc","type":"Feature","feature_type":"anchor","geometry":{"type":"Point","coordinates":[30.371487148043204,60.007601154380815]},"properties":{"unit_id":"032cf25d-ce50-42c7-9090-5a531ffa6dff","address_id":"10cfbc84-7f8c-44be-a03b-10eee5836172"}},{"id":"979c4d7b-c0af-4699-a70b-769d804483d2","type":"Feature","feature_type":"anchor","geometry":{"type":"Point","coordinates":[30.371580763080395,60.007585142350884]},"properties":{"unit_id":"bfbbeb11-8ecb-4bf5-9d49-aea6e69f2d29","address_id":"7437b8e2-6d12-4266-9000-0d05419c621c"}},{"id":"9a8c712d-659b-4f54-8e5e-fc54bcd122a3","type":"Feature","feature_type":"anchor","geometry":{"type":"Point","coordinates":[30.371644590865028,60.007574224683488]},"properties":{"unit_id":"3106826b-55eb-42b0-9052-857e120e43f0","address_id":"4ef2443f-8d72-4781-928f-a8e774ca1d0e"}},{"id":"b569b0d9-3ad9-4ae1-b022-1203461c6e15","type":"Feature","feature_type":"anchor","geometry":{"type":"Point","coordinates":[30.371708418903054,60.007563307565]},"properties":{"unit_id":"5594ec56-874f-44f1-829e-185700d1d091","address_id":"55f0adf2-5bce-48eb-86d4-a8f7591ee3e6"}},{"id":"26e5b4cc-0d0a-48e0-96e3-4efa4d3e55c7","type":"Feature","feature_type":"anchor","geometry":{"type":"Point","coordinates":[30.371772246920024,60.007552390172066]},"properties":{"unit_id":"62357ea8-3bb2-4ced-adc1-050e714220cd","address_id":"5eaf556b-e067-4029-b48e-92c17cb7bd0e"}}]}