{"type":"FeatureCollection","name":"anchor","features":[{"id":"07781d36-8729-4195-9755-327b273b9b71","type":"Feature","feature_type":"anchor","geometry":{"type":"Point","coordinates":[30.374934117104047,60.007505831178428]},"properties":{"unit_id":"612b3dee-2e36-47c1-9e0f-2a378256352a","address_id":"8bfb6cff-b0e0-4e75-80d0-502ac8507d9c"}},{"id":"71636115-808d-45a2-a281-03503b3a3d70","type":"Feature","feature_type":"anchor","geometry":{"type":"Point","coordinates":[30.371528248165529,60.008088381223743]},"properties":{"unit_id":"d73a2351-a5c9-490a-9671-e288a478cd4a","address_id":"5db14213-3260-4cb4-8b94-e8b7e6effbbc"}},{"id":"86e76b02-c287-4eda-a34b-2405888ecfac","type":"Feature","feature_type":"anchor","geometry":{"type":"Point","coordinates":[30.371400590995524,60.008110216009619]},"properties":{"unit_id":"0af09ab6-68ad-4272-a1b9-36ff9e46bc28","address_id":"819218c5-3d8a-475c-bc14-ae5d64b5b8a3"}},{"id":"d6b240f3-87d5-4c4b-9fb8-3eab32695d42","type":"Feature","feature_type":"anchor","geometry":{"type":"Point","coordinates":[30.371655905525746,60.008066546437867]},"properties":{"unit_id":"6dcb3738-6d8a-4b49-9170-939650d0e106","address_id":"b992a43a-66cd-48e3-b5ea-ab2c242927a7"}},{"id":"7cdd607a-54e1-4486-9a47-0ea0da526c48","type":"Feature","feature_type":"anchor","geometry":{"type":"Point","coordinates":[30.371502044279513,60.008050090894841]},"properties":{"unit_id":"3bd62867-8435-477c-b181-3e88d31183fc","address_id":"2aec3f0d-e4eb-4597-9fef-0c61d72588eb"}},{"id":"a297fa66-65be-4f90-a174-ba355ca50587","type":"Feature","feature_type":"anchor","geometry":{"type":"Point","coordinates":[30.371580655205076,60.00816496188154]},"properties":{"unit_id":"6debac2c-3330-4097-93f4-da36425c99a4","address_id":"309ba53c-0e5b-4295-9434-384b86b9e603"}},{"id":"e264f46c-8e25-494d-b976-02dbae00c14f","type":"Feature","feature_type":"anchor","geometry":{"type":"Point","coordinates":[30.375060070342045,60.007484288408591]},"properties":{"unit_id":"b79795ee-f35f-4642-8859-d0c18a20cb78","address_id":"7322c2be-c813-4992-bffb-75e6354ebeb0"}},{"id":"6963e649-32bc-4c5e-b851-146b87318bea","type":"Feature","feature_type":"anchor","geometry":{"type":"Point","coordinates":[30.374804760032269,60.007527957156995]},"properties":{"unit_id":"4fadd39e-1b18-4269-b62d-3c402cff63ae","address_id":"da557ab3-50a4-4cb3-a099-7b2c759b1777"}},{"id":"28da7e0a-dd47-4020-bfa6-5014160fe33a","type":"Feature","feature_type":"anchor","geometry":{"type":"Point","coordinates":[30.374906209877825,60.007467832316671]},"properties":{"unit_id":"e305089b-ac22-492e-be44-ed3b9134963f","address_id":"a907a9a2-33fa-4389-97c1-a40ca09e788a"}},{"id":"c45e5e76-b022-4872-98c8-73480f394e95","type":"Feature","feature_type":"anchor","geometry":{"type":"Point","coordinates":[30.374984826297748,60.007582703852272]},"properties":{"unit_id":"7be4efbe-7763-4c7a-9a16-bb060dd2b13d","address_id":"9114fae3-723e-4c8b-a8d6-22fea003f903"}},{"id":"b0a2d3d4-2f8d-477b-93aa-bf276b8573f4","type":"Feature","feature_type":"anchor","geometry":{"type":"Point","coordinates":[30.371034997340818,60.0073648291473]},"properties":{"unit_id":"fb8c5ea2-4c2c-4db2-b877-a2127ea8e1ac","address_id":"8e82595c-b884-4c6d-8f34-e4fd1b238e56"}},{"id":"08ab076b-9847-4a2a-bdd8-60100590a42c","type":"Feature","feature_type":"anchor","geometry":{"type":"Point","coordinates":[30.37116095158029,60.007343285279653]},"properties":{"unit_id":"bcea6d1b-b883-4d2e-92c9-8581343e0b93","address_id":"24f56ce0-b9c1-4981-ac23-e9ac2f175f74"}},{"id":"ef8ab1aa-f80f-41a1-a8a2-9cd466f563b0","type":"Feature","feature_type":"anchor","geometry":{"type":"Point","coordinates":[30.374437429239144,60.006782861761806]},"properties":{"unit_id":"2dcb6447-522a-428c-b308-18835ca7c9cb","address_id":"b72df08d-7678-432b-9aa6-4bdbba51b1eb"}},{"id":"a88f4b21-7a52-43e3-b30e-ade4a5be97ca","type":"Feature","feature_type":"anchor","geometry":{"type":"Point","coordinates":[30.37430977500005,60.006804696273235]},"properties":{"unit_id":"5ca18830-ecd2-4bac-b258-f00dcb167999","address_id":"36357209-95a6-42fd-b1a6-3757bf49a896"}},{"id":"123dc17a-6b10-4199-a409-1e21c3d900d3","type":"Feature","feature_type":"anchor","geometry":{"type":"Point","coordinates":[30.372011617878769,60.007600030228843]},"properties":{"unit_id":"aa680c6b-b142-416f-945a-28e398100e62","address_id":"fb7b9403-2473-4542-87b4-e818bfaf78ca"}},{"id":"1fe43c47-41bf-4939-b78d-17b783685b10","type":"Feature","feature_type":"anchor","geometry":{"type":"Point","coordinates":[30.373954606985439,60.007271977103208]},"properties":{"unit_id":"692526ce-5864-4ca0-9f8a-7b04009f7f6a","address_id":"ca8c2241-b343-4065-a69d-de9579378f1e"}},{"id":"6bd5dc30-4f52-4e1f-9769-834143444a51","type":"Feature","feature_type":"anchor","geometry":{"type":"Point","coordinates":[30.37446363418513,60.006821152090708]},"properties":{"unit_id":"b3bff7b3-1e77-4757-a31c-d5fcd32f0f32","address_id":"375c94fd-c7ab-4438-b5b4-65293e2691a3"}},{"id":"e7c84a5a-f952-4395-a2cf-2836b9349974","type":"Feature","feature_type":"anchor","geometry":{"type":"Point","coordinates":[30.374565083119471,60.00676102697593]},"properties":{"unit_id":"4684b074-bf4a-4a91-8927-0123a2a74564","address_id":"041db7ad-31e3-47f0-aba7-5a1aaa088373"}},{"id":"8f7e31af-f9df-4e25-8547-e38f759b2fa4","type":"Feature","feature_type":"anchor","geometry":{"type":"Point","coordinates":[30.374376284666152,60.006693517752531]},"properties":{"unit_id":"63afba57-0ee6-4dd8-8624-19c47bc99872","address_id":"5de75b87-20b6-44c6-888b-221b3f5fc01e"}},{"id":"bd45103e-828d-4503-ae01-4b7c3e99b3c5","type":"Feature","feature_type":"anchor","geometry":{"type":"Point","coordinates":[30.371059498795852,60.007403410668886]},"properties":{"unit_id":"bc30683a-8c8d-4cc3-83ba-3648182c6e1b","address_id":"3568fd3b-7560-4207-9560-074515cffb18"}},{"id":"3f48d1e7-a8ef-4b43-8a44-70c984d6ab1c","type":"Feature","feature_type":"anchor","geometry":{"type":"Point","coordinates":[30.370905639515009,60.00738695512586]},"properties":{"unit_id":"bd6cd00f-ca92-4aa5-817e-ea7e4974a0ac","address_id":"32b9bfc8-174a-4e71-8b51-1965b5209053"}},{"id":"1af6566b-fa81-4202-8459-7fff5b2c9f87","type":"Feature","feature_type":"anchor","geometry":{"type":"Point","coordinates":[30.370972154253121,60.007275776056254]},"properties":{"unit_id":"99cd0149-9bab-4837-bce7-a4422fb44ed2","address_id":"a8cdbb9f-fedb-49c5-a814-133bf84d26b1"}},{"id":"f08d9e64-8b9d-4652-86e1-504b69df893d","type":"Feature","feature_type":"anchor","geometry":{"type":"Point","coordinates":[30.37205051767263,60.007656873182121]},"properties":{"unit_id":"f511d2c4-d680-4157-96f0-0d088321785f","address_id":"a2c3c091-7d92-4bb9-8f94-18ccd574374c"}},{"id":"f15c9410-bdea-47a7-85f2-b5ff9e219b32","type":"Feature","feature_type":"anchor","geometry":{"type":"Point","coordinates":[30.372076766734185,60.0076952288304]},"properties":{"unit_id":"49c85e72-b300-4af4-9f72-88ad8ba62b7c","address_id":"cb44d012-c4b4-437a-9435-7d2ceb9b104a"}},{"id":"dc11955d-7600-41db-9a73-68257af52121","type":"Feature","feature_type":"anchor","geometry":{"type":"Point","coordinates":[30.372281416554344,60.0075080726211]},"properties":{"unit_id":"f05fcba0-f8c2-4efc-b7a0-b931276f29d2","address_id":"1f67b194-788d-464d-9636-84f0b68b3164"}},{"id":"dc479da4-280c-4e21-aff1-576fdd1e8b47","type":"Feature","feature_type":"anchor","geometry":{"type":"Point","coordinates":[30.371694198127013,60.00760851186768]},"properties":{"unit_id":"e1916810-4c2d-461b-8cec-2a40c5d15758","address_id":"60a124b8-e175-486f-99bf-bb5a688809e1"}},{"id":"12c2d1aa-84bb-4173-b103-003dacefff4d","type":"Feature","feature_type":"anchor","geometry":{"type":"Point","coordinates":[30.374029523934215,60.007381445244249]},"properties":{"unit_id":"c4e84997-324b-491b-87ad-f43537ae2b28","address_id":"c72acecb-adb0-4a3e-9abf-a3b332b3a83b"}},{"id":"873048de-caf8-4251-bea9-8a2093844172","type":"Feature","feature_type":"anchor","geometry":{"type":"Point","coordinates":[30.374221778641331,60.007176185412682]},"properties":{"unit_id":"7065e0f0-36bf-4d67-9cd8-e689b1a7065f","address_id":"55920de2-c644-483f-9bdf-1e9426f5d8af"}},{"id":"f400c55a-1d25-4dbd-907b-48563d64793d","type":"Feature","feature_type":"anchor","geometry":{"type":"Point","coordinates":[30.373634566106748,60.007276624933709]},"properties":{"unit_id":"cf9250de-6fcb-47ea-ae43-8bdb6d5baa3a","address_id":"3965b6bc-bc0f-468a-b737-36e20581f1e4"}},{"id":"7b50b9d7-9bf5-4139-8127-86a94fd5bc14","type":"Feature","feature_type":"anchor","geometry":{"type":"Point","coordinates":[30.372142898695284,60.007786308743306]},"properties":{"unit_id":"4351d85a-bf6f-4607-aa34-4b1b938b6d56","address_id":"1f945872-0ea6-42a3-93f7-6aad1102c598"}},{"id":"fdf57aa6-f551-458f-9343-ec08250c9a3c","type":"Feature","feature_type":"anchor","geometry":{"type":"Point","coordinates":[30.37408017550457,60.007455456490234]},"properties":{"unit_id":"eae8af60-4b5d-498b-ac6a-9eae0d941aca","address_id":"931ed126-f69b-4a7b-9a39-5e996a0ade59"}},{"id":"8d5d1c2b-528a-4596-8ee6-eab650cd20e0","type":"Feature","feature_type":"anchor","geometry":{"type":"Point","coordinates":[30.372243239579941,60.007928068259659]},"properties":{"unit_id":"b4e379d6-2367-4e34-8593-b4076ffef284","address_id":"22df0fe5-2665-4e3f-b085-98ff008f6744"}},{"id":"d26298e7-fe8b-447d-963b-9df2cce9576e","type":"Feature","feature_type":"anchor","geometry":{"type":"Point","coordinates":[30.372160262728663,60.007942260678362]},"properties":{"unit_id":"5b0cbd74-3d9e-4c89-a41f-452f766c4748","address_id":"70252f0f-5907-43d9-8daf-0c328c748a6f"}},{"id":"fe57e16f-936c-43ee-a1b3-83d071ebcafa","type":"Feature","feature_type":"anchor","geometry":{"type":"Point","coordinates":[30.372328344315491,60.007913511918709]},"properties":{"unit_id":"ebc9709f-bb5d-4fb5-84cc-5b838d5ca7a5","address_id":"e1df6481-4c2e-40f0-a2ef-3df8ec17c53b"}},{"id":"f6d1209e-7af0-420a-aa2b-1087ddf544c1","type":"Feature","feature_type":"anchor","geometry":{"type":"Point","coordinates":[30.374974185386503,60.007539374325511]},"properties":{"unit_id":"aec4acf1-7b28-460a-abbc-a36a79e6a736","address_id":"2c45629a-3713-4b52-9216-a14c4373e02a"}},{"id":"fc7b5812-a9d9-4fb9-98ea-b7992bc214c2","type":"Feature","feature_type":"anchor","geometry":{"type":"Point","coordinates":[30.374762208189697,60.007535235327474]},"properties":{"unit_id":"3d05b688-25a1-4955-b19d-3f117223e708","address_id":"c06b0a51-d0b5-4fb9-a8c7-801af118f5fa"}},{"id":"e55e0bde-bd3b-454d-b8da-96a694057202","type":"Feature","feature_type":"anchor","geometry":{"type":"Point","coordinates":[30.374901965139429,60.007649153968622]},"properties":{"unit_id":"225cd29f-0191-4389-8964-4fb41a710772","address_id":"00087442-17f7-479e-9d0f-f3fee8484135"}},{"id":"cdfc61e7-0a99-4eed-802f-ca088942dd43","type":"Feature","feature_type":"anchor","geometry":{"type":"Point","coordinates":[30.375071385341908,60.0075702736845]},"properties":{"unit_id":"440876a3-bdb8-440f-8e72-3c020454d568","address_id":"2dec8b4a-026a-431b-b284-27e808d08a43"}},{"id":"69f23c7e-6b04-4ab8-b948-68d82e4f2801","type":"Feature","feature_type":"anchor","geometry":{"type":"Point","coordinates":[30.374861201028747,60.007589591204287]},"properties":{"unit_id":"13a7f114-a6c2-488c-ab9f-d315901e148d","address_id":"7781c199-c76e-4fb8-b79d-f8f31c6be638"}},{"id":"9bb47192-cf45-4ab9-b00e-60e05e27ce9f","type":"Feature","feature_type":"anchor","geometry":{"type":"Point","coordinates":[30.374734526681408,60.007133630936011]},"properties":{"unit_id":"7be00dfe-71a7-4824-aeab-67d364568ffc","address_id":"781ced59-9849-438a-8bd7-5c617fdc7ca4"}},{"id":"66b4ecd6-2b21-47dd-b511-a988d97149db","type":"Feature","feature_type":"anchor","geometry":{"type":"Point","coordinates":[30.374510328243993,60.006806036418283]},"properties":{"unit_id":"255c6fe4-0a24-411c-80f5-eb21d17fc02d","address_id":"dd24b12b-3c0c-4188-9ac9-62a5e722edfe"}},{"id":"79661688-43d0-4e95-a6f4-f8a0a5a6a543","type":"Feature","feature_type":"anchor","geometry":{"type":"Point","coordinates":[30.374530709753493,60.006835817937677]},"properties":{"unit_id":"00081a6b-a517-4314-9f25-20cace7f4cb0","address_id":"c11ae492-0c65-4eb6-87bd-f26990395795"}},{"id":"25accab9-835e-45d1-8524-dfade8db5843","type":"Feature","feature_type":"anchor","geometry":{"type":"Point","coordinates":[30.374551091555848,60.006865598908171]},"properties":{"unit_id":"7af6d890-1937-470e-8996-b2791bc6d8a3","address_id":"777e19c0-4505-4d57-bf1c-45e34df4fcc9"}},{"id":"f7365314-76b2-4460-a47b-3f1ee6ba6073","type":"Feature","feature_type":"anchor","geometry":{"type":"Point","coordinates":[30.374571473102055,60.006895380153111]},"properties":{"unit_id":"7e8d4935-a0ad-458b-8d25-bdab7bbd52e7","address_id":"985a57d6-05f5-41a3-8f5a-e3fd1ee2454e"}},{"id":"ae93709b-f2a1-441b-9280-d50e2967a3fb","type":"Feature","feature_type":"anchor","geometry":{"type":"Point","coordinates":[30.374591854666612,60.006925161672505]},"properties":{"unit_id":"342dd202-c681-4853-a4af-2a84b9b69b17","address_id":"9d4de2e9-1c88-4869-8d0f-f2e6db4839e2"}},{"id":"d15e9a75-15ae-4725-b602-4a859521f1a4","type":"Feature","feature_type":"anchor","geometry":{"type":"Point","coordinates":[30.37462825062795,60.006978342623874]},"properties":{"unit_id":"74fa23d0-6868-4c7f-9d5e-03ed33574946","address_id":"a7fce01c-ada0-45f5-a35c-3a1aee377391"}},{"id":"8eae5e51-b972-44ae-afb5-29fd5904c730","type":"Feature","feature_type":"anchor","geometry":{"type":"Point","coordinates":[30.374688667589091,60.007066622860442]},"properties":{"unit_id":"8fdaf045-098e-47a3-976b-f300342292d3","address_id":"9ff2736d-6996-4157-9967-faf205797025"}},{"id":"6bbbfa81-b309-4ca8-8aaa-8bd207dcaaa2","type":"Feature","feature_type":"anchor","geometry":{"type":"Point","coordinates":[30.374792032560602,60.007217656905048]},"properties":{"unit_id":"eb47b4c7-95b5-4dcc-891e-7d4dbde36ded","address_id":"496c0273-71bd-478c-a210-cf44b45b2e57"}},{"id":"ed880572-eb0f-4b85-a482-732c96799a6c","type":"Feature","feature_type":"anchor","geometry":{"type":"Point","coordinates":[30.374823333363395,60.007263392545184]},"properties":{"unit_id":"0501cb60-97c8-46b4-9b3d-946fbc4a452f","address_id":"4244d395-b0e5-4ed8-874d-2f797d8a5373"}},{"id":"12cdbb0b-5815-4a1d-9666-21f74b1d34a8","type":"Feature","feature_type":"anchor","geometry":{"type":"Point","coordinates":[30.3748437150175,60.007293173790124]},"properties":{"unit_id":"12638e46-f30a-4b8f-a27d-a5cf0a64ab02","address_id":"c2396e7d-0804-4057-845d-2e9832667059"}},{"id":"358b7c1f-150e-43ad-acc8-373d7feab590","type":"Feature","feature_type":"anchor","geometry":{"type":"Point","coordinates":[30.374864096964458,60.007322955035072]},"properties":{"unit_id":"a655289f-f235-424c-ac5f-36f33fa401de","address_id":"08a09224-b578-4800-9e6b-05172cd5a0b6"}},{"id":"471e31a6-8892-4ca4-a7be-3ccaa30a49c3","type":"Feature","feature_type":"anchor","geometry":{"type":"Point","coordinates":[30.374936889546685,60.007429317486718]},"properties":{"unit_id":"b3034e59-f861-454b-abae-9d809425a871","address_id":"ace72025-dead-45f4-8167-c21ce57f8b76"}},{"id":"22fe53fb-df2b-433e-85b2-d37aad848df2","type":"Feature","feature_type":"anchor","geometry":{"type":"Point","coordinates":[30.374884478929758,60.007352736828913]},"properties":{"unit_id":"383770ff-6e7e-4c93-b738-f3d96a8ec66a","address_id":"0cb92a3a-273b-42f0-ab12-ee9fabb2dbaa"}},{"id":"a40e5374-12a2-4014-b1b7-8b37ccbd9f51","type":"Feature","feature_type":"anchor","geometry":{"type":"Point","coordinates":[30.374904860638924,60.007382518073861]},"properties":{"unit_id":"05f43ef0-f261-4d68-93bf-694fe83776a2","address_id":"3c695102-aeea-4645-9290-982d6f89a5f4"}},{"id":"3c88c879-9455-481f-8b5b-16c9e8562098","type":"Feature","feature_type":"anchor","geometry":{"type":"Point","coordinates":[30.374960183650657,60.007463352999189]},"properties":{"unit_id":"c268c4d1-2779-4690-89a8-ccad05eebf6b","address_id":"8542e895-df12-440c-9f18-7c149eeab7cf"}},{"id":"30441fe0-992a-43fa-8968-b89cbd7d2087","type":"Feature","feature_type":"anchor","geometry":{"type":"Point","coordinates":[30.375060070342045,60.007484288408591]},"properties":{"unit_id":"23af6887-88dd-4060-8c1f-0e1016e605d1","address_id":"1072ad5c-2df4-454f-9712-756c2f65932d"}},{"id":"41a1d57b-5b54-4d98-bfd9-bd00a2046b64","type":"Feature","feature_type":"anchor","geometry":{"type":"Point","coordinates":[30.374588190365319,60.007503217854428]},"properties":{"unit_id":"a22c5ae9-3896-404f-8376-f75f64efb0bf","address_id":"078e76ca-34f5-49c8-b543-e2c8dbecad09"}},{"id":"10bfb12b-36bb-4a42-98d3-33c8eea9c927","type":"Feature","feature_type":"anchor","geometry":{"type":"Point","coordinates":[30.374331338442911,60.007516853411715]},"properties":{"unit_id":"d5c2c475-5ce3-4c00-a979-83cd2efeba8b","address_id":"394dd1d0-cba3-4292-bf7b-1b41ac7e359e"}},{"id":"f534e7fa-aa23-4a91-995c-f3851d8837be","type":"Feature","feature_type":"anchor","geometry":{"type":"Point","coordinates":[30.374349900376082,60.007543975773757]},"properties":{"unit_id":"556543f1-2ed1-4d94-8320-375fc405f82c","address_id":"2310ccf3-a7d1-4d50-940c-3d50d8d10a6e"}},{"id":"ae7cd89f-4f86-4fe6-aa5b-1d6e1f1e0ed2","type":"Feature","feature_type":"anchor","geometry":{"type":"Point","coordinates":[30.374020682958854,60.00759078149899]},"properties":{"unit_id":"ad0a500c-0738-420d-84b0-24588106737c","address_id":"05d7cca4-8d62-4587-9edd-9ae32ae2a084"}},{"id":"a48b4b1a-473c-4b3f-a8a2-685aceb5969a","type":"Feature","feature_type":"anchor","geometry":{"type":"Point","coordinates":[30.374168495768249,60.007584508917589]},"properties":{"unit_id":"5f7fc89b-dfd9-4018-a06a-999c26c47b21","address_id":"1cc17266-47e2-49b1-9e31-309fc3d5a38d"}},{"id":"4c597dbb-d36b-4830-ab7c-c024711c4b67","type":"Feature","feature_type":"anchor","geometry":{"type":"Point","coordinates":[30.37408114608521,60.007456874579411]},"properties":{"unit_id":"1a48583c-ec29-4e14-9966-e342537ae38b","address_id":"7f974a40-bfdc-4cff-a9ee-eecef3fba61c"}},{"id":"5812ce52-c7fe-40a6-86ff-794671712d3c","type":"Feature","feature_type":"anchor","geometry":{"type":"Point","coordinates":[30.374267223842786,60.006811974443714]},"properties":{"unit_id":"8053fd9c-9a9f-4a40-9912-1784c535c9ca","address_id":"cbdfeb3e-f64c-4d87-bb05-f3961c425b1f"}},{"id":"616da0f2-e44e-4c64-bef0-a6f079bdad64","type":"Feature","feature_type":"anchor","geometry":{"type":"Point","coordinates":[30.374479980358952,60.006775583591335]},"properties":{"unit_id":"01c67681-b8b4-4661-bd3a-3a25a1e91650","address_id":"d8e0734e-c2a3-4d22-8b69-c4d9de8054e9"}},{"id":"0e6226b2-3f7a-45d1-b259-376ec85fd023","type":"Feature","feature_type":"anchor","geometry":{"type":"Point","coordinates":[30.374376284666152,60.006693517752531]},"properties":{"unit_id":"4d0ab244-f228-4f93-8938-4dcce457c38a","address_id":"1c7c64f4-c698-42d6-bda8-a6634b15e619"}},{"id":"94c32b60-8fb6-4e33-8a8a-b69941a15168","type":"Feature","feature_type":"anchor","geometry":{"type":"Point","coordinates":[30.373225764466259,60.007471071389332]},"properties":{"unit_id":"578c1c04-0b52-45a8-bbed-a229e6d7505b","address_id":"b5b370ad-f058-4ea4-8dd8-75bab9fc83a1"}},{"id":"7b2b4b5a-30b0-4635-8a60-72541b3d4aef","type":"Feature","feature_type":"anchor","geometry":{"type":"Point","coordinates":[30.372833618736379,60.007538711800393]},"properties":{"unit_id":"49cec423-08c3-4ba4-acc9-4e63bbc40031","address_id":"da9e7486-b304-4bbe-8133-24af2ef73470"}},{"id":"ffffd1ac-603a-460b-a0b9-f9ae16d91138","type":"Feature","feature_type":"anchor","geometry":{"type":"Point","coordinates":[30.373035037501328,60.007497983247333]},"properties":{"unit_id":"b283c636-7673-46de-ac2c-1038f4e8993a","address_id":"c4057fdb-87ba-4b15-a5b3-1479b776cd18"}},{"id":"0ce7b0bd-dc22-4a43-8b4a-2ec7f71b56eb","type":"Feature","feature_type":"anchor","geometry":{"type":"Point","coordinates":[30.372571921088465,60.007344442091323]},"properties":{"unit_id":"41ddbdee-15af-4ead-b0f4-f9295e3d4712","address_id":"e6ec5012-a83b-46e3-9c34-e95b1a68a0cd"}},{"id":"8c22a6d4-feae-4620-8115-a6ab0b5d73c6","type":"Feature","feature_type":"anchor","geometry":{"type":"Point","coordinates":[30.373213524994767,60.007272601479613]},"properties":{"unit_id":"7a13450c-fc80-4d8d-8c37-a68744a141a0","address_id":"63da9c42-5fd6-4ef8-995f-5c752c977846"}},{"id":"a7f50b62-bd80-4ca9-9788-e551c12f3bfe","type":"Feature","feature_type":"anchor","geometry":{"type":"Point","coordinates":[30.373213524994767,60.007272601479613]},"properties":{"unit_id":"7a13450c-fc80-4d8d-8c37-a68744a141a0","address_id":"677c476b-caca-46a8-9ca6-990c470cec8c"}},{"id":"26691ed9-6092-490e-b3a9-37ccdbf8a032","type":"Feature","feature_type":"anchor","geometry":{"type":"Point","coordinates":[30.374007339968994,60.007196230228054]},"properties":{"unit_id":"9e376bb8-4562-424c-bff7-9b629ac48e42","address_id":"c50ba752-9eec-4850-9958-6d70e19dfbb3"}},{"id":"ca1c4c7a-7c8f-4875-9b25-fd2cc87c2026","type":"Feature","feature_type":"anchor","geometry":{"type":"Point","coordinates":[30.373820112399443,60.007228254287924]},"properties":{"unit_id":"2efea646-1db5-402f-a286-37c15f143399","address_id":"89d4644c-b498-4072-859d-15223beaee67"}},{"id":"2dcee215-8025-4a1b-ab3c-65225be4bea4","type":"Feature","feature_type":"anchor","geometry":{"type":"Point","coordinates":[30.3738685960947,60.007146297955138]},"properties":{"unit_id":"5644b7c8-26fc-4b93-83f8-76ca911ec61a","address_id":"7983a9ec-35cc-4d0c-83e6-710b8158126c"}},{"id":"b5a2abab-173e-4b94-a890-693a35dec1f2","type":"Feature","feature_type":"anchor","geometry":{"type":"Point","coordinates":[30.374275059859482,60.007124299321909]},"properties":{"unit_id":"82c1716e-baee-437d-b930-17c80fe8421d","address_id":"497c9bfc-3cb4-44e8-bc72-3b726f6ed4ab"}},{"id":"116920b8-ae9b-43e2-8b5a-d16eefcdb89a","type":"Feature","feature_type":"anchor","geometry":{"type":"Point","coordinates":[30.374211232668696,60.00713521671485]},"properties":{"unit_id":"d1f69a1c-7f2a-4ebf-9980-9fc39e801d0c","address_id":"9f84d35b-cb6e-4b7b-a5a9-87d897517dc4"}},{"id":"6a07ad55-1cb3-4f02-8146-b4fdd07bd372","type":"Feature","feature_type":"anchor","geometry":{"type":"Point","coordinates":[30.37335943358779,60.007280912409826]},"properties":{"unit_id":"47f48d37-ec53-4120-beb5-afe03a77b2fb","address_id":"0c4a1671-745e-4297-a120-9c67fbb695e8"}},{"id":"0a1c19b3-bc75-485d-980a-12d287e4b7f4","type":"Feature","feature_type":"anchor","geometry":{"type":"Point","coordinates":[30.373644530115754,60.007232148201069]},"properties":{"unit_id":"207cc225-e812-4e09-9b3a-1ed33ed8c4e7","address_id":"c515634a-b298-48c3-b5bd-cac3498d8fad"}},{"id":"f4cbd9a4-f89d-45e4-ad8b-656dc512fa98","type":"Feature","feature_type":"anchor","geometry":{"type":"Point","coordinates":[30.373887978412537,60.007382983543039]},"properties":{"unit_id":"dcf1903a-ce27-4035-9a49-ee457fa1c9e7","address_id":"1d882f17-549d-404a-9b77-477d6bb2a5b0"}},{"id":"9102d65c-fbb1-4412-a74f-0314a36deb67","type":"Feature","feature_type":"anchor","geometry":{"type":"Point","coordinates":[30.372159840245189,60.007814016235237]},"properties":{"unit_id":"5c381b6d-8bea-4c43-8bc7-40f8e84d3774","address_id":"7a05d7b4-9a5f-457f-83a4-e3bcb6d89c6f"}},{"id":"67a0c212-10e5-42d9-a364-03d13fed59ab","type":"Feature","feature_type":"anchor","geometry":{"type":"Point","coordinates":[30.372066976904271,60.007528117436479]},"properties":{"unit_id":"16193cce-ab28-469f-beac-11ca0e13ecf9","address_id":"f3f28a91-bb4c-49da-8625-52bf81818503"}},{"id":"93c19afb-ab77-4874-ba26-6e4bef1a827b","type":"Feature","feature_type":"anchor","geometry":{"type":"Point","coordinates":[30.371879747181364,60.0075601417708]},"properties":{"unit_id":"063c0390-8ba3-4c7f-b773-c5aca09b833f","address_id":"9b084677-0b21-481f-92b3-5730fa3bad60"}},{"id":"9beeaf7f-0947-4bf0-9a70-d33d651ffd60","type":"Feature","feature_type":"anchor","geometry":{"type":"Point","coordinates":[30.371973362065486,60.00754412946641]},"properties":{"unit_id":"d2ce9ff2-36dc-4f8e-ac66-302dc00d679c","address_id":"6fb4d6e6-667f-4ef6-8095-64aabf484890"}},{"id":"3982f65c-7c27-434d-b0f7-0ccf22bc386d","type":"Feature","feature_type":"anchor","geometry":{"type":"Point","coordinates":[30.37192629245455,60.007475348710756]},"properties":{"unit_id":"da98d9d7-1c5f-4bf9-a041-c1c009701f28","address_id":"df341d26-7deb-4257-a1a5-e1fb88704b86"}},{"id":"b28b78d6-253f-4c63-82c4-296a0e16c83f","type":"Feature","feature_type":"anchor","geometry":{"type":"Point","coordinates":[30.37217460959765,60.00763175458804]},"properties":{"unit_id":"cbc99ed2-6cd8-4fdf-a91c-e3efba4ff1d9","address_id":"1922b54e-a943-42c0-91ff-e43b949dff28"}},{"id":"3178d4c5-1338-40b8-9fc9-9ca255649310","type":"Feature","feature_type":"anchor","geometry":{"type":"Point","coordinates":[30.37105837833958,60.00769350198366]},"properties":{"unit_id":"be711996-e295-449c-86ec-1f568c31055e","address_id":"c5fe1878-3495-4650-a0f9-011fe6870e11"}},{"id":"a9fc0839-d1c8-46c2-9090-11478de2ad3d","type":"Feature","feature_type":"anchor","geometry":{"type":"Point","coordinates":[30.371144266992253,60.007819009050856]},"properties":{"unit_id":"01e8c27c-cba3-4f9d-b654-161af779dcfc","address_id":"aa33a0e5-dab1-4bdd-a9cd-9b3dca4c5d6d"}},{"id":"35726f31-1e03-4936-b90f-422c359aebfc","type":"Feature","feature_type":"anchor","geometry":{"type":"Point","coordinates":[30.371102050927796,60.007757319289979]},"properties":{"unit_id":"2627b039-e2f0-4395-9404-1f817632a1e6","address_id":"9763413b-0c9b-4cee-af10-cfb0c9bb3ba5"}},{"id":"a93c85d0-dba3-4f94-821c-2bf2b82ee632","type":"Feature","feature_type":"anchor","geometry":{"type":"Point","coordinates":[30.371265093294927,60.007814976265415]},"properties":{"unit_id":"5dfeb77c-0c5d-47f7-ab2e-6fd14e2b6db3","address_id":"388554f1-aa43-4291-a429-4bae03f5fd06"}},{"id":"0ef9e437-3ed9-4778-9e11-8ae78c085ac3","type":"Feature","feature_type":"anchor","geometry":{"type":"Point","coordinates":[30.371333176922594,60.007803330753532]},"properties":{"unit_id":"90e4058a-e2f9-4b38-a9d6-b055f37a0203","address_id":"c4898192-a960-41ca-bbd5-5d66fa873958"}},{"id":"58f5417f-de1e-415c-b779-a608bf2ea7ae","type":"Feature","feature_type":"anchor","geometry":{"type":"Point","coordinates":[30.371215262337664,60.007631025096842]},"properties":{"unit_id":"4823a5f0-5e59-449b-9c6d-6e2801ab9323","address_id":"f243da55-dff1-4763-aa4e-754d671692c8"}},{"id":"3e0548df-df3b-4119-9b6d-2b93b1b5185f","type":"Feature","feature_type":"anchor","geometry":{"type":"Point","coordinates":[30.371147178317639,60.007642670059823]},"properties":{"unit_id":"fdee7785-0aea-41d2-aefb-d599a68ec523","address_id":"6f169994-8d21-493c-9719-b57f388d1704"}},{"id":"faf501e2-cf4d-4da9-bae1-e93b1469b6dc","type":"Feature","feature_type":"anchor","geometry":{"type":"Point","coordinates":[30.371243817108414,60.007728318584149]},"properties":{"unit_id":"89606af3-e4a8-40a5-b509-393c076d679b","address_id":"c347943b-ee75-423e-9254-63a4963691f7"}},{"id":"35796815-0693-40e0-a24e-e2933a2914ea","type":"Feature","feature_type":"anchor","geometry":{"type":"Point","coordinates":[30.371456804866661,60.00806733411271]},"properties":{"unit_id":"1989d4e1-6fe2-4969-a052-3d696bfbc59f","address_id":"663a4895-7913-445f-9d69-28442bdf90b4"}},{"id":"87ad81d3-d331-43d8-9f2c-eb38b4ab7352","type":"Feature","feature_type":"anchor","geometry":{"type":"Point","coordinates":[30.371397727249825,60.007985930250122]},"properties":{"unit_id":"c681cb6b-8515-46da-abea-fb923531ac07","address_id":"0548a400-2f24-4292-95da-9c87fc2b26de"}},{"id":"72cc99ee-c968-40d3-9e11-e4c06eaf433d","type":"Feature","feature_type":"anchor","geometry":{"type":"Point","coordinates":[30.371354902662652,60.007918427339092]},"properties":{"unit_id":"3c1490bb-c132-4c6f-be5a-b65cbc021f92","address_id":"00c72c99-04db-4f2a-89f8-0654fcb9fc3e"}},{"id":"f3dfec6e-e096-4e66-bdeb-22b823402db9","type":"Feature","feature_type":"anchor","geometry":{"type":"Point","coordinates":[30.371334521837738,60.007888645545243]},"properties":{"unit_id":"6db25fa9-51c0-4689-a84d-242f8e69cba9","address_id":"b4c51637-9c61-42fa-930c-85bb8e1504f5"}},{"id":"21623f2c-4eae-4658-81cb-13f6f2c9e51b","type":"Feature","feature_type":"anchor","geometry":{"type":"Point","coordinates":[30.371314141305639,60.0078588643003]},"properties":{"unit_id":"7606ac8a-6b78-4c76-86bf-4cdbc5205de4","address_id":"da7a8320-02b3-4b0a-abef-7fc76a7732ae"}},{"id":"79cbe139-f7a8-499f-878b-27c62b0333f0","type":"Feature","feature_type":"anchor","geometry":{"type":"Point","coordinates":[30.371714502075903,60.008138579439837]},"properties":{"unit_id":"32fb6961-4558-41fd-8c9c-3e944d006ec0","address_id":"e8444fdf-9015-4dbf-8e39-98a0f4761292"}},{"id":"6fdc4575-74f4-4107-a129-66db661b6695","type":"Feature","feature_type":"anchor","geometry":{"type":"Point","coordinates":[30.371505358342723,60.008175299359166]},"properties":{"unit_id":"b48a168d-3117-4037-9383-3b4504b12be7","address_id":"ade377e9-a5e5-499a-bc47-c9e3dd9914dd"}},{"id":"dad79a13-f7d9-4241-852f-879a45b95a45","type":"Feature","feature_type":"anchor","geometry":{"type":"Point","coordinates":[30.371186482631035,60.007338918212696]},"properties":{"unit_id":"1881c4f4-bf7f-462d-bbc1-bd0dc0816de0","address_id":"8fd73d10-d5b1-4600-af70-9c9e59cdd443"}},{"id":"9fe5644b-842b-4058-83bd-85ba2c55ec0b","type":"Feature","feature_type":"anchor","geometry":{"type":"Point","coordinates":[30.370980664782209,60.007274320367266]},"properties":{"unit_id":"3269df40-1e99-42ed-aaba-e3094279a5ee","address_id":"04468b74-9b84-44db-a326-55b998722b29"}},{"id":"b929e871-3d77-4151-9d90-daa7186a81c5","type":"Feature","feature_type":"anchor","geometry":{"type":"Point","coordinates":[30.370905639515048,60.007386954576958]},"properties":{"unit_id":"25b5a407-bc54-4baa-b51f-37bd3d9e5ded","address_id":"eeffc758-504f-4b9d-ac44-0d3b1521d6fb"}},{"id":"c5947181-50be-495a-833f-077ae4bf1279","type":"Feature","feature_type":"anchor","geometry":{"type":"Point","coordinates":[30.374002531658697,60.007342003592711]},"properties":{"unit_id":"288c4b17-5331-4c1f-81c6-99ab70a44d7d","address_id":"fe1bc771-fd49-4291-878e-542c86b493c4"}},{"id":"de5865fd-f120-4fb0-9587-63c63a8de923","type":"Feature","feature_type":"anchor","geometry":{"type":"Point","coordinates":[30.372050517947127,60.007656873182121]},"properties":{"unit_id":"212d05c8-f10b-48ad-b2a6-ce286724bd74","address_id":"361603af-f9cd-4ef1-826d-79afc3740fdb"}},{"id":"86f3d51d-35a5-41e8-89a8-4e2607e1284a","type":"Feature","feature_type":"anchor","geometry":{"type":"Point","coordinates":[30.374171615717582,60.007511056454184]},"properties":{"unit_id":"444f4bc7-dc3a-49e3-a5e7-8a3982b7186c","address_id":"2cdb0375-580f-43ab-a8d2-c11320fbc213"}},{"id":"5bf9e281-bff8-40b3-a262-14173ccb5371","type":"Feature","feature_type":"anchor","geometry":{"type":"Point","coordinates":[30.374092996887786,60.007524503463522]},"properties":{"unit_id":"73d5acee-120d-446d-b8ff-271631ca948a","address_id":"ff136810-fa6c-4df4-82c8-f653b810ff09"}},{"id":"7bb0e0a2-a525-4f1b-86fd-14e93a699e69","type":"Feature","feature_type":"anchor","geometry":{"type":"Point","coordinates":[30.374141096038695,60.007530581459044]},"properties":{"unit_id":"92de72c3-70ab-45d0-aa5d-39949b47aea1","address_id":"147286cb-b2af-440b-98ae-5c02a52f58d9"}},{"id":"ea7198fd-9f09-4fef-aa84-c3eb751676b4","type":"Feature","feature_type":"anchor","geometry":{"type":"Point","coordinates":[30.373002336925349,60.00740852616417]},"properties":{"unit_id":"a86464b4-bb3e-412f-a637-72fe40cfc49e","address_id":"18314003-3946-47e4-8881-fe7feb4687a7"}},{"id":"5f2f12d9-a8f2-40fb-a474-4b3d7db66d05","type":"Feature","feature_type":"anchor","geometry":{"type":"Point","coordinates":[30.37113654045962,60.007599341081963]},"properties":{"unit_id":"14776773-cd21-41a4-aae2-d389d67039a4","address_id":"fecf1209-b762-49ce-b98f-8b68527d6733"}},{"id":"e5e2f001-dccd-48c7-80e9-d0514d79d376","type":"Feature","feature_type":"anchor","geometry":{"type":"Point","coordinates":[30.371114704327731,60.007567432566027]},"properties":{"unit_id":"8551c49d-e0fa-4e4e-a529-7a246f867302","address_id":"30e8768b-e17f-4f75-84dd-0c6d18ddfa73"}},{"id":"252c88b2-3215-40ea-a3ad-d74e53745dfe","type":"Feature","feature_type":"anchor","geometry":{"type":"Point","coordinates":[30.371092868491406,60.0075355240501]},"properties":{"unit_id":"412e2eb1-f010-4e5a-8a8e-11d0dc9d4dd1","address_id":"096324a4-9945-4085-bd86-d625acc5d306"}},{"id":"bc963126-df16-4117-830d-e7242cd8c130","type":"Feature","feature_type":"anchor","geometry":{"type":"Point","coordinates":[30.371071032127173,60.007503615259715]},"properties":{"unit_id":"8ebab5b0-30e2-4cbc-8de5-7f016feb3bcb","address_id":"c15fe996-979b-416d-ad36-70a1bd92073f"}},{"id":"c14ad379-de2b-4551-99ac-94cc0c602e66","type":"Feature","feature_type":"anchor","geometry":{"type":"Point","coordinates":[30.371049196058486,60.007471706743779]},"properties":{"unit_id":"a94d1b32-cf96-42a7-96c1-e1d04bd3da40","address_id":"3a23be2b-3880-4dff-b250-0bd1f730ce08"}},{"id":"628165f7-90b5-4e7e-8892-91fdedbd316c","type":"Feature","feature_type":"anchor","geometry":{"type":"Point","coordinates":[30.371027360559854,60.00743979822785]},"properties":{"unit_id":"a033fdbc-dd28-47f4-9b98-0e4268867eb5","address_id":"c7665e42-4b0a-4bd3-9e03-6cf7ccda1a24"}},{"id":"1121cb17-bbda-4b7c-b0c8-d1c733a9c959","type":"Feature","feature_type":"anchor","geometry":{"type":"Point","coordinates":[30.371005524533302,60.007407889711914]},"properties":{"unit_id":"4893000d-1dc7-4fb5-a832-d69a0ac5eed6","address_id":"eb33acf0-5fe1-4a97-a6c1-91977c8ebeeb"}},{"id":"900172e5-3eae-455f-a2b1-4ce48ff50048","type":"Feature","feature_type":"anchor","geometry":{"type":"Point","coordinates":[30.372880723564549,60.007272495541464]},"properties":{"unit_id":"103ee9e0-4200-4943-96ff-abdce0561c47","address_id":"2f09f3cd-5824-4c85-9227-76e777f3c435"}},{"id":"93112a18-cb77-4b1b-b606-482897a57ee6","type":"Feature","feature_type":"anchor","geometry":{"type":"Point","coordinates":[30.371400590995524,60.008110216009619]},"properties":{"unit_id":"421fe972-ee05-4f56-8fd1-df37e11a1ebf","address_id":"10547ef1-52d4-4692-bca6-b575e6da2a3b"}},{"id":"df75f619-924d-4b66-89e9-c3aeb5c661fe","type":"Feature","feature_type":"anchor","geometry":{"type":"Point","coordinates":[30.374144744912943,60.007341441516722]},"properties":{"unit_id":"26641bf6-6cb2-437c-a869-83e891a110e4","address_id":"e481d1fe-f10d-45b0-8d66-e1cb9f387f2f"}},{"id":"8b47c3c9-a814-4321-afae-a7f9a34c16fa","type":"Feature","feature_type":"anchor","geometry":{"type":"Point","coordinates":[30.3716984580519,60.008059268541842]},"properties":{"unit_id":"ec675592-56ed-425a-9b4c-60a13a39f650","address_id":"f1029110-5c27-40da-969e-15eb67db9d73"}},{"id":"713fe8e3-9011-4843-9af0-92a34e2ff8e1","type":"Feature","feature_type":"anchor","geometry":{"type":"Point","coordinates":[30.371935862970275,60.007698901810357]},"properties":{"unit_id":"c4cfdf2c-ec7c-4e89-a381-3800ac9a9d10","address_id":"0e4cb7ea-97cd-43da-9322-3a9589e48d96"}},{"id":"7b1b21ce-068b-49c9-bf0b-9ed1638b13e4","type":"Feature","feature_type":"anchor","geometry":{"type":"Point","coordinates":[30.371393533509679,60.007617166410753]},"properties":{"unit_id":"9d9fd4b5-b5dd-42ac-ae5d-dd34a5c16622","address_id":"cd986bb3-4580-43e2-bbc8-c8ad29bbc9a7"}},{"id":"608a3722-1c8e-4aad-9c25-18591d38756c","type":"Feature","feature_type":"anchor","geometry":{"type":"Point","coordinates":[30.374466541717172,60.0070915471431]},"properties":{"unit_id":"8212b4a1-7bf3-44df-b71a-05eb823d4d2d","address_id":"ab4097b5-d1a0-46b5-9a0b-8a0baa2e624e"}},{"id":"eb15fba2-a6ea-4fa3-93bc-809d663cd3b7","type":"Feature","feature_type":"anchor","geometry":{"type":"Point","coordinates":[30.374402714589593,60.007102464536032]},"properties":{"unit_id":"cd2d84f1-ab41-4ba0-a88a-7ccbdbc0306f","address_id":"fc8277ce-c161-4234-aad6-e3b9c89378c4"}},{"id":"5f708492-4069-4803-88a8-a1a94287cf3f","type":"Feature","feature_type":"anchor","geometry":{"type":"Point","coordinates":[30.374338887303697,60.007113381928974]},"properties":{"unit_id":"911c4fd5-4063-4daa-bc79-37901d670d97","address_id":"f41a8ab9-68f3-455b-af5b-5465da2b5e16"}},{"id":"92d33247-2ded-418e-9f5f-88c58a805b3a","type":"Feature","feature_type":"anchor","geometry":{"type":"Point","coordinates":[30.373513385905095,60.007254579643785]},"properties":{"unit_id":"2e79256c-39cd-44d5-84bd-d85aebb1494f","address_id":"c9039057-35ad-4f18-957a-c3bb9553cc91"}},{"id":"b80cb4ec-52c1-42b0-818d-2a476472b4f0","type":"Feature","feature_type":"anchor","geometry":{"type":"Point","coordinates":[30.373449558600125,60.007265497036727]},"properties":{"unit_id":"5f00b945-5f9e-449c-aca9-f90605b39ef2","address_id":"e2355293-5534-4c72-a023-9f281fcb04e2"}},{"id":"2bcca5d3-fbcb-446c-a96e-de3461af69ba","type":"Feature","feature_type":"anchor","geometry":{"type":"Point","coordinates":[30.374147404907855,60.007146133833338]},"properties":{"unit_id":"067c37fb-8aae-4249-96d5-4899e76d69af","address_id":"e28091b5-a0a0-4584-8014-91a3ea503d3e"}},{"id":"384a0d71-0a9b-4c91-af36-469ff9a0a563","type":"Feature","feature_type":"anchor","geometry":{"type":"Point","coordinates":[30.374083577949424,60.00715705122628]},"properties":{"unit_id":"e64e55c3-0b2e-4d54-94ba-927965e39861","address_id":"47e6b023-8bb0-469b-8fa3-070cac355c91"}},{"id":"355225c9-79bf-43ad-87d9-17fea7378d4a","type":"Feature","feature_type":"anchor","geometry":{"type":"Point","coordinates":[30.372525673187923,60.00742352162699]},"properties":{"unit_id":"fa5d32a1-80b8-4f29-a318-b2b26719ea08","address_id":"a335bc35-1f8a-4bd6-b7bc-40ac63bfac51"}},{"id":"c914155a-a1e6-443f-b8a0-81ade4e72bce","type":"Feature","feature_type":"anchor","geometry":{"type":"Point","coordinates":[30.372461845694154,60.007434439019924]},"properties":{"unit_id":"6747e2da-fb46-4c2b-85c0-3cbd56d05c0a","address_id":"5d85b5f2-043d-4a06-8e1f-006403052975"}},{"id":"e7461d56-4d79-45cb-8730-4553341ae65c","type":"Feature","feature_type":"anchor","geometry":{"type":"Point","coordinates":[30.372398017355831,60.007445356412866]},"properties":{"unit_id":"c16ed48f-ffce-4080-b9fd-77e04db60849","address_id":"73dedd9b-3638-4896-8c45-15f16bbf00a9"}},{"id":"6c1eba16-3144-46d5-ba93-829e7c032e46","type":"Feature","feature_type":"anchor","geometry":{"type":"Point","coordinates":[30.372334189545427,60.007456273805808]},"properties":{"unit_id":"16d393fa-efa7-430f-b885-5f5e52a65e77","address_id":"97d7ae09-7ae9-4faf-a6aa-cbf286d9b0ff"}},{"id":"9c6a8070-a44b-4103-8193-2d0d26af097f","type":"Feature","feature_type":"anchor","geometry":{"type":"Point","coordinates":[30.372270361713969,60.007467190924295]},"properties":{"unit_id":"bffeea3f-f2f9-431b-8efd-2cd60adbea35","address_id":"6b554b9b-7aa1-4bfa-8574-c71dd47a0c2d"}},{"id":"909871cb-4e8c-41ab-8681-266ab4205c80","type":"Feature","feature_type":"anchor","geometry":{"type":"Point","coordinates":[30.372206533586919,60.007478108591684]},"properties":{"unit_id":"a034e599-c3db-4abc-840b-a5b8eb6d7d30","address_id":"2e1f4e75-75f8-435a-944d-84e722f76ea8"}},{"id":"fa046fa5-dbe2-4fd7-abf1-28063bedef5f","type":"Feature","feature_type":"anchor","geometry":{"type":"Point","coordinates":[30.372142705713305,60.007489025984626]},"properties":{"unit_id":"2308de27-ef04-4d08-a539-959b0be3348f","address_id":"5f2be546-be52-44f1-ba38-9412d3ec4968"}},{"id":"6f69c087-06f2-492c-9e0a-6fe9fcc38bb7","type":"Feature","feature_type":"anchor","geometry":{"type":"Point","coordinates":[30.371487148043204,60.007601154380815]},"properties":{"unit_id":"6296e498-64f0-45ed-b9bf-e2a0b2b6afd1","address_id":"6a2bb9ae-3312-4bd8-b046-0747dbb49a1f"}},{"id":"9e1cf527-e932-4b3a-8d3b-be71c90885a9","type":"Feature","feature_type":"anchor","geometry":{"type":"Point","coordinates":[30.371580763080395,60.007585142350884]},"properties":{"unit_id":"d2abc737-05ee-4a34-abb3-0ea117afbeee","address_id":"cfe24436-b80b-4aed-9f3d-8e5816d1ee4e"}},{"id":"17780006-a37d-45b6-a995-21174e7a3b5f","type":"Feature","feature_type":"anchor","geometry":{"type":"Point","coordinates":[30.371644590865028,60.007574224683488]},"properties":{"unit_id":"d51e5bd8-556c-42b4-89dc-a0132c6e8f27","address_id":"120d0d35-69c4-434f-a57b-3e678a3f5d8d"}},{"id":"541a8d83-69e2-4d6a-bea5-6ded85d581b5","type":"Feature","feature_type":"anchor","geometry":{"type":"Point","coordinates":[30.371708418903054,60.007563307565]},"properties":{"unit_id":"7db8c347-a030-4e51-84db-cc7a5793747d","address_id":"245ed9d5-5772-480b-9d30-4b62a9b88bd4"}},{"id":"76dc4096-687c-4924-bd49-cd76d625ad3e","type":"Feature","feature_type":"anchor","geometry":{"type":"Point","coordinates":[30.371772246920024,60.007552390172066]},"properties":{"unit_id":"00f85895-f808-42ee-91b5-71ebec856658","address_id":"94783ae1-9f62-44ee-8405-636a11727fe2"}}]}