{"type":"FeatureCollection","name":"anchor","features":[{"id":"0add6c5b-bda9-4fdd-a44a-2aae386abcb5","type":"Feature","feature_type":"anchor","geometry":{"type":"Point","coordinates":[30.374454373578,60.006772993216217]},"properties":{"unit_id":"75b5f74f-a031-41ec-aed6-2671f7a5b95e","address_id":"723aada6-cfca-4bb0-bedf-cc9a2a5a49a4"}},{"id":"fd2e6ae7-dff6-427a-9072-c0dbad5ee6b0","type":"Feature","feature_type":"anchor","geometry":{"type":"Point","coordinates":[30.374943353679914,60.00749727643057]},"properties":{"unit_id":"817acfd6-66d7-4c98-8227-ccd78af09c81","address_id":"9ec0c2bf-65fe-42bd-b3c4-fc12c372a80e"}},{"id":"c8071a1e-bc8a-4ff3-b6d5-fdcc1ef88ef3","type":"Feature","feature_type":"anchor","geometry":{"type":"Point","coordinates":[30.371542885808225,60.00807102016131]},"properties":{"unit_id":"5dc67922-efdb-4892-84f5-61fa7841bf34","address_id":"e55109c0-bbb6-449e-b717-fb12875e51ea"}},{"id":"0e34899d-8f89-4e37-9352-227ace3f6756","type":"Feature","feature_type":"anchor","geometry":{"type":"Point","coordinates":[30.374897571470012,60.007461102394608]},"properties":{"unit_id":"c44a7cea-2c9c-4ab6-8c52-eead4d2e650a","address_id":"93c1e605-a8ed-4482-92fb-e58d90da1478"}},{"id":"22648fad-3437-436e-b1d1-e3ec268b1c76","type":"Feature","feature_type":"anchor","geometry":{"type":"Point","coordinates":[30.371512020104827,60.008032329133712]},"properties":{"unit_id":"c129ac44-bb77-4cfa-a215-a9c840837573","address_id":"08db6a36-6c60-44da-9076-f89b8daf2f33"}},{"id":"f1e5cf06-8e50-47b9-8035-3b72ed86cc20","type":"Feature","feature_type":"anchor","geometry":{"type":"Point","coordinates":[30.370968555256333,60.007339787020079]},"properties":{"unit_id":"cd8ab5ca-0515-4c6a-8703-d7ea7945643d","address_id":"178f4cae-0810-4862-ad96-1fb98a21c039"}},{"id":"ef429882-7f2c-425f-9153-f9bb55bf0143","type":"Feature","feature_type":"anchor","geometry":{"type":"Point","coordinates":[30.374485240552104,60.006811683969367]},"properties":{"unit_id":"4d27fbe6-e853-47f3-b290-ffe573f4e642","address_id":"26163c8d-fe30-47c0-b8a1-9cd0fe87711a"}},{"id":"b3974060-1e47-4c1f-81b8-d33a654d386b","type":"Feature","feature_type":"anchor","geometry":{"type":"Point","coordinates":[30.371076282125017,60.007386865275322]},"properties":{"unit_id":"4f13eb80-9684-49bc-bc72-8c48d3c63aa9","address_id":"8fbcc2c3-043c-4901-97a9-4ffb9db44dd4"}},{"id":"f93b00d3-407d-47ca-bc04-420f64bc0b0b","type":"Feature","feature_type":"anchor","geometry":{"type":"Point","coordinates":[30.37099364612197,60.007271485730612]},"properties":{"unit_id":"d4037488-a561-435c-b464-2d0f50ab903f","address_id":"c088b556-ad27-40b0-b6ce-99b8bb5f1ddc"}},{"id":"711b6f43-59ab-48f5-b796-165b18dddba9","type":"Feature","feature_type":"anchor","geometry":{"type":"Point","coordinates":[30.374411121948409,60.006694866574996]},"properties":{"unit_id":"ecb69ccc-0ac2-475a-a8fa-185efa79f617","address_id":"d94d6575-ac8a-4eb1-8701-7e6e1703abc9"}},{"id":"1643a0d6-6412-405c-afaf-46e8c05e5ee0","type":"Feature","feature_type":"anchor","geometry":{"type":"Point","coordinates":[30.37423545799756,60.007165865669371]},"properties":{"unit_id":"ae59e364-f90f-4371-ab62-b6b37552e083","address_id":"8861939c-bb14-4eb9-84f6-617d48b70dbf"}},{"id":"c5774378-b46d-4355-928d-9e5f8783b112","type":"Feature","feature_type":"anchor","geometry":{"type":"Point","coordinates":[30.3736388909232,60.00726652228127]},"properties":{"unit_id":"38dab4f1-5e19-4259-9ec3-22ce96d800bc","address_id":"b48dd729-8311-48c5-af73-8b9d71a395bc"}},{"id":"dd5dc63d-4671-40a9-b71e-8b57a9d6e077","type":"Feature","feature_type":"anchor","geometry":{"type":"Point","coordinates":[30.372300869823793,60.007492280870444]},"properties":{"unit_id":"3ff9716f-4713-444b-8657-e0d90c0c1ed2","address_id":"a6ec2713-c38c-4511-a118-04c821846bb9"}},{"id":"17174a34-39d0-48e0-bd76-3f57c798e5d4","type":"Feature","feature_type":"anchor","geometry":{"type":"Point","coordinates":[30.371704296861445,60.00759293775679]},"properties":{"unit_id":"cd32015a-cf1b-489f-905f-95b3a2322133","address_id":"f5e4d2c3-a695-40b3-85c7-12e2d31a591c"}},{"id":"7d19e028-610d-4cc9-b5f2-0d9261a2cb86","type":"Feature","feature_type":"anchor","geometry":{"type":"Point","coordinates":[30.374061297956754,60.00745830409052]},"properties":{"unit_id":"22760d02-30a0-4764-91e4-fb398bcbf014","address_id":"5ae70428-dc5a-4a9c-94aa-1c5ce8758c9c"}},{"id":"ec3d413f-f7b9-4072-bb25-ce2186915e6f","type":"Feature","feature_type":"anchor","geometry":{"type":"Point","coordinates":[30.372129826245455,60.007822496945714]},"properties":{"unit_id":"7433977e-0c7d-49d9-9f7c-13833ab44364","address_id":"33966056-bcca-447e-9b93-52e44a41f1e0"}},{"id":"0272eabd-4104-4563-b115-d158c8c25a94","type":"Feature","feature_type":"anchor","geometry":{"type":"Point","coordinates":[30.374020587797066,60.007339748322465]},"properties":{"unit_id":"0cf04221-c476-4b18-b62a-70ecd172a906","address_id":"1e37c2c6-8469-4f85-b9b6-14ee6b0a3591"}},{"id":"377600a7-9357-4492-bc13-aaeb18660471","type":"Feature","feature_type":"anchor","geometry":{"type":"Point","coordinates":[30.372085993202738,60.007666163523538]},"properties":{"unit_id":"97cbe956-3524-4183-9c3e-c7b3ab2be6a7","address_id":"56d1e0e9-4f9f-4d6b-8285-d30ba478a7a4"}},{"id":"250521dc-e49e-4a16-812b-d6f0d64523fa","type":"Feature","feature_type":"anchor","geometry":{"type":"Point","coordinates":[30.372020583365352,60.0076677081347]},"properties":{"unit_id":"34d4729a-17a5-43bd-9453-7b15c5b378d6","address_id":"30af9771-21bc-4217-9030-b6d0739fca0d"}},{"id":"abacc28c-fb86-4bc5-837d-5e9add36bbe0","type":"Feature","feature_type":"anchor","geometry":{"type":"Point","coordinates":[30.37395517846489,60.007341292933631]},"properties":{"unit_id":"222cf2d3-adf5-4b08-9ecd-a49a5cfd65a7","address_id":"102a0eff-32b7-43ed-bcef-fe842a9fcfe9"}},{"id":"1259d37c-3ebf-4c39-bf17-f67050090c1d","type":"Feature","feature_type":"anchor","geometry":{"type":"Point","coordinates":[30.372653587813438,60.007684295139832]},"properties":{"unit_id":"474e4d0e-b1d1-4a68-8e4f-efb0cac32242","address_id":"2a25bfab-17f6-492e-b813-dabd989d6c6d"}},{"id":"5beb59e8-3f5f-45a1-b768-d647b55c02fd","type":"Feature","feature_type":"anchor","geometry":{"type":"Point","coordinates":[30.372782863017484,60.007664856038183]},"properties":{"unit_id":"6863845e-aae2-4e6b-9a85-5915c41b6c83","address_id":"80fbd0db-04ed-471e-b4e3-b870c6408c1f"}},{"id":"d3f6924f-54e5-469f-bdb0-5a8486c12006","type":"Feature","feature_type":"anchor","geometry":{"type":"Point","coordinates":[30.373426255229187,60.007549180909564]},"properties":{"unit_id":"62cf1d3b-0c3b-432c-b9bb-8e8d0a8dfba9","address_id":"848961b1-ac1e-4854-aba6-5b122ff634ac"}},{"id":"c4991e66-e593-4898-bf3d-98d4ec28f049","type":"Feature","feature_type":"anchor","geometry":{"type":"Point","coordinates":[30.375003650819863,60.007572527372467]},"properties":{"unit_id":"2754506b-7f83-4e8b-a23e-70270648b432","address_id":"5d217f1f-b92f-454d-814a-d4b98261cf91"}},{"id":"4dcc1385-5ab5-48f5-8d89-c16909e812e4","type":"Feature","feature_type":"anchor","geometry":{"type":"Point","coordinates":[30.371586134949844,60.008149146528076]},"properties":{"unit_id":"4e84586e-a43b-4d71-88c8-c8a68bfea410","address_id":"3aac4bbf-fc8a-4759-8d93-b1b7abd69a93"}},{"id":"5ec9ad3a-aad8-4b4c-8d30-1befcb7c3b85","type":"Feature","feature_type":"anchor","geometry":{"type":"Point","coordinates":[30.374506785505602,60.006745166612475]},"properties":{"unit_id":"6477a797-273a-4af7-834b-8ef0d9425a4d","address_id":"fb172651-195c-4dc1-8cb3-ac982a2bfb9d"}},{"id":"1733b020-8a8d-4857-8dd4-d5192c495d69","type":"Feature","feature_type":"anchor","geometry":{"type":"Point","coordinates":[30.370837894872292,60.007364205489239]},"properties":{"unit_id":"e8037852-8035-48d3-8730-11f429ba43c5","address_id":"0ebf9ff1-52c9-4373-a498-bcae2a52a0a4"}},{"id":"49444016-0e01-4d35-a698-0abaaf337169","type":"Feature","feature_type":"anchor","geometry":{"type":"Point","coordinates":[30.371326839881323,60.008088488703585]},"properties":{"unit_id":"f96bb204-1cce-4326-9792-96b0978917af","address_id":"b6fce9fe-07d7-4dbd-ae66-8187b60b9aa8"}},{"id":"e90854b1-34bd-47ea-a846-7b4d8e7d0165","type":"Feature","feature_type":"anchor","geometry":{"type":"Point","coordinates":[30.37499576611296,60.007469449826829]},"properties":{"unit_id":"aa2b4e9e-fcf1-40b2-a642-c689f039448b","address_id":"1efbf71d-069a-4739-89fe-a53d570e7aed"}},{"id":"bf73c533-06d3-4294-a19e-b2d935e635e8","type":"Feature","feature_type":"anchor","geometry":{"type":"Point","coordinates":[30.373610659481646,60.0074848462628]},"properties":{"unit_id":"b8b20f09-263e-40fb-8eb6-26d5f4d99766","address_id":"2980c48a-2758-412f-818b-9287c8fd0ebc"}},{"id":"8aada9a8-56b8-4a25-8ef0-c39cfa99a7f7","type":"Feature","feature_type":"anchor","geometry":{"type":"Point","coordinates":[30.372219261552754,60.007705372989392]},"properties":{"unit_id":"c9cf2e6d-76e8-427b-beb6-76f3f64a1da8","address_id":"494221d2-455d-4ee5-a20e-86d5bded827b"}},{"id":"35c14c8c-8914-407c-a0aa-912ba0808eee","type":"Feature","feature_type":"anchor","geometry":{"type":"Point","coordinates":[30.372027505831365,60.007737726939567]},"properties":{"unit_id":"4bc20ad4-0b19-480e-bc70-6a8783756b84","address_id":"fcd03f99-c266-49a4-869b-cd6ee6a2188e"}},{"id":"98c6d46c-8f77-47a2-b253-8faf1d0c00df","type":"Feature","feature_type":"anchor","geometry":{"type":"Point","coordinates":[30.3721410655446,60.007803990703579]},"properties":{"unit_id":"d150c32e-0610-46ab-9f9b-0262943ec0c6","address_id":"18cb81a0-38ae-4749-945a-f54cfb74fe0e"}},{"id":"9ef2708b-1133-44f6-a4c0-44680640648b","type":"Feature","feature_type":"anchor","geometry":{"type":"Point","coordinates":[30.371974478249395,60.007751419857151]},"properties":{"unit_id":"b8390a22-fd34-4f30-83e8-f2c286513943","address_id":"8778b156-9ef5-41a1-98c9-064542362f8e"}},{"id":"9b787a86-9d72-44b1-aa6e-5bda73cf01b7","type":"Feature","feature_type":"anchor","geometry":{"type":"Point","coordinates":[30.372278041624774,60.007700201231614]},"properties":{"unit_id":"49fc5300-be32-4acd-8d7f-6a45a26ebc5f","address_id":"26245e5d-1c78-4f52-b85f-d57a97136150"}},{"id":"932e118b-74ee-4583-a7a0-4c53f620bc2a","type":"Feature","feature_type":"anchor","geometry":{"type":"Point","coordinates":[30.372077474820273,60.007858726146353]},"properties":{"unit_id":"c7292b0a-4e48-4683-a3c1-d26a861e9a9f","address_id":"5022e0a4-ee69-4421-8907-e028dd8ecb92"}},{"id":"81f8c300-77dc-495f-8ec0-b3be13d28af3","type":"Feature","feature_type":"anchor","geometry":{"type":"Point","coordinates":[30.3723261775721,60.0078167639353]},"properties":{"unit_id":"4c4dda7a-474a-40e2-a80e-bf8919fe9df9","address_id":"489e546f-ab03-44ac-9c90-b22131327318"}},{"id":"ded46eb1-9242-4fba-ae7c-417142312e21","type":"Feature","feature_type":"anchor","geometry":{"type":"Point","coordinates":[30.372980211429109,60.007619693726532]},"properties":{"unit_id":"606f44ba-6a3a-46cd-aaeb-806b2e601d27","address_id":"9920877b-3a17-4349-996f-dcd02106dc1d"}},{"id":"3185186f-fb2c-43b2-9cd4-0f7b3a15864c","type":"Feature","feature_type":"anchor","geometry":{"type":"Point","coordinates":[30.374020587797066,60.007339748322465]},"properties":{"unit_id":"d18101c6-a9c3-4b6c-a819-6c0cfa9f83f1","address_id":"f041a1d4-67a8-4fb3-9993-8357e34f3344"}},{"id":"7fa42507-8581-4763-97b6-05d6d35ce75f","type":"Feature","feature_type":"anchor","geometry":{"type":"Point","coordinates":[30.372085993202738,60.007666163523538]},"properties":{"unit_id":"93edc16b-9b82-4e70-a8c1-acd78ebc163e","address_id":"563d4e72-7d63-46a0-9cfb-55c2d65b1703"}},{"id":"3b404225-a247-4001-843d-3fd62bdd51dc","type":"Feature","feature_type":"anchor","geometry":{"type":"Point","coordinates":[30.37213989847108,60.007647576867207]},"properties":{"unit_id":"2b568b23-5f8a-42ed-8c2b-6e6cc2e9e08e","address_id":"614bd418-07a4-4120-8645-33e16f049f1c"}},{"id":"c63b1ec3-fc7a-40d9-afd6-e8131e8ed16a","type":"Feature","feature_type":"anchor","geometry":{"type":"Point","coordinates":[30.372020583365352,60.0076677081347]},"properties":{"unit_id":"1a51eed8-145b-4819-8f22-24b1ca85a28c","address_id":"f217f0a8-7a4c-484b-a0de-66d5915a6007"}},{"id":"70cc4a51-5dd8-44c7-b592-f290d1707a20","type":"Feature","feature_type":"anchor","geometry":{"type":"Point","coordinates":[30.374074491844031,60.007321161391687]},"properties":{"unit_id":"53df264e-5f2c-4bfb-b9e5-aab88279dc41","address_id":"33e240ee-a793-458f-8f87-4a578df95a20"}},{"id":"86bcfccf-1f3c-4ae8-a6c7-b7c96c89d772","type":"Feature","feature_type":"anchor","geometry":{"type":"Point","coordinates":[30.37395517846489,60.007341292933631]},"properties":{"unit_id":"35531cd7-2bc8-409c-a84d-473a9dbd3939","address_id":"35ba8c9a-db67-4b88-96d3-e4f9a6ddab11"}},{"id":"c20804af-b9f9-4042-a316-dfa0b6d83cf9","type":"Feature","feature_type":"anchor","geometry":{"type":"Point","coordinates":[30.372093183755005,60.007676814698847]},"properties":{"unit_id":"1d75eab8-6bc6-4647-a0ee-4e4a4041a69d","address_id":"b67458c6-7dfb-4122-8935-ad7f1955b5c5"}},{"id":"41e3f80f-3c8f-47b6-9e13-215bb998b784","type":"Feature","feature_type":"anchor","geometry":{"type":"Point","coordinates":[30.371217996148221,60.007319056076788]},"properties":{"unit_id":"ee459635-f6f0-473d-bcd1-6acce8e6acc1","address_id":"550b8e0a-66d8-4a19-a2a0-1bcd955d4ae6"}},{"id":"db130958-7741-41a6-9b45-8bb45aa82e30","type":"Feature","feature_type":"anchor","geometry":{"type":"Point","coordinates":[30.374582801691865,60.007494042572475]},"properties":{"unit_id":"7c741f6d-53c6-4b4b-a654-ba3c9fdd3945","address_id":"98b199c8-7453-4dc5-8b6d-ff2b036ed31a"}},{"id":"9062c173-fccd-477b-8939-9101dc2245d3","type":"Feature","feature_type":"anchor","geometry":{"type":"Point","coordinates":[30.374347742992384,60.007536076140831]},"properties":{"unit_id":"d4cc23a0-e091-48ef-ad61-de9785c0cb41","address_id":"d9b05f1f-d219-4469-8668-620d527039bb"}},{"id":"a39bc470-c7bc-4f7d-8b51-b1052a97f6b4","type":"Feature","feature_type":"anchor","geometry":{"type":"Point","coordinates":[30.373998323514915,60.00759503209364]},"properties":{"unit_id":"13218fe0-040a-4d08-ab88-54ad24d5f8d5","address_id":"91a51abf-6e8a-4141-9e28-d1e957a8f0c5"}},{"id":"e99cdf99-f304-40c0-820e-207817d84145","type":"Feature","feature_type":"anchor","geometry":{"type":"Point","coordinates":[30.3741787857313,60.007574075277041]},"properties":{"unit_id":"3ba38285-7f5d-479b-959f-2ac49f25d433","address_id":"efad54f1-3f34-4c17-a14b-f2295d1d410c"}},{"id":"f9754ccd-4f9e-4b23-88d2-ef999acb4d2e","type":"Feature","feature_type":"anchor","geometry":{"type":"Point","coordinates":[30.372653587813438,60.007684295139832]},"properties":{"unit_id":"f700f4b2-5cd1-431d-9b3a-7493d0f27764","address_id":"1b161ea0-2fbb-4db0-8835-9e3438d19584"}},{"id":"676575f6-6e10-48cd-a576-a9952d753242","type":"Feature","feature_type":"anchor","geometry":{"type":"Point","coordinates":[30.371419966512388,60.00760769115368]},"properties":{"unit_id":"7ab84001-6c6e-424b-9045-3871f032c841","address_id":"0fc656d0-0694-482e-a816-9358fe06ad2c"}},{"id":"7426034b-9b57-448a-8a81-89b623157748","type":"Feature","feature_type":"anchor","geometry":{"type":"Point","coordinates":[30.37447951708052,60.007091465526088]},"properties":{"unit_id":"33764607-0f31-4545-b9d6-e3dcbf5d4164","address_id":"93cd939f-2a1a-4046-a440-3edc5dada3fd"}},{"id":"ad6e62a7-6c80-4064-82b3-8f7e513d15f7","type":"Feature","feature_type":"anchor","geometry":{"type":"Point","coordinates":[30.37170694498564,60.008043339565596]},"properties":{"unit_id":"5f9dc978-38b1-4805-a5fe-21b1b27c1cc2","address_id":"0a6340c6-6172-4ead-b560-c81dee9a08b8"}},{"id":"7e03e06a-6c05-46ed-9965-6adfc44c2ba2","type":"Feature","feature_type":"anchor","geometry":{"type":"Point","coordinates":[30.372782863017484,60.007664856038183]},"properties":{"unit_id":"1f93f7e5-091d-4d27-8ad2-7b2647ca25c9","address_id":"2a54577b-2e13-4685-bc92-a547229d8e59"}},{"id":"f1f550bd-bdb1-48dd-9c9f-deac4f7697d9","type":"Feature","feature_type":"anchor","geometry":{"type":"Point","coordinates":[30.373426255229187,60.007549180909564]},"properties":{"unit_id":"a574847b-eb78-400d-92b5-8dc91709e8fd","address_id":"45ae1790-2705-4419-9bbe-efb8fc7455c7"}},{"id":"a55d7657-b784-49d1-9614-c5ccf8b74c50","type":"Feature","feature_type":"anchor","geometry":{"type":"Point","coordinates":[30.371709711873844,60.008128296472982]},"properties":{"unit_id":"4c8460eb-61be-49c2-9c40-a0438b6068d0","address_id":"1b4e777a-9819-48e1-976a-65ece2153979"}},{"id":"2f4195dc-4f89-465b-a3a3-68245fed5b61","type":"Feature","feature_type":"anchor","geometry":{"type":"Point","coordinates":[30.374873684025964,60.007594456020641]},"properties":{"unit_id":"3a85d0e8-c95b-4a12-8b9e-7003667b3581","address_id":"08ab9f41-6b98-4d5a-93cd-022bf1cd250a"}},{"id":"59a3b093-90a8-4db9-bb6b-da31998d0e2e","type":"Feature","feature_type":"anchor","geometry":{"type":"Point","coordinates":[30.375069699507875,60.007561383282862]},"properties":{"unit_id":"a134208a-15f1-4221-a081-c3ce252bd3bd","address_id":"7e6b20bb-5a53-4ca0-8611-c45cfcb530ed"}},{"id":"02846701-cdc9-4ac7-b0b5-5e82eeeedd5e","type":"Feature","feature_type":"anchor","geometry":{"type":"Point","coordinates":[30.371513693306355,60.008161369485215]},"properties":{"unit_id":"c0a86083-9d15-4f65-af39-f5f0b748bf61","address_id":"5e4e9857-1a32-4ca5-9e50-e4041aa4f3e5"}},{"id":"ab1ec447-6a5d-4147-abb6-44b6e0b30c5f","type":"Feature","feature_type":"anchor","geometry":{"type":"Point","coordinates":[30.374506785505602,60.006745166612475]},"properties":{"unit_id":"6d9885ef-5cca-4cb7-bc09-9295bb8f3195","address_id":"5c4f7824-ed61-4f2b-b969-d80672d053e5"}},{"id":"e2d7b61e-eb01-43af-bf94-6bff9e3fbbf8","type":"Feature","feature_type":"anchor","geometry":{"type":"Point","coordinates":[30.370837894872292,60.007364205489239]},"properties":{"unit_id":"b8eaaf32-22c5-48d3-b227-e1423eb2d105","address_id":"f9352cb2-40a5-4e32-a312-997c09f3726e"}},{"id":"df0d5c68-50bf-4389-bfb3-3927357b4c8f","type":"Feature","feature_type":"anchor","geometry":{"type":"Point","coordinates":[30.371326839881323,60.008088488703585]},"properties":{"unit_id":"d2b91d5f-bdd5-4d8d-b50e-a612d8cd199a","address_id":"a24db453-fa71-44af-b463-2f0dd1a5fda2"}},{"id":"516c43bf-4006-44c1-bb36-37be402062d0","type":"Feature","feature_type":"anchor","geometry":{"type":"Point","coordinates":[30.37499576611296,60.007469449826829]},"properties":{"unit_id":"d9b6ffcd-31b1-47b9-b2eb-9c8c6ee43b74","address_id":"61813622-5983-4f3f-8dc8-3dfac55abf24"}},{"id":"64fcc98e-d37d-46a9-bd2b-edae1363d575","type":"Feature","feature_type":"anchor","geometry":{"type":"Point","coordinates":[30.373044664171154,60.007490174457743]},"properties":{"unit_id":"323557db-d173-48c5-805b-38154fcd5c3f","address_id":"f69b206b-207a-4d7d-987e-5f6ef152beb0"}},{"id":"34037375-7d7f-4229-a3f7-d7d867b792b3","type":"Feature","feature_type":"anchor","geometry":{"type":"Point","coordinates":[30.373610659481646,60.0074848462628]},"properties":{"unit_id":"c7d3b444-8af4-4015-80b1-7877154ed377","address_id":"15730580-a486-4569-813a-2d9baaf76dad"}},{"id":"f7cb6455-32c3-4ea6-bb18-efc0dee5d1ca","type":"Feature","feature_type":"anchor","geometry":{"type":"Point","coordinates":[30.374510783345468,60.007088562930555]},"properties":{"unit_id":"a23e7249-70f0-4729-babc-2e48f8405801","address_id":"7f537564-b5e4-4cb3-a4fe-624b8d6fcc01"}},{"id":"2ba6a0eb-2ed5-4fe7-af3d-41a457cccd97","type":"Feature","feature_type":"anchor","geometry":{"type":"Point","coordinates":[30.374027778625372,60.007350399497774]},"properties":{"unit_id":"09eb0bd3-762e-4c77-aae1-a4e3abd5bd00","address_id":"7d91f306-5973-4a44-84ef-3d56ced7e8ee"}},{"id":"53908a4a-a5b6-4527-8f22-636ab20d9116","type":"Feature","feature_type":"anchor","geometry":{"type":"Point","coordinates":[30.374138448282171,60.007514327258171]},"properties":{"unit_id":"566053f1-eb3c-4ab5-b6de-449829876cc5","address_id":"7e255672-01e1-4956-ba33-cb8bb00630bc"}},{"id":"1b5d5be3-69a2-42c2-9c4d-18dd88285638","type":"Feature","feature_type":"anchor","geometry":{"type":"Point","coordinates":[30.374092495909853,60.007446260624448]},"properties":{"unit_id":"95348102-5474-4559-8ea2-8cf2847f276a","address_id":"c4f59bb7-6226-4e21-b0a3-7a1f69acb22d"}},{"id":"de4e9b84-ac30-4784-ae3c-51b2efb9e017","type":"Feature","feature_type":"anchor","geometry":{"type":"Point","coordinates":[30.374582801691865,60.007494042572475]},"properties":{"unit_id":"0da3f257-64ed-48ba-8bd0-d9510c7048a0","address_id":"90b77f7a-eb9b-4610-97bc-e591dc299408"}},{"id":"763460f6-8b5a-49a3-a943-69bcde44702f","type":"Feature","feature_type":"anchor","geometry":{"type":"Point","coordinates":[30.374331429898756,60.00750798057495]},"properties":{"unit_id":"52f37c16-4acf-4d27-bfba-254d34ea137d","address_id":"b2ae3ae2-2080-4a88-8df7-0635de9ef3ea"}},{"id":"6752b68f-a721-46c3-9662-88e3d0929c86","type":"Feature","feature_type":"anchor","geometry":{"type":"Point","coordinates":[30.374353136237541,60.007544064590924]},"properties":{"unit_id":"7fc4ac93-751b-4f0d-a8a5-d78ff14b74ee","address_id":"cf7fe9a7-3df8-4e48-b205-21b4c0fea9fd"}},{"id":"75df2e61-a1a6-463b-bf65-cdc2067dfa2a","type":"Feature","feature_type":"anchor","geometry":{"type":"Point","coordinates":[30.373998323514915,60.00759503209364]},"properties":{"unit_id":"0ae29b37-415e-43fc-ac55-d2b0ca625ae8","address_id":"f48be5dd-9396-43e2-9642-b745b8a9064d"}},{"id":"c6073927-e128-41cd-825c-8c5c36abaedf","type":"Feature","feature_type":"anchor","geometry":{"type":"Point","coordinates":[30.3741787857313,60.007574075277041]},"properties":{"unit_id":"ac31e618-5c9f-42d7-bf41-36cc05fba771","address_id":"e5090d71-171b-4b91-83b6-232d5ae60df2"}},{"id":"de238b09-816a-4331-99d2-0e3e24f69c5f","type":"Feature","feature_type":"anchor","geometry":{"type":"Point","coordinates":[30.372662110194131,60.00768285729017]},"properties":{"unit_id":"916711d0-a29c-40be-84a1-c247de45e55d","address_id":"19c92d7a-a413-4b3c-9b9d-f69fcbf7819e"}},{"id":"fc484c21-1f0d-4ad0-a190-1a363236c99c","type":"Feature","feature_type":"anchor","geometry":{"type":"Point","coordinates":[30.371419966512388,60.00760769115368]},"properties":{"unit_id":"bdb5d7ba-c72a-4dc8-b981-adbe7b39607d","address_id":"3f287226-fdb6-4b75-8aeb-eb1685ccc10a"}},{"id":"a3d70ca3-fcaa-43b8-8283-9c9ea5d280a0","type":"Feature","feature_type":"anchor","geometry":{"type":"Point","coordinates":[30.37447951708052,60.007091465526088]},"properties":{"unit_id":"17ba57d6-876c-4afd-bac1-bdb89fb29eec","address_id":"53a86c8e-3818-479b-91e8-6c651fa49bdc"}},{"id":"08346494-74d6-4ecb-93dc-aedd159197fc","type":"Feature","feature_type":"anchor","geometry":{"type":"Point","coordinates":[30.374141392788069,60.007328856727938]},"properties":{"unit_id":"5d7cbd54-954e-453d-9a88-d78addca25f4","address_id":"c5bab7d7-b37b-44aa-b903-fea2914a9fbe"}},{"id":"2330c866-2d9d-4cda-b3e7-c0bd1b06cd15","type":"Feature","feature_type":"anchor","geometry":{"type":"Point","coordinates":[30.3719766921951,60.007694096888777]},"properties":{"unit_id":"bfea01d1-1ab1-4a26-b90c-1ca81634c525","address_id":"7b97bb74-550e-4a06-bdd0-ae0e2cd922e8"}},{"id":"5d3a4b32-20d1-4350-a9a8-6d93637bf17c","type":"Feature","feature_type":"anchor","geometry":{"type":"Point","coordinates":[30.37170694498564,60.008043339565596]},"properties":{"unit_id":"65c0133f-f62a-4d9c-a950-91f013020dd3","address_id":"b4565033-f8c9-4ce0-be0e-bc1c44cb0f01"}},{"id":"016ee23d-259a-4c69-bdd0-8e84d9376bf7","type":"Feature","feature_type":"anchor","geometry":{"type":"Point","coordinates":[30.372782863017484,60.007664856038183]},"properties":{"unit_id":"33c87ee3-5dbc-4a11-9e0b-24b57a5cc2fd","address_id":"8291d6c7-b6c1-4fc3-9c99-68bb22533641"}},{"id":"b7765f2a-7eb1-4f2d-b040-60bc6ec68063","type":"Feature","feature_type":"anchor","geometry":{"type":"Point","coordinates":[30.372879519307578,60.007245551193215]},"properties":{"unit_id":"82d7ad0e-fb6c-466a-9dcf-efcf8be79515","address_id":"3645ed6c-dfdc-4590-a562-61111e54b94f"}},{"id":"25cba833-5fd0-432c-90d6-99e70e7cb58a","type":"Feature","feature_type":"anchor","geometry":{"type":"Point","coordinates":[30.373426255229187,60.007549180909564]},"properties":{"unit_id":"0e1f9f94-27e5-4613-906c-7b74527db546","address_id":"af26b5c4-b937-4054-9345-232936dca090"}},{"id":"b4825268-6f8b-4aab-a600-749c373725ad","type":"Feature","feature_type":"anchor","geometry":{"type":"Point","coordinates":[30.372656949474095,60.007372878969441]},"properties":{"unit_id":"6adcf67f-e0a1-458e-b46e-2a70b1aca936","address_id":"03141790-cde3-4ac3-9568-8baef768b84f"}},{"id":"67cf0e7a-6c9d-4138-a473-045e3377b7d4","type":"Feature","feature_type":"anchor","geometry":{"type":"Point","coordinates":[30.373210906737373,60.007279412154737]},"properties":{"unit_id":"fa6efa92-134c-4abe-aeb1-e8b2e76c421e","address_id":"81a0d516-616f-44e0-a459-6d69bc10e26a"}},{"id":"4170e3b6-af77-4615-ac45-238ea071a90e","type":"Feature","feature_type":"anchor","geometry":{"type":"Point","coordinates":[30.373210906737373,60.007279412154737]},"properties":{"unit_id":"fa6efa92-134c-4abe-aeb1-e8b2e76c421e","address_id":"4fd7f208-0efc-4da9-9107-42f7c4357010"}},{"id":"96262762-033c-456d-93dd-c0e9198265e5","type":"Feature","feature_type":"anchor","geometry":{"type":"Point","coordinates":[30.371709711873844,60.008128296472982]},"properties":{"unit_id":"aa92379a-3c4d-445d-89b6-09fb926847ba","address_id":"6656ed5d-7a10-4562-b95d-34d5608c2790"}},{"id":"f1b1d8f2-b458-403b-baa4-49db638da16e","type":"Feature","feature_type":"anchor","geometry":{"type":"Point","coordinates":[30.374915231639033,60.007634904084611]},"properties":{"unit_id":"8105af86-3ed8-424f-9dc5-d3f365814b95","address_id":"0740dc06-33fc-42b3-b4bb-ab6c17847c1e"}},{"id":"db3d7e3d-304b-4a02-a466-e45d39e04319","type":"Feature","feature_type":"anchor","geometry":{"type":"Point","coordinates":[30.374863297348828,60.007576338675811]},"properties":{"unit_id":"b6db8517-8a79-4c39-aeb7-f109540a2eb3","address_id":"cbca2846-5a81-475b-b58d-9ba808f767e1"}},{"id":"91ce1a71-9363-433d-b2d8-a6af204652a0","type":"Feature","feature_type":"anchor","geometry":{"type":"Point","coordinates":[30.375095730081984,60.00756338211071]},"properties":{"unit_id":"aa48a1e8-9b38-4f0f-8798-8238935903a3","address_id":"60ad03cf-ab18-42d2-b859-54776b15e4ce"}},{"id":"f470ab17-ae73-4489-b764-21c39392ebb9","type":"Feature","feature_type":"anchor","geometry":{"type":"Point","coordinates":[30.371513693306355,60.008161369485215]},"properties":{"unit_id":"a26f84a0-6910-42b5-87e6-c6e8e8ed2513","address_id":"6aef0689-fa10-481b-a728-a372201fd141"}},{"id":"11d63696-f022-4e6e-a8d9-395ce98ce2a9","type":"Feature","feature_type":"anchor","geometry":{"type":"Point","coordinates":[30.370983043802443,60.007265453842876]},"properties":{"unit_id":"89139c67-767e-4fb6-8e11-0aa8f6a2d840","address_id":"13dc4791-e9fd-44aa-8f31-796453abdc40"}},{"id":"1acdf469-7ff8-4606-93e7-bc2246fa2364","type":"Feature","feature_type":"anchor","geometry":{"type":"Point","coordinates":[30.374376979347137,60.006693508590629]},"properties":{"unit_id":"7b01a686-be2d-450f-8c4d-a1332b54ce3f","address_id":"df9e8cd4-6a6d-47eb-b30a-9ec650c90a40"}},{"id":"4a4daa40-4a74-4653-a4f3-47ceb3d1aea1","type":"Feature","feature_type":"anchor","geometry":{"type":"Point","coordinates":[30.374506785505602,60.006745166612475]},"properties":{"unit_id":"f9602c8c-3a26-4900-a758-5641f7604c5c","address_id":"354f0a93-1f3b-4fe8-aa77-237bf3150b3e"}},{"id":"d765d00b-2cc5-4f29-9dd1-6dbd906dd284","type":"Feature","feature_type":"anchor","geometry":{"type":"Point","coordinates":[30.370837894872292,60.007364205489239]},"properties":{"unit_id":"c907cc32-383b-4f72-9287-03fd4745416d","address_id":"30a63e4c-3f76-4a2c-bdee-9685c8d57bb1"}},{"id":"8c5e5fa2-e7a5-4147-8ab0-e00ca98ec1e8","type":"Feature","feature_type":"anchor","geometry":{"type":"Point","coordinates":[30.371326839881323,60.008088488703585]},"properties":{"unit_id":"7f74197d-0f66-4ddc-8f1c-3e07b29a32c6","address_id":"6c81f3ad-9633-400f-a6b7-a27f62ab8449"}},{"id":"4b2bf567-2e28-43df-a27e-e8729192bbb2","type":"Feature","feature_type":"anchor","geometry":{"type":"Point","coordinates":[30.37499576611296,60.007469449826829]},"properties":{"unit_id":"e41bb973-84de-47a1-b345-2d56254bc698","address_id":"bdeba235-1143-4015-8a7b-9410d9ac12d5"}},{"id":"ffe517a6-2435-461a-8c1a-6ce5e8e6d446","type":"Feature","feature_type":"anchor","geometry":{"type":"Point","coordinates":[30.373044664171154,60.007490174457743]},"properties":{"unit_id":"1966ba80-f16b-4715-a139-212e74476e94","address_id":"486cd505-2c8b-4bb3-8d96-fb412204ff96"}},{"id":"5b9b21f1-4d10-4753-a502-638aa04d22d5","type":"Feature","feature_type":"anchor","geometry":{"type":"Point","coordinates":[30.372093183755005,60.007676814698847]},"properties":{"unit_id":"2036cea7-0bce-4b47-801e-3123571a5db8","address_id":"039315c3-b020-42c9-bb19-568bf7d6dbc8"}},{"id":"6194b406-9fb7-41cf-b12d-0f36fa200150","type":"Feature","feature_type":"anchor","geometry":{"type":"Point","coordinates":[30.374027778625372,60.007350399497774]},"properties":{"unit_id":"3981fd65-6b04-4f91-916f-39b86671b8b8","address_id":"48add14a-554d-4071-80cf-5cd162313ff9"}},{"id":"6a04d098-eb09-46b6-950b-faa5538a34ca","type":"Feature","feature_type":"anchor","geometry":{"type":"Point","coordinates":[30.373573959840979,60.007521886192187]},"properties":{"unit_id":"8530398e-a705-4c92-a748-4a209ab530bd","address_id":"18b2b9d6-0405-4f48-b97c-5f79335997c5"}},{"id":"d5822ca6-16dd-4bae-8850-96a1725220ff","type":"Feature","feature_type":"anchor","geometry":{"type":"Point","coordinates":[30.374510783345468,60.007088562930555]},"properties":{"unit_id":"196a5da5-e0e6-41d8-afb8-86d3804b1d0d","address_id":"b400cd54-e402-4baf-9229-6384f72939e5"}}]}