{"type":"FeatureCollection","name":"anchor","features":[{"id":"690f2a13-6d8b-49e2-a5d8-3e0fa9c7f898","type":"Feature","feature_type":"anchor","geometry":{"type":"Point","coordinates":[30.381809872217048,60.007211395745578]},"properties":{"unit_id":"f918cd54-fa50-498d-a212-dca835ae422f","address_id":"e3c63b6f-ae0f-47a6-9ce6-c10ae39ad447"}},{"id":"42c9da78-5f19-450b-a934-9f25e2e8f5e6","type":"Feature","feature_type":"anchor","geometry":{"type":"Point","coordinates":[30.381514930621517,60.007219465158769]},"properties":{"unit_id":"053908bd-c925-4d16-a3ef-7ac8d0e8a0c1","address_id":"e14d2bc8-103d-4d6b-b807-484363bea64d"}},{"id":"5d3efd45-1deb-41ad-87ac-d879325f5f33","type":"Feature","feature_type":"anchor","geometry":{"type":"Point","coordinates":[30.381312527292398,60.007253616764082]},"properties":{"unit_id":"c2dd51b3-fb63-4cc1-b9e1-474c2e06a423","address_id":"e7f1d9ff-d65a-469e-8604-d0c7cd9f111f"}},{"id":"bd8c2e7c-ed72-424c-937a-4c3c8b366202","type":"Feature","feature_type":"anchor","geometry":{"type":"Point","coordinates":[30.381312527292398,60.007253616764082]},"properties":{"unit_id":"c2dd51b3-fb63-4cc1-b9e1-474c2e06a423","address_id":"e7f1d9ff-d65a-469e-8604-d0c7cd9f111f"}},{"id":"0cf682ab-4f59-4b67-8341-4f07616f7a7c","type":"Feature","feature_type":"anchor","geometry":{"type":"Point","coordinates":[30.381468068927806,60.007322290209331]},"properties":{"unit_id":"2bc66941-1e3a-4279-9b5a-a673003a57f2","address_id":"bc5ee42a-212b-4da7-a2d3-c20293b4acf0"}},{"id":"9b1c7883-0f56-4dc0-8b14-d8a4cfd652da","type":"Feature","feature_type":"anchor","geometry":{"type":"Point","coordinates":[30.381433742520873,60.007231384298464]},"properties":{"unit_id":"27d4777c-a547-40cb-bfd1-53c43bd1b0f2","address_id":"3a3f027d-18ce-4173-be1c-382dda217aa8"}},{"id":"94c70f44-ef23-4521-8175-2ad51fbb1da0","type":"Feature","feature_type":"anchor","geometry":{"type":"Point","coordinates":[30.38131892986555,60.007347454362311]},"properties":{"unit_id":"aec54fe7-cb61-47d2-aa47-848ee03f7a26","address_id":"451d5824-03b1-4d97-a124-1e87c5b79319"}},{"id":"daec78f9-800c-4c5f-9208-be34a70f4043","type":"Feature","feature_type":"anchor","geometry":{"type":"Point","coordinates":[30.381191096214859,60.007369023479455]},"properties":{"unit_id":"1bcd1923-6dad-434f-aefe-fb3e9517733d","address_id":"061005a1-159b-4cea-8f45-0d13d0b6adad"}},{"id":"36f28f60-141c-4db7-ad3b-ecc1c2f1dad1","type":"Feature","feature_type":"anchor","geometry":{"type":"Point","coordinates":[30.381156997061083,60.007279859235688]},"properties":{"unit_id":"7d2e9510-2850-4994-b2c3-9c35ba192b9f","address_id":"f19368e0-5922-4299-86f3-a2bf06de5b11"}},{"id":"f7619830-584f-4235-8844-f38ee17b1803","type":"Feature","feature_type":"anchor","geometry":{"type":"Point","coordinates":[30.381600164152552,60.007300001755681]},"properties":{"unit_id":"a323b807-11c1-45d0-91ae-758a4460492e","address_id":"b52e95e8-0813-40cd-bb74-e60e3937012e"}},{"id":"b99fca40-4527-4514-9f58-b6130182c690","type":"Feature","feature_type":"anchor","geometry":{"type":"Point","coordinates":[30.381902702934763,60.00724895438767]},"properties":{"unit_id":"935456ee-621a-41c4-aa7e-763d812b6085","address_id":"64b054aa-de9b-48d4-950c-00e3b2a3f968"}},{"id":"436a53b7-06da-4ef6-9893-629f9ea375aa","type":"Feature","feature_type":"anchor","geometry":{"type":"Point","coordinates":[30.38208166937266,60.007218757623662]},"properties":{"unit_id":"1792a3fa-49fc-421f-bfe5-24a5ab3d152e","address_id":"64eee34f-16f1-4c66-806b-7b448a0bc7bf"}},{"id":"e4934067-3444-4735-af12-274374bb8150","type":"Feature","feature_type":"anchor","geometry":{"type":"Point","coordinates":[30.382260635647093,60.007188560310752]},"properties":{"unit_id":"87b88867-bc11-49d4-9a28-fe853790eb0a","address_id":"420e6d1a-6481-4c69-8e28-098d54b0bb3d"}},{"id":"6625d05f-3a13-4fda-b72e-8d01dccd1600","type":"Feature","feature_type":"anchor","geometry":{"type":"Point","coordinates":[30.3818707329315,60.007159430612873]},"properties":{"unit_id":"aec275ca-ee04-4abf-abde-0d1e077ae20b","address_id":"ae81378d-830b-4f22-bd12-fd143c6163f1"}},{"id":"c9755e0b-baeb-4575-8b8d-f3dd13adfa44","type":"Feature","feature_type":"anchor","geometry":{"type":"Point","coordinates":[30.381998565955513,60.007137861495728]},"properties":{"unit_id":"4dbda7e4-7d7a-4115-ac23-e86fa3b37b32","address_id":"96bc4fca-c9d0-4415-ba5a-d4e6c8856ec9"}},{"id":"906911d2-4740-4cfd-bbcc-394da2f6decf","type":"Feature","feature_type":"anchor","geometry":{"type":"Point","coordinates":[30.382177532598,60.007107664182818]},"properties":{"unit_id":"e9ec6c18-6b61-4fb2-a233-0dd9be5ed395","address_id":"dd1ddb1f-ec5d-42dd-bd8f-27549f094828"}},{"id":"62629941-7f78-425d-ba47-7bb870343e74","type":"Feature","feature_type":"anchor","geometry":{"type":"Point","coordinates":[30.380700121182123,60.00732728604391]},"properties":{"unit_id":"2850c2e0-e4d1-4d87-86a9-df9e63e58835","address_id":"4ebe1ecb-09bd-4fbf-9d26-e19e251908ab"}},{"id":"44a9d145-3224-47a6-a895-54e8ba7a7880","type":"Feature","feature_type":"anchor","geometry":{"type":"Point","coordinates":[30.380874486202554,60.0073465107992]},"properties":{"unit_id":"e2411aba-e767-4e3b-87f4-83dcc90184aa","address_id":"14c92f37-6d2e-4372-bdd3-042f23dbb307"}},{"id":"4c20521c-27a0-49a2-9136-0b62e3188968","type":"Feature","feature_type":"anchor","geometry":{"type":"Point","coordinates":[30.380936769096571,60.0074949888801]},"properties":{"unit_id":"4f071b91-142f-4185-9577-08ae8c05a962","address_id":"0526c1cb-f663-4d2a-b494-fabac38a0a98"}},{"id":"fe23faf2-d20f-4df9-aff8-ba3ae59e99d0","type":"Feature","feature_type":"anchor","geometry":{"type":"Point","coordinates":[30.380814283766227,60.00747175631443]},"properties":{"unit_id":"0670c630-e4b4-4181-ae55-4e5e3f3fd5cf","address_id":"797cefb5-621e-44af-b2f2-667b6208a860"}},{"id":"57e6c8ca-7d7a-4020-a609-926bcf60663c","type":"Feature","feature_type":"anchor","geometry":{"type":"Point","coordinates":[30.380842159968079,60.007397050981453]},"properties":{"unit_id":"5a6255d0-3d14-4e7c-8183-5fc04af234e6","address_id":"5a51048e-77e9-4407-8150-caf2e16294cc"}},{"id":"dd071f51-40da-4983-9078-c8b835385c10","type":"Feature","feature_type":"anchor","geometry":{"type":"Point","coordinates":[30.382581400031548,60.00700985802073]},"properties":{"unit_id":"cb655548-de2a-4733-9f70-2f522eaac413","address_id":"d504e52a-eb82-4ab5-9bc3-5d627d2d2652"}},{"id":"4e9e1bb3-a4f0-41be-a3ba-8699aa0a3381","type":"Feature","feature_type":"anchor","geometry":{"type":"Point","coordinates":[30.382738176369063,60.007147138494048]},"properties":{"unit_id":"db305649-beb4-41d8-b5dc-8982d3e2c143","address_id":"ef38e19e-0c63-4906-9b78-8b765122fde8"}},{"id":"82807b28-cc76-4c43-8a65-92c511e6f210","type":"Feature","feature_type":"anchor","geometry":{"type":"Point","coordinates":[30.382607996680562,60.007140628237934]},"properties":{"unit_id":"bd9f5554-f4bb-4a25-855b-b08f6acc8a0f","address_id":"1982186b-d19f-4d3b-a5f6-2d1f5b303583"}},{"id":"34ded407-90b6-4e79-95fd-7d0306e1a0cc","type":"Feature","feature_type":"anchor","geometry":{"type":"Point","coordinates":[30.382666782214773,60.007203084266465]},"properties":{"unit_id":"ac850628-cdfb-46b6-9cb3-023e80b726b9","address_id":"895e05ff-1255-406a-b75b-48ec263eae12"}},{"id":"35709400-2491-4218-adf1-347535ddb3d9","type":"Feature","feature_type":"anchor","geometry":{"type":"Point","coordinates":[30.381132186811804,60.007383709361356]},"properties":{"unit_id":"a1b692bd-858e-4e66-bfab-daa3fede1874","address_id":"f4fafb08-163a-45b4-936b-0b8842b4727a"}},{"id":"b20101c2-e314-4a79-9103-742efc0fafcb","type":"Feature","feature_type":"anchor","geometry":{"type":"Point","coordinates":[30.382376431630849,60.007173768216248]},"properties":{"unit_id":"face2241-6556-4e2d-bcf9-d608b567fc22","address_id":"8181744a-81c4-4e08-9fe8-91ce29d84477"}},{"id":"8ceb093a-fb5f-4a49-8e93-2d0693f2c7b9","type":"Feature","feature_type":"anchor","geometry":{"type":"Point","coordinates":[30.381025577444593,60.007391019093717]},"properties":{"unit_id":"c1038e2d-f8c0-4215-b84d-ae2b5f0a1fcc","address_id":"32155ddb-43de-422e-97d3-fa1ae54daec6"}},{"id":"87a3d1a6-5074-4e37-909c-28af75b58e97","type":"Feature","feature_type":"anchor","geometry":{"type":"Point","coordinates":[30.380975953327567,60.007317525737086]},"properties":{"unit_id":"0d4e8b6d-13d0-41fa-b02f-1a17c69b5b23","address_id":"da25e020-0652-4ebc-8f99-198af3eb2187"}},{"id":"b0bf0ea2-ebb1-44b9-a440-97303bb02e8f","type":"Feature","feature_type":"anchor","geometry":{"type":"Point","coordinates":[30.380763220725843,60.00739613266785]},"properties":{"unit_id":"cdeeeb68-12b8-4288-bd8e-39bb50e9ceef","address_id":"6125fada-d31c-4cbd-859f-fc75dffb9456"}},{"id":"4b920115-bbd3-4021-99a0-55c8d652f559","type":"Feature","feature_type":"anchor","geometry":{"type":"Point","coordinates":[30.380736610888309,60.007356723127096]},"properties":{"unit_id":"d6d73370-82af-4312-a8f5-d0d71e82c7cd","address_id":"9ba98428-e8ae-40cc-8f96-50a21876c4b7"}},{"id":"846ce55f-8de7-48c3-a577-9a7563a1c037","type":"Feature","feature_type":"anchor","geometry":{"type":"Point","coordinates":[30.380820971679551,60.007509781249048]},"properties":{"unit_id":"79dad106-f0a0-4db4-8c93-997d723d12e9","address_id":"e419b844-6753-44bd-9d63-11d5a453b357"}},{"id":"707411e0-9efd-4cba-9de2-86d013a01b39","type":"Feature","feature_type":"anchor","geometry":{"type":"Point","coordinates":[30.382703653678021,60.007096012633006]},"properties":{"unit_id":"41df05f6-798d-45a1-88b0-6924df291abc","address_id":"a723785f-44e9-4bfe-86a3-49f2b05c92b5"}},{"id":"1c921c56-b9c8-4917-9a76-0473cafc3ed8","type":"Feature","feature_type":"anchor","geometry":{"type":"Point","coordinates":[30.382667720301626,60.007046311447972]},"properties":{"unit_id":"3a9a9b30-3cc2-4d3f-8ec7-2567ef0f3a9b","address_id":"7f1d6dae-3847-4ba2-b021-31f6335eeed7"}},{"id":"bb01afdf-c71b-4711-a14b-92c14a86be88","type":"Feature","feature_type":"anchor","geometry":{"type":"Point","coordinates":[30.382776824795787,60.007179771286609]},"properties":{"unit_id":"90378b72-90f0-4977-a646-c5cc985466d7","address_id":"848d3bd3-4c68-46f5-8231-f56e1e5b4ba1"}},{"id":"52646d66-3f5a-428f-885b-01cafc8dccc0","type":"Feature","feature_type":"anchor","geometry":{"type":"Point","coordinates":[30.380770429606752,60.007315422892255]},"properties":{"unit_id":"8da6909f-24d6-4129-a4b6-092bedf2eb37","address_id":"c025a832-eef9-4015-9bba-a97e1f8a4185"}},{"id":"9ac57b0a-c9af-4d54-bf09-8626c88f0e90","type":"Feature","feature_type":"anchor","geometry":{"type":"Point","coordinates":[30.380840738006164,60.0073035597406]},"properties":{"unit_id":"2619a0c8-f6b4-4618-adde-0b5d0df519a2","address_id":"0b24a7bf-c63a-425e-a09f-3ef1d299c0a0"}},{"id":"adffaee0-adda-4c09-b64a-c507f7bf8b4c","type":"Feature","feature_type":"anchor","geometry":{"type":"Point","coordinates":[30.380925072847528,60.0074530628966]},"properties":{"unit_id":"28a17921-4220-4b0b-8be6-65639d469404","address_id":"848ad285-825c-47c1-898f-a07abf623e7f"}},{"id":"8fea8944-b1e0-4d4a-8eee-9ffd930ac6ac","type":"Feature","feature_type":"anchor","geometry":{"type":"Point","coordinates":[30.380789111319988,60.007434477063626]},"properties":{"unit_id":"679efba5-1042-486c-b24c-f565b9b46aa1","address_id":"37a13a77-2956-42c0-8af1-66e154dd70cd"}},{"id":"5032b314-6442-4aa8-8efa-f412771c9f7d","type":"Feature","feature_type":"anchor","geometry":{"type":"Point","coordinates":[30.381077174988963,60.007288809088216]},"properties":{"unit_id":"de6b90d5-dd0c-4831-942c-2cb49676f5f8","address_id":"20062a64-083f-4acd-b931-054b71c26f10"}},{"id":"af770607-baf2-4267-bafd-1943e70bc6e6","type":"Feature","feature_type":"anchor","geometry":{"type":"Point","coordinates":[30.382321418746436,60.007078867668653]},"properties":{"unit_id":"ec92cac2-736a-476e-a9b3-580da7a4f46e","address_id":"0c74c43d-84bf-48fd-8ab9-a4339e1fa5e1"}},{"id":"e5ec8642-267e-43e7-985a-12c546a8025d","type":"Feature","feature_type":"anchor","geometry":{"type":"Point","coordinates":[30.381745679841032,60.00726595718632]},"properties":{"unit_id":"2fa0d1d9-3433-42b6-b00a-f77796ef8636","address_id":"3997353d-e138-4da1-80d7-4ffe0103c6fb"}},{"id":"a1e9406c-282e-49c6-92b7-927401702fc3","type":"Feature","feature_type":"anchor","geometry":{"type":"Point","coordinates":[30.381760090688644,60.007290814502888]},"properties":{"unit_id":"95412558-610d-4244-ae5f-19ff69cc3dc3","address_id":"4868f540-b975-4cbe-a9fb-0d758b965496"}},{"id":"1d86d99a-4fbd-4a0d-9cf8-f37a674ed192","type":"Feature","feature_type":"anchor","geometry":{"type":"Point","coordinates":[30.381690258044337,60.007271749203731]},"properties":{"unit_id":"b56cd607-9b64-4abc-87ae-0eecd163ee35","address_id":"87a0ca2a-ef48-4b31-a3bb-50da4e61f131"}},{"id":"4b56648f-40f9-4e00-b7a3-38caaffc177f","type":"Feature","feature_type":"anchor","geometry":{"type":"Point","coordinates":[30.38253703778323,60.007067174951175]},"properties":{"unit_id":"4f247761-2844-474e-a58d-ed1b083951a4","address_id":"57b658f3-99de-4f49-9037-f452e51b8905"}},{"id":"2d5c1f81-70d2-435e-95f9-43d67466fe44","type":"Feature","feature_type":"anchor","geometry":{"type":"Point","coordinates":[30.382556905085551,60.007061449899844]},"properties":{"unit_id":"483bc921-2180-4ca8-9c04-5a0e21a67506","address_id":"2d43d47b-7952-47f6-aa6b-e358c617dd8d"}},{"id":"cfa9f9fc-0793-4a64-a161-3b96f2cf5867","type":"Feature","feature_type":"anchor","geometry":{"type":"Point","coordinates":[30.38244564135049,60.007111071768492]},"properties":{"unit_id":"ee57697e-c3b9-483c-b1bf-7c622b471eec","address_id":"a5e5e37b-9f5d-4786-a224-586146ff155a"}},{"id":"7f5663c6-686e-47f7-945b-f174586b2339","type":"Feature","feature_type":"anchor","geometry":{"type":"Point","coordinates":[30.380840389955321,60.0075385396145]},"properties":{"unit_id":"adbe52c8-b348-40a7-a2c8-b8627ca5fb7c","address_id":"84579987-c3a4-48b9-87f3-7754efd85379"}},{"id":"862d0081-836a-477f-ad1a-291b27a80f90","type":"Feature","feature_type":"anchor","geometry":{"type":"Point","coordinates":[30.380926386047495,60.007532335096982]},"properties":{"unit_id":"15256f2b-8fb1-475e-b5ea-4c4ac50b682c","address_id":"3ba74e4f-0095-4187-9392-1b9498abf008"}},{"id":"2e580140-dca8-47b8-8d93-0afb4b29c277","type":"Feature","feature_type":"anchor","geometry":{"type":"Point","coordinates":[30.382656400737289,60.00724043048335]},"properties":{"unit_id":"66a571a4-0717-4b23-b1a0-f4b8e060ee25","address_id":"ce8f628d-c075-4102-a9e9-875d83f7afaf"}},{"id":"1aafe1ff-9118-4f94-b17b-1aa6fdbd842e","type":"Feature","feature_type":"anchor","geometry":{"type":"Point","coordinates":[30.382796243825,60.0072085293776]},"properties":{"unit_id":"a6edf585-325c-4c51-9c09-97480eb8273e","address_id":"094d8bc7-cf32-4dd5-91e3-367ba3f2c7d5"}},{"id":"2012e709-5c2c-4b22-9831-3d45cc11ca62","type":"Feature","feature_type":"anchor","geometry":{"type":"Point","coordinates":[30.381809872217048,60.007211395745578]},"properties":{"unit_id":"9b9e9fc9-28f4-43b1-84bb-d02d4e87e6b3","address_id":"f0369e0b-bd78-4409-9d3a-02416b50305f"}},{"id":"838d0e51-38ce-4101-97d6-acda34a61536","type":"Feature","feature_type":"anchor","geometry":{"type":"Point","coordinates":[30.381514930621517,60.007219465158769]},"properties":{"unit_id":"d4f4fb5e-6c42-4ee8-b784-8735ad58cac0","address_id":"94e8f370-842b-4e33-a1e1-7a547cc260c5"}},{"id":"897c981b-4f7f-4e08-9745-72c4097d80dc","type":"Feature","feature_type":"anchor","geometry":{"type":"Point","coordinates":[30.381340235923371,60.007343859326483]},"properties":{"unit_id":"fe57c2bf-fefa-4fab-a911-43d584a4f076","address_id":"b4e3c44b-d152-4428-8486-fb2e58ee7c45"}},{"id":"211e3b67-9108-4707-9f56-32ecc4d2df86","type":"Feature","feature_type":"anchor","geometry":{"type":"Point","coordinates":[30.381468068927806,60.007322290209331]},"properties":{"unit_id":"c879a7f9-b123-4b21-b4fd-d4739cf700be","address_id":"091b5490-0bfb-4fe0-aa10-1c0c0a1a0c83"}},{"id":"4fc9ba9f-922d-4a97-8c24-18be47457e24","type":"Feature","feature_type":"anchor","geometry":{"type":"Point","coordinates":[30.381384966680038,60.007241394355852]},"properties":{"unit_id":"6f033dd8-baa7-406c-b884-6ada08c3a5db","address_id":"0d8ac70e-b1cd-4e49-a854-ce8c55c8d4ee"}},{"id":"8112a673-5ced-4f23-ae74-73b865aeff60","type":"Feature","feature_type":"anchor","geometry":{"type":"Point","coordinates":[30.381212401737606,60.007365428718082]},"properties":{"unit_id":"67fd6ffb-8425-41c5-9f48-b1681b6324eb","address_id":"d7558fdd-4a74-492c-b147-783b820f3ba7"}},{"id":"584ee4cb-50f3-48ce-86db-0299f7a9feb2","type":"Feature","feature_type":"anchor","geometry":{"type":"Point","coordinates":[30.381233696615791,60.0072669177654]},"properties":{"unit_id":"daae767e-a7d6-4856-aaad-2d0884f25443","address_id":"3a612d22-ba6d-445b-8b21-d0268131e8c4"}},{"id":"09dc6fac-418b-4bab-935f-41b04d380a3c","type":"Feature","feature_type":"anchor","geometry":{"type":"Point","coordinates":[30.381600164152552,60.007300001755681]},"properties":{"unit_id":"c1c6ae46-b345-4360-bac9-991dd7d920be","address_id":"d01bcc8b-82fe-4db4-af46-c8b27f78a0c9"}},{"id":"52d7de0e-f6fc-4831-8639-dd6639c7aa45","type":"Feature","feature_type":"anchor","geometry":{"type":"Point","coordinates":[30.381902702934763,60.00724895438767]},"properties":{"unit_id":"9fa0f39c-204e-4864-91ca-7e0fb2e89776","address_id":"0f765e89-5fed-4d20-8cd1-d434da8e0119"}},{"id":"e29da72e-318d-4d51-92ad-8675e9f4c008","type":"Feature","feature_type":"anchor","geometry":{"type":"Point","coordinates":[30.38208166937266,60.007218757623662]},"properties":{"unit_id":"fe6cd6f7-5f6b-44d1-8b3d-177287d27b5e","address_id":"b370e4f7-e46d-415b-8f2b-abf8eb7cb1c2"}},{"id":"e2bfe8e5-134f-4d6a-9ad6-7d9a76e70852","type":"Feature","feature_type":"anchor","geometry":{"type":"Point","coordinates":[30.382260635647093,60.007188560310752]},"properties":{"unit_id":"f981d20a-97b7-4dc0-a5be-1f15b4821302","address_id":"af35f76c-93f6-447b-a979-379a67004edc"}},{"id":"bd350436-e632-4ecb-8d48-c502934cc76a","type":"Feature","feature_type":"anchor","geometry":{"type":"Point","coordinates":[30.3818707329315,60.007159430612873]},"properties":{"unit_id":"9646f48f-e7dd-4e8d-adb2-521a914b8e67","address_id":"f2d84926-0818-4909-b08d-b9cc4a5bac02"}},{"id":"51dba63c-828c-416e-a631-3bd6f21eaf04","type":"Feature","feature_type":"anchor","geometry":{"type":"Point","coordinates":[30.381998565955513,60.007137861495728]},"properties":{"unit_id":"b8749649-74c1-440f-9952-0a5c3b166e75","address_id":"ca4c7b50-a7d5-478b-82f3-2481eb17db08"}},{"id":"80c37942-17b4-4b2c-b3f3-7d0d6c053401","type":"Feature","feature_type":"anchor","geometry":{"type":"Point","coordinates":[30.382147704286609,60.0071126970683]},"properties":{"unit_id":"72cfd9bd-d826-485e-a8e7-2f04ee0beaeb","address_id":"ced24d89-b4f3-4974-ae42-3862a802262a"}},{"id":"4cf48895-da74-46fe-872b-f382fb9abc0e","type":"Feature","feature_type":"anchor","geometry":{"type":"Point","coordinates":[30.380770429606752,60.007315422892255]},"properties":{"unit_id":"b13ca70c-e30f-4436-b5f4-0d9f5d07175a","address_id":"98ccd95e-8f14-4dcf-ba3b-a56049ec0c78"}},{"id":"dd3456d3-30bd-4fdf-abd0-f87d2fcbcaaf","type":"Feature","feature_type":"anchor","geometry":{"type":"Point","coordinates":[30.380936769096571,60.0074949888801]},"properties":{"unit_id":"8390950f-986f-4433-a60b-7c387c88e31e","address_id":"4855f9cc-990b-4e52-be73-d6526d56ff7d"}},{"id":"e0163fad-bf04-4ff2-ba24-4a3f2c5d2144","type":"Feature","feature_type":"anchor","geometry":{"type":"Point","coordinates":[30.380791170846429,60.007518369100495]},"properties":{"unit_id":"98780d88-93b9-4742-a811-82793db28a51","address_id":"d060f44a-2ee2-4614-8560-ef1c92d0a630"}},{"id":"437bf9cc-a133-4e9a-91cd-89fd23dfa11d","type":"Feature","feature_type":"anchor","geometry":{"type":"Point","coordinates":[30.382636793669004,60.007000511311816]},"properties":{"unit_id":"5b30d1fc-aaa0-4edb-a500-769124fc8c13","address_id":"0e472770-c041-489a-9f49-e0db52dc081f"}},{"id":"369c2b56-020f-4738-b155-67fd3c5ffc03","type":"Feature","feature_type":"anchor","geometry":{"type":"Point","coordinates":[30.382645410626736,60.007104653727971]},"properties":{"unit_id":"37b2595b-8b0f-4c97-ae00-87591cdfa758","address_id":"1ec27f84-2d00-4791-9e16-7a5d36ad31c7"}},{"id":"bd96fb7f-03f0-4599-95d0-5885e4293372","type":"Feature","feature_type":"anchor","geometry":{"type":"Point","coordinates":[30.382676132055227,60.0072169308767]},"properties":{"unit_id":"5ccc31c4-80a4-47f5-9636-c189e19f6c60","address_id":"c5453efc-d0d3-4350-b962-a205bddb12b9"}},{"id":"b1aff09a-632e-4eb8-be77-d70b9a27a55f","type":"Feature","feature_type":"anchor","geometry":{"type":"Point","coordinates":[30.382776824795787,60.007179771286609]},"properties":{"unit_id":"25a37d59-2223-4d8a-9c05-040ec1a9b894","address_id":"7a064bea-e30d-43c0-acc4-fbe39967152c"}},{"id":"1a69eb76-4e57-4c85-a9df-eafad044c53f","type":"Feature","feature_type":"anchor","geometry":{"type":"Point","coordinates":[30.381132186811804,60.007383709361356]},"properties":{"unit_id":"b909faf8-ae72-442d-bf44-e705342c5f84","address_id":"00029f6c-9568-4e4a-8566-fe213f58e758"}},{"id":"1fe5eecc-d353-4cc2-9770-9182196e2879","type":"Feature","feature_type":"anchor","geometry":{"type":"Point","coordinates":[30.382376431630849,60.007173768216248]},"properties":{"unit_id":"a4057ca3-e254-4d51-b13a-8c3fb5aa35de","address_id":"4ea373c4-48a3-43cb-b1b0-c2546f4732ba"}},{"id":"26e69789-8887-430b-90fe-9261c3037170","type":"Feature","feature_type":"anchor","geometry":{"type":"Point","coordinates":[30.380834437902269,60.0074102185995]},"properties":{"unit_id":"076bfab2-60cb-42f1-a974-c4e4248f7cd8","address_id":"add2e593-d607-425c-95af-34bbd8e8431e"}},{"id":"705ba0bd-8065-4716-b35a-162eb4765aca","type":"Feature","feature_type":"anchor","geometry":{"type":"Point","coordinates":[30.381615066633426,60.007202569396078]},"properties":{"unit_id":"8a18f4a0-6858-49c9-9c32-983ecab056ef","address_id":"8eda0fdd-9cdd-420c-b1b4-aba1741ccb2d"}},{"id":"8684e327-a11f-4fa6-ae65-b662659b1ba6","type":"Feature","feature_type":"anchor","geometry":{"type":"Point","coordinates":[30.381740769225935,60.007181359809955]},"properties":{"unit_id":"73c7a74c-00da-43b9-90db-ef2ef460f446","address_id":"33146ef6-cd2a-4b59-8eb0-87f0d7ed9cd2"}},{"id":"c9c3b26d-7a50-4105-829c-4dfc23890ae4","type":"Feature","feature_type":"anchor","geometry":{"type":"Point","coordinates":[30.382252101709675,60.007095082243552]},"properties":{"unit_id":"08dcec8e-5b8f-42b3-bfcf-711f98a8bd1f","address_id":"bf3606b7-c109-41ca-af63-f09a89e6c4f2"}},{"id":"b5bae370-c1f1-42e8-9234-6957bd79bd4e","type":"Feature","feature_type":"anchor","geometry":{"type":"Point","coordinates":[30.382470094210234,60.007147285874325]},"properties":{"unit_id":"bf7fd3db-4653-4f9c-9d41-2d9e6e9c85b1","address_id":"52036fa2-5600-4399-8c50-60de2b432c69"}},{"id":"83477817-a177-42e2-a988-61cd83e44df1","type":"Feature","feature_type":"anchor","geometry":{"type":"Point","coordinates":[30.381131429804189,60.007284173059119]},"properties":{"unit_id":"7d3c4d32-38bd-4777-9e65-83be1a8f470a","address_id":"e89be8a2-5c8e-4102-a8f2-3ce9a2a8c6ed"}},{"id":"79220632-4c11-4deb-a8c3-b309413ea3e2","type":"Feature","feature_type":"anchor","geometry":{"type":"Point","coordinates":[30.381025577444593,60.007391019093717]},"properties":{"unit_id":"d9ee37e6-b0ef-49dc-b747-d7d282fc9fde","address_id":"a10cf1ad-b4c9-4e5b-8670-5f6b8d4b58c7"}},{"id":"f8bd5093-87bc-42f8-94f0-0d1d14fa9cd0","type":"Feature","feature_type":"anchor","geometry":{"type":"Point","coordinates":[30.380975953327567,60.007317525737086]},"properties":{"unit_id":"454df2bf-d07f-4122-9056-1b58a0aef965","address_id":"a1676d21-5bd5-4c5f-9191-bbe9c31f9eb3"}},{"id":"ee27542c-077f-4493-b2e2-2863e4163044","type":"Feature","feature_type":"anchor","geometry":{"type":"Point","coordinates":[30.382526005829412,60.00701920445519]},"properties":{"unit_id":"79800f13-a0c8-4eee-afe6-dea113eee940","address_id":"d405f273-5182-4e75-8c7c-86027ee9a015"}},{"id":"84e501ee-a844-441b-bd00-0fe04d47197d","type":"Feature","feature_type":"anchor","geometry":{"type":"Point","coordinates":[30.38079488272286,60.007351636998081]},"properties":{"unit_id":"4c9b0d70-7017-40a3-83ff-cc6204a76588","address_id":"c4667766-9c0c-46ad-b4ff-df55480095eb"}},{"id":"348f1ca3-43e4-4a5a-a7f7-92d6823ebf04","type":"Feature","feature_type":"anchor","geometry":{"type":"Point","coordinates":[30.381077557630508,60.007288744317741]},"properties":{"unit_id":"a63d0031-641d-4d8b-b4f3-b0e8b589f6fb","address_id":"19426dd0-506a-4cfc-a69c-4a61a4a078d3"}},{"id":"188a03da-e890-4b21-a392-18e35c59d424","type":"Feature","feature_type":"anchor","geometry":{"type":"Point","coordinates":[30.382321418746436,60.007078867668653]},"properties":{"unit_id":"e2944379-931b-43ad-bcb4-734cd194f1e1","address_id":"425ada85-e81d-45c2-be8e-2d74eff75058"}},{"id":"d7dddca2-9dce-475e-9463-39d39069b97f","type":"Feature","feature_type":"anchor","geometry":{"type":"Point","coordinates":[30.381745679841032,60.00726595718632]},"properties":{"unit_id":"82541d22-4d72-4444-93c0-5a4eb0e03b73","address_id":"50aa25e7-ef39-4dcf-ad38-86502bbc9f6d"}},{"id":"9bc31cd5-aaaa-48cd-abf5-b51d1e1f43fa","type":"Feature","feature_type":"anchor","geometry":{"type":"Point","coordinates":[30.381760090688644,60.007290814502888]},"properties":{"unit_id":"da10ea5e-f358-4157-a2d8-5f04583064b2","address_id":"b667049c-46f7-4d7d-8581-7405486df65b"}},{"id":"14634508-b0de-4420-b4f2-d54d390367d2","type":"Feature","feature_type":"anchor","geometry":{"type":"Point","coordinates":[30.381690258044337,60.007271749203731]},"properties":{"unit_id":"42c12569-d95c-483e-aac9-9d12efa6565d","address_id":"b1a01c71-6135-4c18-9ada-ad5c56300d9e"}},{"id":"adeabc97-d7cc-43f3-a0d7-5075924d3fe1","type":"Feature","feature_type":"anchor","geometry":{"type":"Point","coordinates":[30.380840389955321,60.0075385396145]},"properties":{"unit_id":"27798107-b1ef-4d8f-9548-bbefa98817d0","address_id":"9cc65707-8939-4105-82ba-65b39690b06d"}},{"id":"7e13d771-6a3f-4d0b-9b1a-6beaf752e657","type":"Feature","feature_type":"anchor","geometry":{"type":"Point","coordinates":[30.382796243825,60.0072085293776]},"properties":{"unit_id":"49806385-c44d-4b9b-9871-1c355acddfdf","address_id":"22a5ed13-6cef-4e19-bbb8-470ccfed70d7"}},{"id":"daa81d8a-f93e-46ba-92e7-21bd95d91245","type":"Feature","feature_type":"anchor","geometry":{"type":"Point","coordinates":[30.381809872217048,60.007211395745578]},"properties":{"unit_id":"adfa8e82-77a9-4370-8f46-7a2b77f618c6","address_id":"412ddf8d-9d7a-40a1-850d-5b2e6c0e25a4"}},{"id":"4c781444-532b-46ee-a44f-c8e0f990192c","type":"Feature","feature_type":"anchor","geometry":{"type":"Point","coordinates":[30.381538366678956,60.007215510866367]},"properties":{"unit_id":"86c70435-d5b7-4f2c-bfa7-00a179e0f1b4","address_id":"823580e2-0ed8-4cb4-96e8-3888a928eabd"}},{"id":"62bd30ab-c7c1-4844-8150-57151ea44269","type":"Feature","feature_type":"anchor","geometry":{"type":"Point","coordinates":[30.381397760621,60.007334153360993]},"properties":{"unit_id":"3fe0682d-9255-4360-860d-336e38731e50","address_id":"1be0cc79-de94-4c0a-8b90-c8822fb42437"}},{"id":"9ee8d83a-7412-4307-91b1-80593a036cf9","type":"Feature","feature_type":"anchor","geometry":{"type":"Point","coordinates":[30.381214532344647,60.007365069187053]},"properties":{"unit_id":"b237b64e-cad5-48b6-ac78-845dc2db465e","address_id":"66aca6f7-d4b3-4c69-a0e2-21080561d40c"}},{"id":"e7db0a2e-4815-45d0-b57b-2435afa47d82","type":"Feature","feature_type":"anchor","geometry":{"type":"Point","coordinates":[30.381178302556965,60.007276264474314]},"properties":{"unit_id":"6db018ad-8307-4b99-9e29-ccb67f96ac24","address_id":"630b2c8e-c43c-4814-9474-1598aeb50438"}},{"id":"b23ccfe5-d539-48b4-9a96-517ec2311f85","type":"Feature","feature_type":"anchor","geometry":{"type":"Point","coordinates":[30.381602294206388,60.007299642224652]},"properties":{"unit_id":"5713e40c-f77a-4ecb-9dba-b62b705eac3b","address_id":"3cdcea03-6aeb-43af-ae01-9f17d76965c7"}},{"id":"bad6a041-27b3-487c-b2e2-65e0c90070c3","type":"Feature","feature_type":"anchor","geometry":{"type":"Point","coordinates":[30.381902702934763,60.00724895438767]},"properties":{"unit_id":"f97eb016-c566-478a-9fcf-a855f7981d21","address_id":"47107d58-a688-4795-83e6-a295c54cfce5"}},{"id":"a9fa4391-f60c-4e4d-8ec1-a882ba4694dd","type":"Feature","feature_type":"anchor","geometry":{"type":"Point","coordinates":[30.382109366041629,60.007214084269208]},"properties":{"unit_id":"edb3e281-0ce4-47c3-8419-84f941531040","address_id":"3ca32d82-b43e-4f7b-a38f-1bee708ca65b"}},{"id":"2de1048e-fe63-4d63-afb4-06a3b885aa79","type":"Feature","feature_type":"anchor","geometry":{"type":"Point","coordinates":[30.38229046288615,60.007183527699716]},"properties":{"unit_id":"5dde10e0-656b-474c-8a38-ed18dfa46bbe","address_id":"4d5eb1e9-f522-4be5-b80f-d99bb812b7f8"}},{"id":"fa199cd3-2566-4ac2-afd1-df4be1f0de86","type":"Feature","feature_type":"anchor","geometry":{"type":"Point","coordinates":[30.3818707329315,60.007159430612873]},"properties":{"unit_id":"266bea8a-a268-4bfd-a3a5-2e0443adb087","address_id":"5a08ba2b-ab09-4bde-a27b-3e631911544b"}},{"id":"e07c060d-0db8-418f-8ac6-43dba13acd60","type":"Feature","feature_type":"anchor","geometry":{"type":"Point","coordinates":[30.381998565955513,60.007137861495728]},"properties":{"unit_id":"7a752526-2294-48bb-8f54-94dc54ae4005","address_id":"55f3895e-3af9-44e7-b0e3-dd77d05637b4"}},{"id":"50332c73-6c62-4a73-8456-0b941d64e346","type":"Feature","feature_type":"anchor","geometry":{"type":"Point","coordinates":[30.382126399445145,60.007116292378576]},"properties":{"unit_id":"33b254a8-6d20-42b4-9fc8-4b56b3e90088","address_id":"e9f14eb5-bc9b-4346-a0d8-41f7559d45ed"}},{"id":"764a9e3f-d8d8-4aad-bf1c-85f6457397d5","type":"Feature","feature_type":"anchor","geometry":{"type":"Point","coordinates":[30.380948383693624,60.00752625051463]},"properties":{"unit_id":"f9dc6973-4bf0-4305-9440-0bc7ca356327","address_id":"660ab300-6b36-4941-980d-0a671a63ba0b"}},{"id":"caccab04-d63b-476d-a5f0-6bdceddfd5e3","type":"Feature","feature_type":"anchor","geometry":{"type":"Point","coordinates":[30.380820971679551,60.007509781249048]},"properties":{"unit_id":"f940235b-2973-4a60-8434-afc148e7d264","address_id":"aca94f56-80f4-446b-b336-91187382a17f"}},{"id":"99018d51-cf82-41ed-83f6-32742e795c34","type":"Feature","feature_type":"anchor","geometry":{"type":"Point","coordinates":[30.382686201203018,60.00723184263191]},"properties":{"unit_id":"000b7ff2-cd32-4862-9f0a-d4ecc820ffc1","address_id":"c49c0bc6-48af-49dd-ade9-d0e8eda368fd"}},{"id":"4368eef0-5620-4a27-ae2d-badb256dad26","type":"Feature","feature_type":"anchor","geometry":{"type":"Point","coordinates":[30.382776824795787,60.007179771286609]},"properties":{"unit_id":"fbd6ff53-b3e7-4cca-8eb2-de6fe408480b","address_id":"ba8d1858-5c77-41f6-aa45-581204a414a0"}},{"id":"d38c3617-e875-4340-bc3a-135fea69bf9e","type":"Feature","feature_type":"anchor","geometry":{"type":"Point","coordinates":[30.382666782214773,60.007203084266465]},"properties":{"unit_id":"f7e0d0db-77c3-4137-8cc6-3d929c94d039","address_id":"f90b48e4-1a24-4bf0-87fd-5599b981f801"}},{"id":"4c2b623c-146c-4fb3-9f66-26827efa35e8","type":"Feature","feature_type":"anchor","geometry":{"type":"Point","coordinates":[30.381132186811804,60.007383709361356]},"properties":{"unit_id":"48173a53-7cd3-4c08-904e-7113e96b90a7","address_id":"8b3e3b8d-7338-46ae-857f-df5616fca174"}},{"id":"5c522ae6-464c-4130-b600-a418a9ca2d84","type":"Feature","feature_type":"anchor","geometry":{"type":"Point","coordinates":[30.382376431630849,60.007173768216248]},"properties":{"unit_id":"4a25ebff-fc1a-43be-917c-bd8a4e2f0ead","address_id":"e4b00f3a-fc7a-49d7-9765-0fbcb90a0b25"}},{"id":"fe947808-e3a6-408e-bbfa-daa4c6e1463b","type":"Feature","feature_type":"anchor","geometry":{"type":"Point","coordinates":[30.381638502678893,60.007198615103675]},"properties":{"unit_id":"2b182c6a-a7ea-41f9-8cde-4a729eb2c4fd","address_id":"83bae14f-b090-4d58-86e8-0fc6cc545cf8"}},{"id":"0b76bcdd-3e47-4bc7-aaf1-3e7dd72ac791","type":"Feature","feature_type":"anchor","geometry":{"type":"Point","coordinates":[30.381715202594179,60.007185673633387]},"properties":{"unit_id":"b011351c-4819-454c-92b3-e97212665d5a","address_id":"05b27760-8f0a-48ca-ada5-d01bd4faae80"}},{"id":"add56b54-1602-4a12-9eef-74a8e301a22b","type":"Feature","feature_type":"anchor","geometry":{"type":"Point","coordinates":[30.381791902479392,60.00717273161419]},"properties":{"unit_id":"35f17d72-0022-4a63-9984-d1cf3bbd9e4c","address_id":"1ee8133d-22b2-44c9-976c-b9cebc96c99c"}},{"id":"78ae7aad-ad42-4d97-bec6-eba34aeee6a1","type":"Feature","feature_type":"anchor","geometry":{"type":"Point","coordinates":[30.382232926374492,60.007098318022805]},"properties":{"unit_id":"f88b3e9f-2c9c-4636-ad51-f95715e146e9","address_id":"1dadffe1-45b0-4cb4-a6ee-10a5ebd02245"}},{"id":"7734ae28-ad05-4d9b-85a3-ab02d4e0c128","type":"Feature","feature_type":"anchor","geometry":{"type":"Point","coordinates":[30.38135940000187,60.007245708179276]},"properties":{"unit_id":"ebd3799e-b635-4a0b-8932-3e9dcd72ffed","address_id":"14e5d982-eeef-4b8d-907f-4a1310a803bc"}},{"id":"49d7b65e-d2c6-4131-b5df-31c7e08009ff","type":"Feature","feature_type":"anchor","geometry":{"type":"Point","coordinates":[30.381077557630508,60.007288744317741]},"properties":{"unit_id":"ce4ba3ca-b380-4e2b-ad24-7ea3ff299604","address_id":"52a472b0-ada7-44f5-80a7-10aea6bc1bcb"}},{"id":"9ad2903a-31e6-49dc-a844-aa747d23e474","type":"Feature","feature_type":"anchor","geometry":{"type":"Point","coordinates":[30.382321418746436,60.007078867668653]},"properties":{"unit_id":"f8dd332c-08c3-475e-bcda-e3a1a0ff404e","address_id":"063e3997-fdc7-4142-931f-1898195412e9"}},{"id":"361ffe5a-d7e7-47e7-be4c-f5f9ed0fc566","type":"Feature","feature_type":"anchor","geometry":{"type":"Point","coordinates":[30.381745679841032,60.00726595718632]},"properties":{"unit_id":"69a4862e-e24d-4696-8a59-25d409b453fe","address_id":"4349ad09-d102-4a97-aacf-4bf0d2894a49"}},{"id":"fac0c8df-e7c0-4150-9113-f6ed1472a501","type":"Feature","feature_type":"anchor","geometry":{"type":"Point","coordinates":[30.381760090688644,60.007290814502888]},"properties":{"unit_id":"e66f2f3f-7a98-47cb-8d30-0706998d0fad","address_id":"039c8aa9-e473-4266-a3f3-d36c2c3dc8a1"}},{"id":"6838b5ab-87a4-4001-aadd-74de7c539800","type":"Feature","feature_type":"anchor","geometry":{"type":"Point","coordinates":[30.381690258044337,60.007271749203731]},"properties":{"unit_id":"7448f56b-ba16-4d34-a4f4-832ce8c0fb40","address_id":"d98f4b69-6896-4eb0-87c0-18b11836778a"}},{"id":"8ff2f64a-0ffb-45df-8ec7-801523a93d2c","type":"Feature","feature_type":"anchor","geometry":{"type":"Point","coordinates":[30.380935438877653,60.007507078179515]},"properties":{"unit_id":"d3e54764-145a-4735-8c29-c3a6cf9d5ad6","address_id":"179d49e4-941a-44de-8e34-48743f12c84a"}},{"id":"24900621-8aa9-4359-aebd-0377a8799ca9","type":"Feature","feature_type":"anchor","geometry":{"type":"Point","coordinates":[30.380840389955321,60.0075385396145]},"properties":{"unit_id":"0e51bb47-38ef-4fa0-8f1e-0eb668bd18b3","address_id":"2e151398-c3eb-4c57-8180-405a50ebb79c"}},{"id":"bf62864c-b22d-48de-9e3d-a18187933312","type":"Feature","feature_type":"anchor","geometry":{"type":"Point","coordinates":[30.382796243825,60.0072085293776]},"properties":{"unit_id":"c2168462-8fe4-468d-93d6-83b7d23f4c60","address_id":"49f5476d-6ca5-4f6a-8a45-29aae033ef64"}},{"id":"93f531ce-781e-4202-b1be-86a8998551b8","type":"Feature","feature_type":"anchor","geometry":{"type":"Point","coordinates":[30.381809872217048,60.007211395745578]},"properties":{"unit_id":"3c8903fe-ca65-46e5-926f-005dda0f9b90","address_id":"e2b40114-9965-48fc-8978-4885d47d0e1f"}},{"id":"69c0c715-10ea-40db-b9f2-2d8b9028d3b0","type":"Feature","feature_type":"anchor","geometry":{"type":"Point","coordinates":[30.381538366678956,60.007215510866367]},"properties":{"unit_id":"d65cb00c-600e-45c0-bde7-511aac5c9529","address_id":"348d8633-7886-4964-a638-9eba862fe467"}},{"id":"03780049-9015-426d-8f3f-898bbc60cb0b","type":"Feature","feature_type":"anchor","geometry":{"type":"Point","coordinates":[30.381470691911737,60.007321254156182]},"properties":{"unit_id":"c2ece0be-73dc-4dfb-9aaf-57164f81c72d","address_id":"696ba1a5-764a-437e-b889-d0da8f13d834"}},{"id":"1ede98ff-d8f4-4cdb-be23-76d1837899a7","type":"Feature","feature_type":"anchor","geometry":{"type":"Point","coordinates":[30.381286971323433,60.007352846504368]},"properties":{"unit_id":"efee6a9b-dd3a-4a70-82dd-eba0efe56210","address_id":"2b4b3982-1b51-4436-86ad-ba63140c0187"}},{"id":"2bba91f8-82b3-4486-9e98-028770f26c2b","type":"Feature","feature_type":"anchor","geometry":{"type":"Point","coordinates":[30.381205999862832,60.00727159111986]},"properties":{"unit_id":"e6c101be-3fb6-4ccb-8b2d-0f31e8bac617","address_id":"c5157d53-50bb-43cb-83bf-aee79fada7a6"}},{"id":"c160613c-a4b6-4c24-9176-28cc22e697a1","type":"Feature","feature_type":"anchor","geometry":{"type":"Point","coordinates":[30.381600164152552,60.007300001755681]},"properties":{"unit_id":"b2cd2d6f-9dde-4a51-add9-7fb0aa32f8f2","address_id":"315d533f-d1f7-4a1c-b239-84007b015114"}},{"id":"16fdcb98-0e5b-4252-bd84-de48baa95a77","type":"Feature","feature_type":"anchor","geometry":{"type":"Point","coordinates":[30.381902702934763,60.00724895438767]},"properties":{"unit_id":"1f843854-ce4e-4f6c-82b7-161c78db0d04","address_id":"8827f0df-564f-4825-914f-84f03533e3c7"}},{"id":"07a8e13c-2b53-4746-88cb-a51b6ef3da2d","type":"Feature","feature_type":"anchor","geometry":{"type":"Point","coordinates":[30.38208166937266,60.007218757623662]},"properties":{"unit_id":"b5184428-49b1-4774-9708-899a7b67e965","address_id":"4e01e99a-25ce-48f5-90c4-91b1c81f8e11"}},{"id":"4387667f-a37e-42c0-93c8-6613643a946e","type":"Feature","feature_type":"anchor","geometry":{"type":"Point","coordinates":[30.382260635647093,60.007188560310752]},"properties":{"unit_id":"e1b27e0f-516d-4d19-adcb-833114261283","address_id":"be78ac56-390e-4a26-87ec-f992e32d4b1b"}},{"id":"0ad1c804-71f8-4260-bf7c-24373c4139ae","type":"Feature","feature_type":"anchor","geometry":{"type":"Point","coordinates":[30.38200069655095,60.0071375019647]},"properties":{"unit_id":"bdb6929c-ac91-414b-8536-f5a499871d3d","address_id":"5db5454a-d24f-4bac-8340-e771da3bcfd5"}},{"id":"70768f68-03b6-46ee-924e-160fd34d3fa2","type":"Feature","feature_type":"anchor","geometry":{"type":"Point","coordinates":[30.38217966264256,60.007107305200691]},"properties":{"unit_id":"aa2be0b0-d16a-4756-9c04-b07cbec258b7","address_id":"722e37d3-e64f-4d52-bc0b-434bf8905b13"}},{"id":"293d1fbf-35b9-4c1b-bc1b-a1f742cd632e","type":"Feature","feature_type":"anchor","geometry":{"type":"Point","coordinates":[30.381132186811804,60.007383709361356]},"properties":{"unit_id":"84e35ea5-e0e1-4c7b-8b3a-c72810ac3645","address_id":"86d8f106-ec0a-415b-ac65-894972ecba5f"}},{"id":"3e673363-6217-427f-ab44-b9cd45e2c5dd","type":"Feature","feature_type":"anchor","geometry":{"type":"Point","coordinates":[30.382376431630849,60.007173768216248]},"properties":{"unit_id":"72b4559d-29d6-4965-a754-486e419ea461","address_id":"eefe8588-28b6-4ff0-8c20-58363c577806"}},{"id":"31a93713-9964-430d-bb5c-c4754a3703e6","type":"Feature","feature_type":"anchor","geometry":{"type":"Point","coordinates":[30.381689635959084,60.007189987456819]},"properties":{"unit_id":"8051b03e-ebc1-44d7-a214-ff20c7dfa3f9","address_id":"c30e376a-857e-4f13-87ab-3dea69aba9d7"}},{"id":"d159c8dd-a754-4092-b7cb-db7910b4fb33","type":"Feature","feature_type":"anchor","geometry":{"type":"Point","coordinates":[30.381845166316694,60.007163744436305]},"properties":{"unit_id":"0180dbf0-c836-4e73-a48f-4bf3c52c7a6a","address_id":"a443052d-2996-4d31-96d5-4e37bea32f7c"}},{"id":"d82ba630-4c55-4476-9e35-664268dbc674","type":"Feature","feature_type":"anchor","geometry":{"type":"Point","coordinates":[30.381387097282143,60.007241034824823]},"properties":{"unit_id":"8b8cac7d-8ed1-45cb-b42f-f89945fe8912","address_id":"03032d85-97a6-47da-a0de-a342730cbf67"}},{"id":"14afd8a6-49b1-4fe4-b5f6-e330ae12b1db","type":"Feature","feature_type":"anchor","geometry":{"type":"Point","coordinates":[30.381077557630508,60.007288744317741]},"properties":{"unit_id":"fea45db9-3603-4d0a-aec3-e211a012d839","address_id":"c8c3240c-5f1b-4d03-9c96-b6d8d5112b5d"}},{"id":"939abfd0-cf48-4589-bdc5-c57114675896","type":"Feature","feature_type":"anchor","geometry":{"type":"Point","coordinates":[30.382321418746436,60.007078867668653]},"properties":{"unit_id":"4e6ada67-ada6-4af5-99db-636680b135b1","address_id":"b6b0dbe2-1d50-4e16-b6bf-b214ce9bdf16"}},{"id":"d4e26852-670a-4b57-bb7a-496ebeb4c05b","type":"Feature","feature_type":"anchor","geometry":{"type":"Point","coordinates":[30.381745679841032,60.00726595718632]},"properties":{"unit_id":"77c70eff-7adb-48b3-b808-0a518d9f01b7","address_id":"983c942e-b0d2-4e21-9e29-5e0640221b40"}},{"id":"eb46cf65-d1ca-4f14-a151-4723a5a1b9b4","type":"Feature","feature_type":"anchor","geometry":{"type":"Point","coordinates":[30.381760090688644,60.007290814502888]},"properties":{"unit_id":"514e617e-5c78-47ea-9942-e5acc03de707","address_id":"182bac4b-e2ef-4c1e-b96b-a4afe9642244"}},{"id":"3a71de1f-c646-415e-81e3-16255e646077","type":"Feature","feature_type":"anchor","geometry":{"type":"Point","coordinates":[30.381690258044337,60.007271749203731]},"properties":{"unit_id":"ab235f3e-f9b6-40c1-932e-ea4f338b876a","address_id":"6a555ac9-8614-4988-8e6f-9e3bda045cc7"}},{"id":"54f7a77c-071d-4d6b-aee3-e77be9ddcd97","type":"Feature","feature_type":"anchor","geometry":{"type":"Point","coordinates":[30.381809872217048,60.007211395745578]},"properties":{"unit_id":"5d0fb735-f64f-422d-9cf7-02f4ac8da3d7","address_id":"a8e3dc1c-2226-4898-8efb-99bca004144f"}},{"id":"a943eef3-e2d7-4185-b17b-455bfc07b6c6","type":"Feature","feature_type":"anchor","geometry":{"type":"Point","coordinates":[30.381538366678956,60.007215510866367]},"properties":{"unit_id":"fe1edbe0-3c00-466d-b581-46ae4476b20d","address_id":"83df6121-2fca-41f9-910e-f321927fbdc9"}},{"id":"db34e6fa-9b97-444f-9d93-a7a9ca6691c1","type":"Feature","feature_type":"anchor","geometry":{"type":"Point","coordinates":[30.381542638416366,60.007309707995617]},"properties":{"unit_id":"3db714ae-e83d-429a-9f97-593810d8610b","address_id":"c4cd8396-1702-42c4-9d2e-1a6e20c4a64b"}},{"id":"acb9e154-7735-40d2-9084-e2648740f787","type":"Feature","feature_type":"anchor","geometry":{"type":"Point","coordinates":[30.381286971323433,60.007352846504368]},"properties":{"unit_id":"08469890-60ac-405e-a8ab-9a8e08f19fc0","address_id":"599814c7-5af5-4a68-9c20-cbf3007865b6"}},{"id":"03a2adef-aa18-40a6-8d31-c1898dcfa40b","type":"Feature","feature_type":"anchor","geometry":{"type":"Point","coordinates":[30.381205999862832,60.00727159111986]},"properties":{"unit_id":"ccbe3814-5e2d-4c1c-bf34-6e8a2440a0ca","address_id":"a79ad803-dee7-4ffe-8005-465f818f06f8"}},{"id":"7da4f9fd-18c1-4549-8bee-c23b686ff6cb","type":"Feature","feature_type":"anchor","geometry":{"type":"Point","coordinates":[30.381902702934763,60.00724895438767]},"properties":{"unit_id":"0e0ef99f-c75b-4741-94be-5a6893399681","address_id":"37aa72f6-770f-41c7-8482-08fd9aa947b5"}},{"id":"433b33c0-0e1e-4f0a-b934-71827c323654","type":"Feature","feature_type":"anchor","geometry":{"type":"Point","coordinates":[30.382058232797558,60.007222711916064]},"properties":{"unit_id":"eccf4faf-0125-42af-8364-8ce248c0ed82","address_id":"7845f933-36bc-4c53-a38f-cef681a20d28"}},{"id":"1afe07ff-a52c-4d59-82ec-229b273bb0f9","type":"Feature","feature_type":"anchor","geometry":{"type":"Point","coordinates":[30.3821818052387,60.007201861586523]},"properties":{"unit_id":"507fee98-7823-43fa-87a8-848988a452dd","address_id":"b356d959-6323-457b-92ad-ecce803aae94"}},{"id":"40c0677e-8385-4b13-8c79-e0bada74f6ef","type":"Feature","feature_type":"anchor","geometry":{"type":"Point","coordinates":[30.38200069655095,60.0071375019647]},"properties":{"unit_id":"15c36c29-a692-4377-af55-830adad42a8a","address_id":"cdb7cbec-18df-4493-b5b1-353bcb5a6c5b"}},{"id":"3258f6f2-9925-4219-a2c1-1022758dedd2","type":"Feature","feature_type":"anchor","geometry":{"type":"Point","coordinates":[30.38216620550649,60.007135013790425]},"properties":{"unit_id":"7a764839-f082-4f5e-b208-22d426713796","address_id":"5168c469-8c95-4bc9-b804-7e10d8636c0d"}},{"id":"b417ae28-75cb-40b5-a26f-8469069345c2","type":"Feature","feature_type":"anchor","geometry":{"type":"Point","coordinates":[30.381132186811804,60.007383709361356]},"properties":{"unit_id":"2dcc4e41-6c05-4a65-9364-659dcb150923","address_id":"a96b0803-d81c-429f-9da5-615611983443"}},{"id":"4d6d7c0c-5cbc-4aa0-b3ca-cf7d63ccc16c","type":"Feature","feature_type":"anchor","geometry":{"type":"Point","coordinates":[30.382376431630849,60.007173768216248]},"properties":{"unit_id":"3c1e4284-7f71-4dea-9689-fc5019ebfb88","address_id":"27380e2f-f7a9-4a53-91fa-4f95eff21860"}},{"id":"d5a03756-cff3-402e-b082-570067ae08cf","type":"Feature","feature_type":"anchor","geometry":{"type":"Point","coordinates":[30.381689635959084,60.007189987456819]},"properties":{"unit_id":"52930c2f-166c-4ca1-9642-0bc83779fc94","address_id":"527e72ab-386d-4bad-bb21-0a1cc8150887"}},{"id":"14fb7170-b508-4fac-8a90-ceec28c690f7","type":"Feature","feature_type":"anchor","geometry":{"type":"Point","coordinates":[30.381845166316694,60.007163744436305]},"properties":{"unit_id":"58b37a2f-597a-42bc-bfcd-fee8060cb399","address_id":"1f6cc9f2-8938-4fba-a81a-f6253312aef8"}},{"id":"0e7cd3a5-fb25-4c9f-b25a-e38b713bc630","type":"Feature","feature_type":"anchor","geometry":{"type":"Point","coordinates":[30.381387097282143,60.007241034824823]},"properties":{"unit_id":"185435ab-67cf-4f2a-993d-86ab217b8210","address_id":"ddbfe70f-d2c4-4192-bac4-748b32b73a3d"}},{"id":"562d1a8e-d36a-429e-86a7-11824eb9b652","type":"Feature","feature_type":"anchor","geometry":{"type":"Point","coordinates":[30.38230963824325,60.007180292194917]},"properties":{"unit_id":"a54a9b90-7afb-490a-a390-85704ad149ef","address_id":"7f91f3e7-c4f0-4247-8dd8-f68b4d30699b"}},{"id":"1f8b78e4-96ba-4981-805e-633ba98d7dcd","type":"Feature","feature_type":"anchor","geometry":{"type":"Point","coordinates":[30.382266311564184,60.007207510889323]},"properties":{"unit_id":"638ba9c9-3a7b-48a4-81dc-20c4c68c7df8","address_id":"251e65fc-7f61-42f3-86f5-1ffd1c6e4e35"}},{"id":"90093015-e398-4fb4-833f-2fa704dd4f55","type":"Feature","feature_type":"anchor","geometry":{"type":"Point","coordinates":[30.382239140295752,60.007167271408242]},"properties":{"unit_id":"380579ab-408c-4662-81be-21a209e39c56","address_id":"f7ad09c2-07b0-4c50-aa82-274bd6cec418"}},{"id":"1da2aa3a-66f8-4791-a531-69bf1c497315","type":"Feature","feature_type":"anchor","geometry":{"type":"Point","coordinates":[30.382105631979712,60.007124198767769]},"properties":{"unit_id":"cdfdcfdb-c020-46d6-a717-8003528a2af2","address_id":"5150a364-5a1c-4fa6-a4a7-5179d6a83a3d"}},{"id":"c7cb80d7-3e2b-4e8f-89c5-5968dc185dc4","type":"Feature","feature_type":"anchor","geometry":{"type":"Point","coordinates":[30.38224997056798,60.007095441774581]},"properties":{"unit_id":"01a0ad15-02e4-4e22-85ce-973ebc916cee","address_id":"f42b704e-904f-4d38-9144-3a9f8cc4c544"}},{"id":"288831b4-865b-48cc-9130-a029c23a09a2","type":"Feature","feature_type":"anchor","geometry":{"type":"Point","coordinates":[30.382197412792188,60.007108988684145]},"properties":{"unit_id":"574e7c10-5ecf-4cf6-a1ac-5d77d8022c3c","address_id":"caf00e9a-3f9f-411a-a1d0-f988286652a3"}},{"id":"e2463c73-9e4d-4f84-9ac5-f72e528ee7d4","type":"Feature","feature_type":"anchor","geometry":{"type":"Point","coordinates":[30.382137578891129,60.007094186983849]},"properties":{"unit_id":"1857b44b-e9cf-4641-8023-c28559b0dbee","address_id":"f55981e5-2d83-414f-a3d3-31cdb96e0e69"}},{"id":"d023b7e3-94f9-4b63-bee2-7135b888ed00","type":"Feature","feature_type":"anchor","geometry":{"type":"Point","coordinates":[30.381077557630508,60.007288744317741]},"properties":{"unit_id":"dd079d23-44a7-4800-80a0-ad91efdcc489","address_id":"b760273a-2fc9-4689-9763-ec9ee884da1b"}},{"id":"6055e385-73b3-4dd4-bce0-1bbe95b589ae","type":"Feature","feature_type":"anchor","geometry":{"type":"Point","coordinates":[30.382321418746436,60.007078867668653]},"properties":{"unit_id":"7b89a500-0917-49ff-ab02-f73313ac4425","address_id":"611bc15d-dbf3-474b-bb61-cc0a78a99018"}},{"id":"cbd6e9a8-9233-4fc0-ac1b-2997d89cc63d","type":"Feature","feature_type":"anchor","geometry":{"type":"Point","coordinates":[30.381745679841032,60.00726595718632]},"properties":{"unit_id":"7830b48c-4a97-4f94-8598-50d55c6112e0","address_id":"e77e5266-dab9-4fd6-80da-9edfc6b30175"}},{"id":"68de8bbe-c287-4332-a5b0-5e6af971bf96","type":"Feature","feature_type":"anchor","geometry":{"type":"Point","coordinates":[30.381760090688644,60.007290814502888]},"properties":{"unit_id":"93c81262-f012-49a5-9293-86adf481add3","address_id":"bc516125-28e4-40a6-8838-b39d92fceece"}},{"id":"055ab3be-e362-429b-b553-dac9760487c6","type":"Feature","feature_type":"anchor","geometry":{"type":"Point","coordinates":[30.371390913567073,60.007793169094093]},"properties":{"unit_id":"d59ada79-1301-4165-aad4-baf0f6fe80f5","address_id":"fe5c63c1-2af3-419f-9af8-51055a34aca1"}},{"id":"a789aca3-c391-4406-b2d2-0d4eda69104a","type":"Feature","feature_type":"anchor","geometry":{"type":"Point","coordinates":[30.374511593009174,60.007082731392174]},"properties":{"unit_id":"98a8143f-c61b-4e0a-b629-e16cf64ccbe1","address_id":"ff9ff110-460c-425f-852c-4035c9aae2b2"}},{"id":"fc922d78-bcbb-43bc-875b-73992d6d7d08","type":"Feature","feature_type":"anchor","geometry":{"type":"Point","coordinates":[30.373045473694546,60.007484342644908]},"properties":{"unit_id":"df5de287-0829-4932-8faa-f4490bf770c3","address_id":"be073bdd-f29c-41ed-8fe5-3034d3077fad"}},{"id":"c042398e-7c84-40be-b6e3-5040c6b6389c","type":"Feature","feature_type":"anchor","geometry":{"type":"Point","coordinates":[30.374411931616084,60.006689034762168]},"properties":{"unit_id":"5f280f1d-bcce-403a-abf8-bfea082bb50b","address_id":"51594f6b-c321-49f4-9d10-7ac1d053bb7a"}},{"id":"c759ff12-59c9-4738-a992-311acd28fce7","type":"Feature","feature_type":"anchor","geometry":{"type":"Point","coordinates":[30.370983853093108,60.007259622030048]},"properties":{"unit_id":"fe6051d8-4569-4f3a-a1ff-cc3c8c71db43","address_id":"43b6271c-29af-415a-9b3c-1a80fe10efbe"}},{"id":"dc471d59-7c72-41dc-b221-a88136da35e4","type":"Feature","feature_type":"anchor","geometry":{"type":"Point","coordinates":[30.371514502835709,60.008155537397933]},"properties":{"unit_id":"f3535eb4-f48a-4b6f-8c45-dd9b231f43a8","address_id":"5f240a4f-4f37-4ac1-b359-92c88b38a1a6"}},{"id":"3040d851-563b-4aed-bc53-833428f8f07f","type":"Feature","feature_type":"anchor","geometry":{"type":"Point","coordinates":[30.375096539562684,60.007557550572329]},"properties":{"unit_id":"a29d5b0d-4ff4-4091-b679-cd48c04bef97","address_id":"1a5970c4-11ee-4206-86cb-749e3da99255"}},{"id":"d35b8603-679d-4190-95ce-c0f059d8f717","type":"Feature","feature_type":"anchor","geometry":{"type":"Point","coordinates":[30.374864106575682,60.007570507411884]},"properties":{"unit_id":"aad8b86f-6d7e-473b-bc3d-a4b7b433593a","address_id":"7e71e31f-78fb-42b3-aa4a-90b2ab22fd5b"}},{"id":"29f5d69e-e02e-45ed-92d7-33783a81c855","type":"Feature","feature_type":"anchor","geometry":{"type":"Point","coordinates":[30.374916041136522,60.00762907254623]},"properties":{"unit_id":"9e1bfd93-4220-4dca-a975-24e4c1cceead","address_id":"cf40f039-23f6-4ebe-b485-2cfaef2936a7"}},{"id":"5b0051f2-407f-4316-a1e3-5ff255b078f4","type":"Feature","feature_type":"anchor","geometry":{"type":"Point","coordinates":[30.37171052193451,60.008122464385707]},"properties":{"unit_id":"e492787e-41e6-40cb-90a7-ab4608daba68","address_id":"a49a5827-f498-4ca2-9aed-3de4f368294b"}},{"id":"fd93560d-65b9-45ae-b07b-c159689bfd7f","type":"Feature","feature_type":"anchor","geometry":{"type":"Point","coordinates":[30.373201649499805,60.007258668861148]},"properties":{"unit_id":"4d97de61-37e0-4e69-9ada-d081474e8c4e","address_id":"7858b5ce-3790-44f2-8984-3966224c8cd7"}},{"id":"58deaab0-0b5f-4e85-afb7-87c34ab3fa4a","type":"Feature","feature_type":"anchor","geometry":{"type":"Point","coordinates":[30.373201649499805,60.007258668861148]},"properties":{"unit_id":"4d97de61-37e0-4e69-9ada-d081474e8c4e","address_id":"b1cb9531-a2af-46fd-bf21-b421e586a798"}},{"id":"7c796d1f-7ce4-4d5c-a8f5-38e810b1772f","type":"Feature","feature_type":"anchor","geometry":{"type":"Point","coordinates":[30.372647692259918,60.007352135675852]},"properties":{"unit_id":"bfc76e77-c1ec-4f1e-96ea-6d664d6b932d","address_id":"4b57c552-7c2b-456f-9392-7896ffb0207e"}},{"id":"abdf5024-58e0-41a1-b205-c70f1064832c","type":"Feature","feature_type":"anchor","geometry":{"type":"Point","coordinates":[30.372880328842527,60.007239719654834]},"properties":{"unit_id":"83995ed7-3ce3-4536-b5f4-f4e3d06c9174","address_id":"1a950357-a7fc-462c-8d74-163cb376218b"}},{"id":"32446303-58bc-4b11-9d7b-2f7a94c18ac5","type":"Feature","feature_type":"anchor","geometry":{"type":"Point","coordinates":[30.371707754771009,60.008037507478313]},"properties":{"unit_id":"432f45fe-c1c3-4063-94b2-1906a2c5cae4","address_id":"a17b4a9a-d6b2-47f7-ba03-e51ebcbbe6d3"}},{"id":"2b0e4f15-8178-4677-b323-b8f867779cb5","type":"Feature","feature_type":"anchor","geometry":{"type":"Point","coordinates":[30.371977501677886,60.007688265350396]},"properties":{"unit_id":"23dd09b2-c892-42dd-a730-0ad065273cc1","address_id":"937fdceb-e61b-4bd1-ad3f-2958fa7ed324"}},{"id":"c6d19605-e30c-496b-b709-375305cc6dc1","type":"Feature","feature_type":"anchor","geometry":{"type":"Point","coordinates":[30.374142202487281,60.007323025189557]},"properties":{"unit_id":"b9c9d891-8a52-4c63-a5af-0576956aa33d","address_id":"faf09e4d-b20a-4b80-b897-1230d988ab18"}},{"id":"fd3a426e-45d2-4316-a28e-310338776491","type":"Feature","feature_type":"anchor","geometry":{"type":"Point","coordinates":[30.374179595567472,60.007568243464213]},"properties":{"unit_id":"16af718c-f38d-458b-a92a-2710aa0c2324","address_id":"b9771b17-715b-4e6f-bb90-07ed066e607a"}},{"id":"dc139599-1b48-4698-a96b-8c47864174a7","type":"Feature","feature_type":"anchor","geometry":{"type":"Point","coordinates":[30.373999132818255,60.007589200555259]},"properties":{"unit_id":"d723717d-8f20-4dce-9e9f-4d98a153bf7c","address_id":"0c06b2c9-3ac0-4195-8d41-86cbe84e9b61"}},{"id":"e7ba2a2d-d87c-49f6-b959-21c92e7c2d1d","type":"Feature","feature_type":"anchor","geometry":{"type":"Point","coordinates":[30.374353945508975,60.007538233052543]},"properties":{"unit_id":"77e507fb-77f2-4d74-bb93-f88a09c551af","address_id":"c9b51eef-ecf0-4896-8bbd-ba9689f06cfd"}},{"id":"7e22dc40-918f-48d6-a36a-daeb3f2c8cbd","type":"Feature","feature_type":"anchor","geometry":{"type":"Point","coordinates":[30.374332239446158,60.007502149311023]},"properties":{"unit_id":"a6925505-9fbe-43a0-b531-b8d9131ec62d","address_id":"1841e8dc-f0fe-48e8-89ed-d403d2339694"}},{"id":"684d3870-03a4-472b-8b3d-88534213bc2e","type":"Feature","feature_type":"anchor","geometry":{"type":"Point","coordinates":[30.374583611216938,60.0074882110341]},"properties":{"unit_id":"8c6710d9-24ca-4a72-9142-2819111f29d5","address_id":"18b439ee-b656-4e6d-a52a-4ff75bf21558"}},{"id":"29dccd12-e9ef-4ad5-8884-469a96b6b3f8","type":"Feature","feature_type":"anchor","geometry":{"type":"Point","coordinates":[30.374093305477572,60.007440428811613]},"properties":{"unit_id":"536ecd58-5d89-4e21-b0ee-b4ccb0f62c08","address_id":"9e67f6f3-0921-4070-9522-b7424ad2df02"}},{"id":"897154b8-4bff-43de-94bb-f044d5837d9f","type":"Feature","feature_type":"anchor","geometry":{"type":"Point","coordinates":[30.374139257846672,60.007508495445336]},"properties":{"unit_id":"fe621698-4abe-4fe6-b684-fb76ecae9e70","address_id":"ba3602ae-e4ae-4202-8b8c-32c1cff46762"}},{"id":"336bc4c8-38f6-485a-bc9a-f9e03a746511","type":"Feature","feature_type":"anchor","geometry":{"type":"Point","coordinates":[30.372187111040635,60.00780891655311]},"properties":{"unit_id":"b3db7083-f542-4967-bd90-407b9bad2e91","address_id":"120a7458-86f2-42fb-bec5-aab4f6558bd3"}},{"id":"a5896dd9-9313-4561-b9aa-dbb98822f42e","type":"Feature","feature_type":"anchor","geometry":{"type":"Point","coordinates":[30.371185442068427,60.007798176181169]},"properties":{"unit_id":"b49b35c1-24e2-4d0a-8575-8ef31cb65eff","address_id":"87b24b8f-ab13-4b30-be04-13749153dc17"}},{"id":"dbc88828-c7cd-420e-8d36-e3899342c134","type":"Feature","feature_type":"anchor","geometry":{"type":"Point","coordinates":[30.371093405315644,60.007661840643216]},"properties":{"unit_id":"56973e88-dac8-4044-88a8-18d3781d41d4","address_id":"7d85c5e0-7824-4d9d-9b8f-75f968458d88"}},{"id":"6f1dd630-b78c-4046-b7eb-a2c873a54da9","type":"Feature","feature_type":"anchor","geometry":{"type":"Point","coordinates":[30.371033426076227,60.007724163837388]},"properties":{"unit_id":"681c6d99-00a1-4b18-9e60-83bd6aac54db","address_id":"95886178-ff78-4a58-a37a-da08c3e01b63"}},{"id":"8cbb34d8-2cb9-42e4-bc4f-a46f0b4aeb3b","type":"Feature","feature_type":"anchor","geometry":{"type":"Point","coordinates":[30.371292110209861,60.007703059914959]},"properties":{"unit_id":"314c353a-7b50-49b4-8633-e803414950ac","address_id":"388b695f-2923-46da-a585-d1892ceb2fd5"}},{"id":"abeeea1f-c022-41f1-9aa3-9d79b2499b7a","type":"Feature","feature_type":"anchor","geometry":{"type":"Point","coordinates":[30.371322760332419,60.007808227680684]},"properties":{"unit_id":"33f0de84-31cf-4578-ab38-1b230c4af6ee","address_id":"99e6a024-4185-42b0-9d82-be3264243372"}},{"id":"df2260e4-339a-4299-a40f-1a65e9389b18","type":"Feature","feature_type":"anchor","geometry":{"type":"Point","coordinates":[30.371306941197293,60.007784795040116]},"properties":{"unit_id":"c3bedb8a-e5f8-4548-b1bb-70683b0471b3","address_id":"c9531ef9-79bb-4050-aae8-bf2e8d1a6c3d"}},{"id":"5c80ed10-fc86-4652-9c76-08f628f32016","type":"Feature","feature_type":"anchor","geometry":{"type":"Point","coordinates":[30.371199085428508,60.007625026587142]},"properties":{"unit_id":"8a9c95ad-9e89-44c0-86c9-a59675da0d19","address_id":"bfca7445-3a7a-4478-932a-b808b8059c6b"}},{"id":"ff47a699-e915-40dd-9183-796aba75dbc0","type":"Feature","feature_type":"anchor","geometry":{"type":"Point","coordinates":[30.371260820068326,60.007607491627681]},"properties":{"unit_id":"0016a7fe-e76d-4df5-8dae-279b9a2cf505","address_id":"a0927912-1c9d-4221-bdc0-3d99eb693222"}},{"id":"4e8bd060-2183-494c-8312-0f3f3bebe662","type":"Feature","feature_type":"anchor","geometry":{"type":"Point","coordinates":[30.371163545842997,60.007579412803324]},"properties":{"unit_id":"95ec5e33-d343-4e04-bbc0-74cdf4a8a33b","address_id":"63339136-de39-44cb-a58d-83270b9b03ea"}},{"id":"ece305a3-1629-4139-a0cc-e27c3d37e299","type":"Feature","feature_type":"anchor","geometry":{"type":"Point","coordinates":[30.371141255827542,60.007546394132426]},"properties":{"unit_id":"27894f95-8308-449f-b423-5df31616d933","address_id":"1770533c-a0ce-4e6a-974c-2c58ac72fc73"}},{"id":"1c67926b-095e-48ef-8a66-74f258d62d53","type":"Feature","feature_type":"anchor","geometry":{"type":"Point","coordinates":[30.371118965834356,60.007513375187074]},"properties":{"unit_id":"c17ade86-afb4-4686-ac80-8ac35c68c6b0","address_id":"112657a7-fcc6-44c2-9f6a-675042d3ed6f"}},{"id":"9dfcf0fc-2184-4f75-bf65-7fe3e00bbf18","type":"Feature","feature_type":"anchor","geometry":{"type":"Point","coordinates":[30.371096675588909,60.007480356516176]},"properties":{"unit_id":"94927d6b-16c6-457d-806e-dbe4f4018692","address_id":"b768ffc8-d4db-4fe6-848a-86194f51bd03"}},{"id":"93a35cf9-7cc4-4721-9e5b-e9a1236493fd","type":"Feature","feature_type":"anchor","geometry":{"type":"Point","coordinates":[30.371074385640231,60.007447337570824]},"properties":{"unit_id":"f8496048-a53a-40bd-83be-1ce1a5e4e070","address_id":"9a9d3419-e94c-439b-b540-b6cc292d71f6"}},{"id":"812e3f16-8321-466f-b2a1-24c6695c9995","type":"Feature","feature_type":"anchor","geometry":{"type":"Point","coordinates":[30.371052095439289,60.007414318899926]},"properties":{"unit_id":"9fece7ad-973c-4fbb-9989-8cb528895040","address_id":"15b46425-00e2-451f-8836-a5ba89d1a49f"}},{"id":"0bd8aee9-e14c-4eb8-a445-4794a43f000e","type":"Feature","feature_type":"anchor","geometry":{"type":"Point","coordinates":[30.371030165093792,60.007381832664286]},"properties":{"unit_id":"6d0659bc-9a01-4557-983e-7479857c9e20","address_id":"797e0b1d-9a6c-4dbb-a258-de5f3214738c"}},{"id":"412d3ba8-8c64-46a0-bcf1-a50e97cb8c34","type":"Feature","feature_type":"anchor","geometry":{"type":"Point","coordinates":[30.371341148738317,60.007842498123352]},"properties":{"unit_id":"52baec95-477f-4916-bf22-b59b03eac5fe","address_id":"742e2737-5963-4e0c-b71b-a558fc989cfe"}},{"id":"2d762eba-ff60-4978-a74a-c44124f39c85","type":"Feature","feature_type":"anchor","geometry":{"type":"Point","coordinates":[30.371363438953342,60.00787551679425]},"properties":{"unit_id":"62749613-4c7f-4170-bfce-7ac616fad5d1","address_id":"81c1ad39-3136-4764-96b7-d56b88212bf5"}},{"id":"a6540e6c-265e-457d-9850-4c8d42ff633c","type":"Feature","feature_type":"anchor","geometry":{"type":"Point","coordinates":[30.371385729190603,60.0079085357396]},"properties":{"unit_id":"004848c2-26ba-4bb9-97d8-c4c57c4ae5d1","address_id":"54d5fc10-b391-4ddf-8b7e-9fcb42f01165"}},{"id":"84865ec0-86e2-4f63-bead-50cd595c96bf","type":"Feature","feature_type":"anchor","geometry":{"type":"Point","coordinates":[30.371474171779553,60.008039545552677]},"properties":{"unit_id":"485743f0-40ec-43d4-9478-7cafbae823e9","address_id":"5330978e-c62f-4cd5-a131-35a64d993bba"}},{"id":"9d66791f-c2e5-4f4e-8d0d-0aca6126fbd3","type":"Feature","feature_type":"anchor","geometry":{"type":"Point","coordinates":[30.3714299504413,60.007974040371685]},"properties":{"unit_id":"d5d32ec6-a389-4854-a26d-a3b95203d66c","address_id":"0c196375-6086-479f-96c5-22cec8711552"}},{"id":"24cafd72-7051-4917-9b42-c5ebe850029d","type":"Feature","feature_type":"anchor","geometry":{"type":"Point","coordinates":[30.371218806242318,60.00731322426396]},"properties":{"unit_id":"966a17c6-6391-42e2-ba23-d432602c301e","address_id":"4fe5cefb-ef34-4e4c-8fd5-ee917abb1069"}},{"id":"2fb0a7f4-c99f-4353-9378-78839e7b7108","type":"Feature","feature_type":"anchor","geometry":{"type":"Point","coordinates":[30.372207609256726,60.00764944039063]},"properties":{"unit_id":"8df2ffed-f613-48d2-9cd0-9320a8540fa1","address_id":"4ba6689d-2da1-4892-829e-1b7d762d021c"}},{"id":"ebf1677f-e8b6-44c2-b1f1-440fa6f7884c","type":"Feature","feature_type":"anchor","geometry":{"type":"Point","coordinates":[30.371961741143735,60.007482110533573]},"properties":{"unit_id":"57c6c9a8-55fa-4a41-89c6-bbf691f41989","address_id":"ba3ea5db-e7b0-4b73-bf13-dbf1e1fbfe5a"}},{"id":"536a4854-21c8-4cee-8c4d-7c1f99e493e3","type":"Feature","feature_type":"anchor","geometry":{"type":"Point","coordinates":[30.372012021568583,60.007549559377722]},"properties":{"unit_id":"fdc49d32-9d9b-401c-8637-6992ae0e359a","address_id":"f8328747-c7d3-49ba-887c-89da489ecb67"}},{"id":"057411b2-2b74-442f-839b-08ed776f51a5","type":"Feature","feature_type":"anchor","geometry":{"type":"Point","coordinates":[30.371884184492409,60.007571128494874]},"properties":{"unit_id":"f1de1845-2c56-42b8-9722-f56d808df720","address_id":"af80ab79-0c9f-4149-bb48-f3cecc1a1f83"}},{"id":"fccdaa2d-901d-46ec-a700-95322836ef36","type":"Feature","feature_type":"anchor","geometry":{"type":"Point","coordinates":[30.372135597238149,60.007528709048181]},"properties":{"unit_id":"ab115978-8444-4af7-b981-33ce4716ec2f","address_id":"b07cc868-d22d-4097-bbf1-80e72a0e9564"}},{"id":"d79bc29f-c944-4ce0-be8d-d85ab6c1cc53","type":"Feature","feature_type":"anchor","geometry":{"type":"Point","coordinates":[30.371794060451212,60.00754836853411]},"properties":{"unit_id":"03fde7d9-6446-4889-902a-3242cf57a194","address_id":"46c63624-455f-4ec2-a02e-899fbbdbbb18"}},{"id":"611a6aef-1596-4915-8e33-869975eb7888","type":"Feature","feature_type":"anchor","geometry":{"type":"Point","coordinates":[30.371728011498806,60.007559512623715]},"properties":{"unit_id":"070cb719-5e52-4d63-ba8c-279de50b1f71","address_id":"8a6475bd-98bc-480d-a560-97676bf49b00"}},{"id":"896e4227-a696-4ee6-89a4-7f963ac8c53c","type":"Feature","feature_type":"anchor","geometry":{"type":"Point","coordinates":[30.371661961975153,60.00757065671332]},"properties":{"unit_id":"abf8af45-37fc-4703-941e-9e5eb62416ca","address_id":"4a615285-3809-43e1-b3f8-1f2138b985e3"}},{"id":"e699c77f-150d-4513-b3bc-d6e1671ff6fe","type":"Feature","feature_type":"anchor","geometry":{"type":"Point","coordinates":[30.37151281862225,60.007595820866293]},"properties":{"unit_id":"40b8279f-4f3c-40de-8d32-d49e12f86912","address_id":"5820a3e4-194b-47c6-83d4-0f17a50531dd"}},{"id":"22ad10e1-feb3-4d2e-8c47-4209a538ba21","type":"Feature","feature_type":"anchor","geometry":{"type":"Point","coordinates":[30.371429724231039,60.007609840929668]},"properties":{"unit_id":"7f2fea9c-293a-4462-9399-ddffd92fb43b","address_id":"254808c7-3adc-4c73-92e6-dc4a6013c442"}},{"id":"cec3d23f-8597-4395-92ec-82be4ee38534","type":"Feature","feature_type":"anchor","geometry":{"type":"Point","coordinates":[30.372183963365657,60.00748258204068]},"properties":{"unit_id":"9fb5932d-28dc-4318-ba9f-0f54df5ccdcf","address_id":"5924706f-de11-4a9e-a4e4-f706e1c0b95a"}},{"id":"99acaa6c-5430-427c-aa73-e0be50de1609","type":"Feature","feature_type":"anchor","geometry":{"type":"Point","coordinates":[30.372250012164422,60.007471437951075]},"properties":{"unit_id":"60679c26-769f-433d-9e3e-501da850bc65","address_id":"2b1dabcb-f608-4008-a483-a0423e823871"}},{"id":"0bc59000-87f1-4136-ac5e-afb3eb4bd37b","type":"Feature","feature_type":"anchor","geometry":{"type":"Point","coordinates":[30.372382110244175,60.007449149771872]},"properties":{"unit_id":"36ec1a2e-a595-4fa6-9850-705cfa788a30","address_id":"0457ac6f-7e42-4ee5-8b22-5700720726d4"}},{"id":"ef6fdd51-4af4-4a5e-9ec5-1e1ffb41fd09","type":"Feature","feature_type":"anchor","geometry":{"type":"Point","coordinates":[30.372316061489922,60.007460293861477]},"properties":{"unit_id":"ffdf5e3b-a80f-4f90-9871-81d34bf91f86","address_id":"20a275ea-c23f-4d2f-b290-2298281a5e52"}},{"id":"186c4824-2228-4811-98aa-f00ba6a3cde3","type":"Feature","feature_type":"anchor","geometry":{"type":"Point","coordinates":[30.372448159525174,60.00743800540782]},"properties":{"unit_id":"7a7bfb81-5304-46ca-8125-b406495267e8","address_id":"416b0f8b-abd6-43aa-acdc-fe2be7c7b7ef"}},{"id":"5808ecdc-0d7c-4b25-9bc5-523b701e5e93","type":"Feature","feature_type":"anchor","geometry":{"type":"Point","coordinates":[30.372514208234914,60.007426861318216]},"properties":{"unit_id":"07775b7b-d0f8-4646-9360-5e2e76bb7118","address_id":"e5edde7b-39bc-4948-bc33-55ecce1438a7"}},{"id":"f5260cb3-8356-487c-99b6-af6a173f1943","type":"Feature","feature_type":"anchor","geometry":{"type":"Point","coordinates":[30.372581322524692,60.0074155374631]},"properties":{"unit_id":"86a6eb70-7438-4596-8104-af36841be536","address_id":"87e5b8e5-c919-43d9-9f2c-6b62991f6fcb"}},{"id":"4471d4fc-d159-4b36-ac3c-9ce8898502be","type":"Feature","feature_type":"anchor","geometry":{"type":"Point","coordinates":[30.372698026431355,60.007426694177454]},"properties":{"unit_id":"69801f35-a0cd-42b8-a633-f796cd6e6bfa","address_id":"b805fc79-b247-4ad7-ba82-0af42ef45df3"}},{"id":"a3a151b9-5991-4010-8511-bda5a43cdfbc","type":"Feature","feature_type":"anchor","geometry":{"type":"Point","coordinates":[30.373251984224535,60.007333227362757]},"properties":{"unit_id":"95cad370-776e-485b-8afb-ba3d0242725b","address_id":"ef05bd1f-feb1-4ca5-bf12-b027b2698e0c"}},{"id":"772f7094-d538-4943-8f2a-c1897169e877","type":"Feature","feature_type":"anchor","geometry":{"type":"Point","coordinates":[30.373451675142775,60.007268686603169]},"properties":{"unit_id":"9895e276-f790-4068-8d7a-4060ae652924","address_id":"4212b30f-1dff-40f9-a626-37c44047afc7"}},{"id":"13f7c608-9052-478c-920a-eabfc5983e25","type":"Feature","feature_type":"anchor","geometry":{"type":"Point","coordinates":[30.373517723788872,60.00725754223911]},"properties":{"unit_id":"95257c81-0c9f-4207-918a-4bb2ac96d36a","address_id":"77c50669-f800-42b8-ae5c-c5f03d6f0efa"}},{"id":"2f660619-33b5-49da-af40-728e49beb420","type":"Feature","feature_type":"anchor","geometry":{"type":"Point","coordinates":[30.373357928612574,60.007284504047227]},"properties":{"unit_id":"c5f2074e-fea3-4bbd-b81a-fad46c260265","address_id":"ef7b92d8-f51f-4920-9074-5a56a0e7ffdc"}},{"id":"627c0b9b-cc0f-4465-bf93-5df47f015799","type":"Feature","feature_type":"anchor","geometry":{"type":"Point","coordinates":[30.37365621267158,60.007234175741274]},"properties":{"unit_id":"be7675f0-5869-4233-839e-18e0cbb37afc","address_id":"9353311d-ab86-4f34-b28c-eb5a457ca454"}},{"id":"5b05da23-726a-4658-8ddd-0a0e59f2fa18","type":"Feature","feature_type":"anchor","geometry":{"type":"Point","coordinates":[30.373896331105339,60.007155695058053]},"properties":{"unit_id":"52e1ae38-dc62-4cac-9997-bc44e4ae6e03","address_id":"f948d125-3d2b-45d9-bb5a-8684dd3d3725"}},{"id":"4d95e4bd-8082-41e2-b4a9-fabcf5f03c10","type":"Feature","feature_type":"anchor","geometry":{"type":"Point","coordinates":[30.373946613254784,60.0072231439022]},"properties":{"unit_id":"a0713931-1463-4245-b551-850516d298cc","address_id":"6354eb2d-a118-452b-bb71-f8cb0300ae90"}},{"id":"d67bdb96-5669-4c0f-98e4-f491b8cc0af4","type":"Feature","feature_type":"anchor","geometry":{"type":"Point","coordinates":[30.373847540299963,60.007239860173833]},"properties":{"unit_id":"8e239e43-dd4c-4b5e-be86-ad6776e4999d","address_id":"59557760-0113-411c-9a72-c848581bcfab"}},{"id":"cb99e8c9-d722-4909-b198-ceca944f1f4d","type":"Feature","feature_type":"anchor","geometry":{"type":"Point","coordinates":[30.374045685885037,60.007206427630571]},"properties":{"unit_id":"e05e213b-1f71-44e0-8f9d-5188a48398e1","address_id":"6ece3ed1-96e9-4552-a25a-4b038d87ad5b"}},{"id":"5f5427af-d98c-4857-9099-a8dc78920d2f","type":"Feature","feature_type":"anchor","geometry":{"type":"Point","coordinates":[30.37159591297824,60.007581800802917]},"properties":{"unit_id":"3571fc30-8a8c-493a-ac07-d58b67804640","address_id":"4fa077ae-3079-498f-a69a-38e364a9351e"}},{"id":"c429a79f-def3-4302-bc5f-023d250bc7a4","type":"Feature","feature_type":"anchor","geometry":{"type":"Point","coordinates":[30.374118552244418,60.00715616656516]},"properties":{"unit_id":"86517bd5-445f-4a7d-b02a-a7dda8056bc5","address_id":"b6cc90dc-cfae-450f-8041-aa4294b0d7cf"}},{"id":"fa1269c8-9b28-49ac-8b1f-0e629473846a","type":"Feature","feature_type":"anchor","geometry":{"type":"Point","coordinates":[30.374180339389447,60.007145741537613]},"properties":{"unit_id":"72a81a25-3f32-4993-90d6-b379a737e6b7","address_id":"fb0a4db1-781a-44b5-9401-b479862f5cdf"}},{"id":"74052633-6ce6-49a0-b1f9-92393617d476","type":"Feature","feature_type":"anchor","geometry":{"type":"Point","coordinates":[30.374242126515,60.007135316235612]},"properties":{"unit_id":"d035cdfc-4444-4d9c-8b2d-64d5aed4b325","address_id":"d9db0aab-f651-4e29-926f-f128e0acc69e"}},{"id":"47b58dcf-1411-4166-82ce-bbe91d6e7791","type":"Feature","feature_type":"anchor","geometry":{"type":"Point","coordinates":[30.374303913621077,60.007124891208065]},"properties":{"unit_id":"286e3c63-6a50-452d-9a15-0b95c3bf3ac0","address_id":"e06c773c-a52c-4da7-aacc-5b9a38228c5d"}},{"id":"6999f0f4-458a-46f6-b40a-fc582af8e786","type":"Feature","feature_type":"anchor","geometry":{"type":"Point","coordinates":[30.374365700982175,60.007114465906064]},"properties":{"unit_id":"50efe979-640f-4253-a40b-d6235432c172","address_id":"41e4a32b-7b90-4718-bcc8-b50c38c81af8"}},{"id":"379ea9b3-5f99-4b89-804a-a322e6966a8d","type":"Feature","feature_type":"anchor","geometry":{"type":"Point","coordinates":[30.374427488049296,60.007104040878517]},"properties":{"unit_id":"7de0e1f5-ac80-4f72-9159-5b83b6f0b3db","address_id":"dc95f110-d648-4f53-8d1f-5500dc8046fc"}},{"id":"86ba29de-7d1e-4196-bd2e-cf400036d882","type":"Feature","feature_type":"anchor","geometry":{"type":"Point","coordinates":[30.37448607914466,60.007094154873066]},"properties":{"unit_id":"ec85e72a-0e5f-4054-b494-425e6e0eb80f","address_id":"023e2e78-e351-4c6d-88fa-d09a47caa216"}},{"id":"327f75a3-3310-4ee7-bf31-7f30fb37ec7a","type":"Feature","feature_type":"anchor","geometry":{"type":"Point","coordinates":[30.373912097728535,60.007361849874876]},"properties":{"unit_id":"a607e432-1ef9-4098-ab66-7863b74fb43f","address_id":"785da1b5-b06c-4418-a92c-7188247e9fc7"}},{"id":"feee9279-0db8-4a97-8c4f-1a1ae9617d44","type":"Feature","feature_type":"anchor","geometry":{"type":"Point","coordinates":[30.3744594730313,60.007054745332312]},"properties":{"unit_id":"82739836-a218-472b-a9f7-3362dcf1de91","address_id":"ff798aef-3b67-4533-9a6f-68a4f857204b"}},{"id":"f702a045-06c4-4146-b226-2c3fcc468ffc","type":"Feature","feature_type":"anchor","geometry":{"type":"Point","coordinates":[30.374301115254291,60.006799089405348]},"properties":{"unit_id":"3010ec00-e181-4193-848e-bb2dc370b8cc","address_id":"e5e71206-fd04-4deb-b160-28091e020609"}},{"id":"c0a00f1f-ef18-4275-84bf-fab7fca60532","type":"Feature","feature_type":"anchor","geometry":{"type":"Point","coordinates":[30.374524706889943,60.006792804199193]},"properties":{"unit_id":"b5ac505e-c1eb-4da3-a127-0e42d7d92273","address_id":"0358555a-5ea5-4845-be62-43403b304db4"}},{"id":"843cdcb0-e314-4239-b1df-695bd05890ce","type":"Feature","feature_type":"anchor","geometry":{"type":"Point","coordinates":[30.374546998340413,60.006825823144545]},"properties":{"unit_id":"37d87cc5-5732-4832-b390-a7fde2ff81ba","address_id":"20cc1459-963a-4bf1-998c-f12399dd0d2c"}},{"id":"4e548778-608b-4583-8a5c-1b564b508797","type":"Feature","feature_type":"anchor","geometry":{"type":"Point","coordinates":[30.374569289950387,60.006858841815443]},"properties":{"unit_id":"798e3241-0648-4fe4-9de4-0df398734ea3","address_id":"10a16bb9-49bd-40d0-af1e-a1bb1d2348a5"}},{"id":"1bc36125-3a02-49dc-b3f8-42fd17180922","type":"Feature","feature_type":"anchor","geometry":{"type":"Point","coordinates":[30.374591581582614,60.006891860760796]},"properties":{"unit_id":"08403602-574f-47da-afcb-0cd4c934acbd","address_id":"d8092f92-5377-4109-88ee-ba8b753bcc65"}},{"id":"f551d1a6-ec7b-4edb-8669-deea9b17e103","type":"Feature","feature_type":"anchor","geometry":{"type":"Point","coordinates":[30.374613873237095,60.006924879431693]},"properties":{"unit_id":"6d2f3eca-ff45-40c6-8f3e-b7a7465e54a1","address_id":"e65d3a4d-d8bd-4bd0-9a85-c9e6a15bab08"}},{"id":"acfe26c5-2312-4347-8094-9fcc7e61a6ff","type":"Feature","feature_type":"anchor","geometry":{"type":"Point","coordinates":[30.374707713878941,60.007063877969316]},"properties":{"unit_id":"429d9654-da48-46f1-ad36-03bc8138cc60","address_id":"e9dfb612-e865-4aba-ad13-c8a557ca3dd6"}},{"id":"d2f9a730-91d2-41a4-8ca6-3e4603eb5b70","type":"Feature","feature_type":"anchor","geometry":{"type":"Point","coordinates":[30.374752297442047,60.007129915585566]},"properties":{"unit_id":"da4248e0-275b-4445-bd0c-1cf882aba19b","address_id":"dc2e0130-6715-4da0-8c7b-a26de4854b1b"}},{"id":"e480adf8-1634-4292-8a82-a8357db9d3b8","type":"Feature","feature_type":"anchor","geometry":{"type":"Point","coordinates":[30.374651265584795,60.006980265872635]},"properties":{"unit_id":"0841883b-0fd9-45fa-96ca-ef9eae482e1b","address_id":"bcd4f938-6742-4454-b74d-1ce1f30da7ac"}},{"id":"a915bb58-3b02-46e9-b596-54762e12fe82","type":"Feature","feature_type":"anchor","geometry":{"type":"Point","coordinates":[30.374796880956929,60.007195953201816]},"properties":{"unit_id":"c9d663af-5d4b-4fdd-acf8-bdbe4eeee082","address_id":"db3f51bb-5460-4fe5-b10d-cae5ace60922"}},{"id":"f023e506-c776-4f92-8e80-b6459a1daedd","type":"Feature","feature_type":"anchor","geometry":{"type":"Point","coordinates":[30.374838228674342,60.007257197528446]},"properties":{"unit_id":"86541214-1044-47ff-a688-b2100023263c","address_id":"98d1f831-8635-4257-8c95-da5add29c625"}},{"id":"cdb1ba9e-d93a-45be-8cfd-66017bdc1b70","type":"Feature","feature_type":"anchor","geometry":{"type":"Point","coordinates":[30.374882812498054,60.007323235144696]},"properties":{"unit_id":"a7ad5112-da5d-41c2-998c-b81188e25222","address_id":"462b1df1-cd1c-46bb-a6b2-4211263a2dd9"}},{"id":"e3cc6b68-3837-4b04-a304-b2a2c2e9e0e5","type":"Feature","feature_type":"anchor","geometry":{"type":"Point","coordinates":[30.374905104306045,60.007356254090048]},"properties":{"unit_id":"be1603cc-5393-4b6a-aeea-aa24c64610ef","address_id":"7c94145b-c74d-4535-a86a-8dd4fac37cd5"}},{"id":"0a2863a8-979e-403b-8ae8-f8a036698d50","type":"Feature","feature_type":"anchor","geometry":{"type":"Point","coordinates":[30.374860520575073,60.0072902164738]},"properties":{"unit_id":"b08b782e-b13c-4377-a31e-cd185f2ded33","address_id":"f1369389-2f6c-45ed-a547-7996013a8def"}},{"id":"4ac3d3d1-be87-488a-ae04-0205dfe0eb83","type":"Feature","feature_type":"anchor","geometry":{"type":"Point","coordinates":[30.37496838477913,60.007449984926772]},"properties":{"unit_id":"7914f295-b317-483a-b15c-f362a31d0c90","address_id":"08b75408-2ae4-4742-8a41-56f41d971597"}},{"id":"14faea7d-b689-4e5a-911b-64801f3d0c40","type":"Feature","feature_type":"anchor","geometry":{"type":"Point","coordinates":[30.374936744657418,60.007403119371183]},"properties":{"unit_id":"17895583-d5c6-45bb-a849-38f2607932fa","address_id":"17ef7a39-e3f3-4997-acdb-9cb96e6b3dda"}},{"id":"d3a293f0-1cc2-42bf-868f-32feb240c521","type":"Feature","feature_type":"anchor","geometry":{"type":"Point","coordinates":[30.373025746592678,60.007572304518121]},"properties":{"unit_id":"dd4c03b6-da81-497f-9de9-d7cd49521477","address_id":"e36d5026-6dbb-4abf-b1f6-3dc4579758a0"}},{"id":"61504868-28b1-4479-a33d-03d191f75e8b","type":"Feature","feature_type":"anchor","geometry":{"type":"Point","coordinates":[30.372993990972073,60.007636589214769]},"properties":{"unit_id":"b795d4ad-b115-4a73-b7f6-cae2777d1223","address_id":"471f1855-da6a-48ff-9502-7e8ae87591f3"}},{"id":"430e134d-e383-4a63-9935-43eb2f36f10b","type":"Feature","feature_type":"anchor","geometry":{"type":"Point","coordinates":[30.373271085057976,60.007590025281019]},"properties":{"unit_id":"4b55a781-715b-4815-a7db-ce6bbe9ac281","address_id":"b1bd2ce8-bf22-4e89-83d5-f533f4f45958"}},{"id":"1867881c-68ac-4145-93d0-33de7133d184","type":"Feature","feature_type":"anchor","geometry":{"type":"Point","coordinates":[30.373201511326631,60.007715474164563]},"properties":{"unit_id":"2475eeb4-fa83-46d1-ba83-b9cdee6ac06f","address_id":"d5339ff1-21be-4afd-a810-0d0ba2415e8b"}},{"id":"df420b1d-ce3a-45bb-aa15-102f40f81dff","type":"Feature","feature_type":"anchor","geometry":{"type":"Point","coordinates":[30.373277789010341,60.007550739243285]},"properties":{"unit_id":"8eaaefdb-d1ee-409a-99e8-c7829f046122","address_id":"1e2b8e08-0e51-41a5-9093-18f5d27c41de"}},{"id":"6e3fd651-340a-4be4-b60a-4d6c9ea658f6","type":"Feature","feature_type":"anchor","geometry":{"type":"Point","coordinates":[30.373143181458214,60.007442753138541]},"properties":{"unit_id":"dc041240-cd57-4ae5-a1e9-406a31cf6455","address_id":"6ef6fa9d-5164-4643-98c0-e55513bb2553"}},{"id":"c84d1066-5e1f-41a6-bacd-66d016912fdc","type":"Feature","feature_type":"anchor","geometry":{"type":"Point","coordinates":[30.373240266424038,60.007474066095448]},"properties":{"unit_id":"105c26db-6ea8-4875-95f8-6e4a96d16749","address_id":"3063bcc6-cf6c-4220-bb9d-c5b64cc2c929"}},{"id":"99d9c5e7-cee6-446f-a8ab-561709ced32f","type":"Feature","feature_type":"anchor","geometry":{"type":"Point","coordinates":[30.372917336733835,60.007480858761809]},"properties":{"unit_id":"669de416-f07b-4717-9a9e-9bffda3e0788","address_id":"08416839-31b9-4b52-b59a-2bf354645b35"}},{"id":"d35f958c-5c20-4223-9379-d15047bd71b9","type":"Feature","feature_type":"anchor","geometry":{"type":"Point","coordinates":[30.372172819143753,60.007942430184173]},"properties":{"unit_id":"a981fbeb-e749-4151-952f-2c1f80f0ada7","address_id":"6b87c276-4ecf-4127-8127-eef81cbc942b"}},{"id":"7e1762ec-cd0e-4804-833d-764356a44d6e","type":"Feature","feature_type":"anchor","geometry":{"type":"Point","coordinates":[30.372360314042083,60.007910795296048]},"properties":{"unit_id":"633e537b-74ea-494d-93d3-7d073b259d64","address_id":"36f116bb-d129-44c5-8738-d6dedfb216f3"}},{"id":"a5b65495-182e-4aa1-a426-5f97b5207f31","type":"Feature","feature_type":"anchor","geometry":{"type":"Point","coordinates":[30.372266566615338,60.007926612740114]},"properties":{"unit_id":"98a21c1d-c7c7-4a42-a878-e69bd88b52f6","address_id":"a05e7e3c-c986-4b0d-b0d0-eb7dafad4f2b"}},{"id":"b21604d5-3520-4745-bacd-747fcc52ae43","type":"Feature","feature_type":"anchor","geometry":{"type":"Point","coordinates":[30.374996575326826,60.007463618288448]},"properties":{"unit_id":"4916303a-6ee3-4055-839f-f4d6bb582eb0","address_id":"301944a3-3e44-4de7-aed0-5beb19cc2e6f"}},{"id":"ecb529eb-f9bc-43f6-9a48-22c1a328cfe9","type":"Feature","feature_type":"anchor","geometry":{"type":"Point","coordinates":[30.371327649700717,60.008082657439658]},"properties":{"unit_id":"84d508b5-1249-4041-bff3-23ed5d771b3f","address_id":"fe1fd0aa-eb2e-4c8a-9733-1216374d5533"}},{"id":"b5a28c85-5e0c-4e5a-b22f-00af65155110","type":"Feature","feature_type":"anchor","geometry":{"type":"Point","coordinates":[30.370838704725919,60.007358374225305]},"properties":{"unit_id":"b00edf9d-2d23-4411-bc04-21f41a17f88e","address_id":"ac3ce38a-4f10-4c7c-8d03-88f42a99793f"}},{"id":"8b32da77-6f73-4a85-b384-55dbb40de2aa","type":"Feature","feature_type":"anchor","geometry":{"type":"Point","coordinates":[30.374507594890964,60.0067393350741]},"properties":{"unit_id":"7977b9bd-291a-4f2e-b3d9-0c8980354013","address_id":"feb3a6cc-5fc7-48df-82ce-226f89873e93"}},{"id":"465d4713-84ce-4935-bfa3-4073e1f6bf7f","type":"Feature","feature_type":"anchor","geometry":{"type":"Point","coordinates":[30.374790094008198,60.0075233726197]},"properties":{"unit_id":"30738ec6-d209-4efc-bf17-c09bb8abe2dc","address_id":"ad453168-318d-4404-a545-f6a6d9f143ec"}},{"id":"b07fa4e6-4926-4b37-9710-543fbc3a6c73","type":"Feature","feature_type":"anchor","geometry":{"type":"Point","coordinates":[30.37209399350181,60.007670983160466]},"properties":{"unit_id":"acc16099-dd47-453f-b369-ee77c54d4c61","address_id":"cb361745-6d0d-4d81-8299-6525f96595c8"}},{"id":"93394323-1081-44da-801c-2c72ee2dc791","type":"Feature","feature_type":"anchor","geometry":{"type":"Point","coordinates":[30.37209399350181,60.007670983160466]},"properties":{"unit_id":"0fa9181b-68fc-4ea1-8fa2-42431c0907ba","address_id":"9ff61e81-ef9d-4c4d-8f94-4229175b3bf5"}},{"id":"17267c1d-514c-49a4-bfbf-ef8c58abb484","type":"Feature","feature_type":"anchor","geometry":{"type":"Point","coordinates":[30.374028588197625,60.007344567684946]},"properties":{"unit_id":"fdc31285-bb32-4328-a2f5-9d950390c420","address_id":"fa93637a-0caa-4a27-bd90-bf5ca1704c22"}},{"id":"dc889c40-7f7b-4716-bb67-1489c8cc8d65","type":"Feature","feature_type":"anchor","geometry":{"type":"Point","coordinates":[30.374028588197625,60.007344567684946]},"properties":{"unit_id":"162c8e79-aad8-4902-bcf2-cf5ba3a7637f","address_id":"c3918c40-ef3f-4fda-a27a-452f280c80e2"}},{"id":"1bb03a54-46c1-45ff-9ab4-1d5be04666aa","type":"Feature","feature_type":"anchor","geometry":{"type":"Point","coordinates":[30.3744594730313,60.007054745332312]},"properties":{"unit_id":"65cfa8fa-2f16-4371-852b-61b1d5d4ef02","address_id":"15218961-b42a-48da-9722-9c454e61d0ac"}},{"id":"4e327ed6-f65c-4aab-96b8-9efaaceff0ea","type":"Feature","feature_type":"anchor","geometry":{"type":"Point","coordinates":[30.374511593009174,60.007082731392174]},"properties":{"unit_id":"72a1339f-af06-42fb-aa4c-8c2735c628ad","address_id":"9fe411fd-d2aa-4bae-8975-6044386514f7"}},{"id":"9f2a30aa-c341-4d79-a8a1-83f097f68d67","type":"Feature","feature_type":"anchor","geometry":{"type":"Point","coordinates":[30.373045473694546,60.007484342644908]},"properties":{"unit_id":"ba4efc0b-4b91-4ecc-bc11-930250808f26","address_id":"70c48169-9f39-4b56-b5ce-6546fdb730ae"}},{"id":"158a9d2c-a45f-45ec-b274-57843c0af0fe","type":"Feature","feature_type":"anchor","geometry":{"type":"Point","coordinates":[30.374996575326826,60.007463618288448]},"properties":{"unit_id":"322b5e24-d3f8-4b3e-a438-da3b45b6cda7","address_id":"5dd53c4a-0220-4cc9-b8cd-edcfc4bfe090"}},{"id":"83d4b5f3-c44b-4054-9d20-bb5e478b85d9","type":"Feature","feature_type":"anchor","geometry":{"type":"Point","coordinates":[30.371327649700717,60.008082657439658]},"properties":{"unit_id":"73148e79-5be4-46a6-871d-3e12fc443362","address_id":"56b5a1e0-b5c2-4618-a606-b152ce8917ef"}},{"id":"0b4b916f-89b1-4c59-bf2a-8142e3d17451","type":"Feature","feature_type":"anchor","geometry":{"type":"Point","coordinates":[30.370838704725919,60.007358374225305]},"properties":{"unit_id":"0f2ddb2c-60ad-4788-a4b8-1b9a028a78e2","address_id":"51f69333-9463-4ec1-bb6a-e7879758096e"}},{"id":"82659ed2-e973-4fdc-9694-29ccb2e1c048","type":"Feature","feature_type":"anchor","geometry":{"type":"Point","coordinates":[30.374507594890964,60.0067393350741]},"properties":{"unit_id":"d2011ab9-6f0d-4c93-8b01-175b4fe8a4c6","address_id":"89382e42-a31d-4af5-bbb4-9e3e9ad92f4e"}},{"id":"3c11ef53-b5b1-46b5-85c5-50c7b0911d98","type":"Feature","feature_type":"anchor","geometry":{"type":"Point","coordinates":[30.371514502835709,60.008155537397933]},"properties":{"unit_id":"6d3c60c2-f047-446e-9dbb-2621478fc453","address_id":"edc48e1f-fa00-43a4-a51b-d1371b00e6e8"}},{"id":"0abcbee0-e0fb-48c5-8e92-857e9cf6f685","type":"Feature","feature_type":"anchor","geometry":{"type":"Point","coordinates":[30.375070509265345,60.007555551470034]},"properties":{"unit_id":"1f82d0b9-fa47-40d6-8092-68ec1755dd4f","address_id":"4a713b3e-bf8e-462a-95d5-580b4574a1f6"}},{"id":"04bcb3ba-3258-4598-8153-d6e66bb99469","type":"Feature","feature_type":"anchor","geometry":{"type":"Point","coordinates":[30.374874493801116,60.007588624482267]},"properties":{"unit_id":"d9db81c5-f83e-4653-8f70-e3a16e3b345d","address_id":"58e6c2e6-76ff-40b2-8839-e3ad82f1e24b"}},{"id":"3e6761bb-1e3c-41a7-bea4-30e0507cc8de","type":"Feature","feature_type":"anchor","geometry":{"type":"Point","coordinates":[30.37171052193451,60.008122464385707]},"properties":{"unit_id":"eed76ea1-ba5f-4bf4-bd36-e784854ef737","address_id":"bc185709-c5c6-42b2-8bb8-d07112a4d46b"}},{"id":"9b6bd468-642f-4c03-a294-b4c3e2627191","type":"Feature","feature_type":"anchor","geometry":{"type":"Point","coordinates":[30.371707754771009,60.008037507478313]},"properties":{"unit_id":"71335841-bedf-4204-92db-929218ce6b39","address_id":"206a1f71-c0a2-4f69-9070-a09c2c4474e3"}},{"id":"c579ef71-1186-4923-ab79-123c5f2033e2","type":"Feature","feature_type":"anchor","geometry":{"type":"Point","coordinates":[30.374493989054109,60.007105871193346]},"properties":{"unit_id":"733bf6b5-1c52-4cfd-8444-a66ba375ab4a","address_id":"4fa93509-689f-4544-9238-c19e4653dee1"}},{"id":"9487f0ee-c6a7-4e23-af7f-ddd2400325b9","type":"Feature","feature_type":"anchor","geometry":{"type":"Point","coordinates":[30.371427061033135,60.007610290480677]},"properties":{"unit_id":"44f12423-7a58-4383-83af-9507eaf90580","address_id":"12cef260-a30c-494c-8243-dba71687c194"}},{"id":"a2ede2e4-ee3f-4493-9849-ef19349bb47a","type":"Feature","feature_type":"anchor","geometry":{"type":"Point","coordinates":[30.374179595567472,60.007568243464213]},"properties":{"unit_id":"4c640e97-8aec-423c-8e76-77942373325d","address_id":"8e2eac64-c113-47e3-acb7-6a29638831cc"}},{"id":"c481e58f-9c43-4768-a903-a052cbdba10f","type":"Feature","feature_type":"anchor","geometry":{"type":"Point","coordinates":[30.373999132818255,60.007589200555259]},"properties":{"unit_id":"802666e1-68ea-4f96-82c0-f0793664260b","address_id":"14ba01ca-6b89-41c6-b300-f6f61a1a385f"}},{"id":"536b6242-8895-4ab0-9983-88437561ed41","type":"Feature","feature_type":"anchor","geometry":{"type":"Point","coordinates":[30.3743485522642,60.007530244602449]},"properties":{"unit_id":"ed6558d1-2a2d-4e23-ae28-e9c5f126a5d9","address_id":"1abe0866-c5dd-4a9a-8dc3-ce54a30899a4"}},{"id":"8cb93a27-23d6-4595-bf67-a311681409a0","type":"Feature","feature_type":"anchor","geometry":{"type":"Point","coordinates":[30.374583611216938,60.0074882110341]},"properties":{"unit_id":"23d85377-8820-45ba-91c9-2b3a01548ada","address_id":"afb541ef-b4ba-46a9-9c9f-3728f938e447"}},{"id":"a93c43d0-a0fc-43b4-bf4f-8f0e6f8b3844","type":"Feature","feature_type":"anchor","geometry":{"type":"Point","coordinates":[30.371218806242318,60.00731322426396]},"properties":{"unit_id":"d5e0df5b-1c3e-4c6e-bb5c-e15e7e98c906","address_id":"2c926edf-3c13-4ad0-996e-007fc0ea2449"}},{"id":"f421d345-814d-4781-88dd-111debc645a8","type":"Feature","feature_type":"anchor","geometry":{"type":"Point","coordinates":[30.372086802950044,60.007660331985157]},"properties":{"unit_id":"0aa9636f-c3ea-4ea5-8d8f-5a2c33da803d","address_id":"22945245-f3d8-4ad6-82b7-73d908a958f7"}},{"id":"0c9f41d5-84f6-4310-9b51-4b5a5b4361fa","type":"Feature","feature_type":"anchor","geometry":{"type":"Point","coordinates":[30.37402139736982,60.007333916509637]},"properties":{"unit_id":"d1d9e9b5-d7a8-43d2-8ee9-7bf8a7f0ca85","address_id":"0aacd42b-8fb5-4397-9220-f06204ba0ed7"}},{"id":"3df45df6-e212-470d-858a-9a9deecb7dcc","type":"Feature","feature_type":"anchor","geometry":{"type":"Point","coordinates":[30.37298102123426,60.007613862188151]},"properties":{"unit_id":"4b287f11-5324-406a-b8f1-eea67b37d26a","address_id":"37bce4b1-0dd9-40e9-8bff-46d6578680e4"}},{"id":"f2e183e6-2a32-4b89-8432-173b5b96edc8","type":"Feature","feature_type":"anchor","geometry":{"type":"Point","coordinates":[30.372316855347343,60.007795923760447]},"properties":{"unit_id":"c2695e81-d5d9-4526-875d-dad026ea96bd","address_id":"fa3d5f62-5932-440e-a611-4470a2053682"}},{"id":"863e6454-c1eb-4266-9464-f6c954972d14","type":"Feature","feature_type":"anchor","geometry":{"type":"Point","coordinates":[30.372068927857036,60.007837755332744]},"properties":{"unit_id":"b70645f0-375c-446e-bcc7-1d838434a1a5","address_id":"9018c212-193f-4933-bd11-b22bf657934a"}},{"id":"35dab587-936b-4690-b97d-460eb70f35a7","type":"Feature","feature_type":"anchor","geometry":{"type":"Point","coordinates":[30.372278851355578,60.007694369418786]},"properties":{"unit_id":"a21baf6f-6d09-4c3b-a973-2d584b44e125","address_id":"83a8c5c0-f3ac-4204-ab7e-c26870904eb4"}},{"id":"f16c518b-7c43-4427-95d6-fc7ce334f5a6","type":"Feature","feature_type":"anchor","geometry":{"type":"Point","coordinates":[30.37197528800759,60.007745588044315]},"properties":{"unit_id":"cf5ed5ee-596f-4df4-a168-166af041c6af","address_id":"01ae436d-d5a3-4acb-adf5-47b697d3f89e"}},{"id":"a40c8de8-e712-4d2f-bc07-ea45dbbffea5","type":"Feature","feature_type":"anchor","geometry":{"type":"Point","coordinates":[30.372141875563237,60.0077981591652]},"properties":{"unit_id":"3bba2ea8-f1c6-49ef-b5ba-f4285dc8bd52","address_id":"d4e75515-9d46-432a-8428-5f53d92b35d9"}},{"id":"7cc0828b-c112-4a0a-903d-6d52f213999d","type":"Feature","feature_type":"anchor","geometry":{"type":"Point","coordinates":[30.372028315859204,60.007731895401186]},"properties":{"unit_id":"a56d0650-d796-445d-8a52-c55d7e1b8658","address_id":"234bf386-544f-487a-b751-341f85870d53"}},{"id":"a2ea28de-c8c8-43db-be4b-d0d8ae487dab","type":"Feature","feature_type":"anchor","geometry":{"type":"Point","coordinates":[30.372220071563291,60.007699541451011]},"properties":{"unit_id":"27d9494e-f9f9-484d-9045-8300332bdd57","address_id":"b85dcc37-9e6f-4207-8497-c32b8a2cc6c8"}},{"id":"fc25e08c-c2da-4ce5-b008-536672598bdf","type":"Feature","feature_type":"anchor","geometry":{"type":"Point","coordinates":[30.371794060451212,60.00754836853411]},"properties":{"unit_id":"df492c74-e70e-42ad-98a9-cce6f4f2d4b1","address_id":"c3c6493c-2b38-4e85-a7f9-8f014ae3b4f4"}},{"id":"24206b02-6a3d-4377-a2da-5b4c0f714871","type":"Feature","feature_type":"anchor","geometry":{"type":"Point","coordinates":[30.371983259755527,60.007506954402039]},"properties":{"unit_id":"1cbe883c-61c6-4668-808a-3907668bf4e6","address_id":"063733f7-7f79-4102-a108-3d3bd7c344b6"}},{"id":"fd4aa10d-467e-4595-a244-1e1c11425273","type":"Feature","feature_type":"anchor","geometry":{"type":"Point","coordinates":[30.373662604603169,60.007233097148195]},"properties":{"unit_id":"8e525377-204a-4e7f-bff7-68614b542645","address_id":"e22669db-9582-4c58-87f4-f0c7a9cc8649"}},{"id":"01f19688-b3b9-4d41-b7e4-d32f33f49bc5","type":"Feature","feature_type":"anchor","geometry":{"type":"Point","coordinates":[30.373728653178187,60.00722195305859]},"properties":{"unit_id":"e018fcf4-890d-4057-a978-d975dda9eb1c","address_id":"3a75ea12-0c13-4346-a656-aa607638ed46"}},{"id":"8f75cf51-9c4d-4ccd-ac3b-848d5c02613b","type":"Feature","feature_type":"anchor","geometry":{"type":"Point","coordinates":[30.37346232809859,60.007266888948031]},"properties":{"unit_id":"148c77a9-61d5-43e4-a56e-e67d32bfe045","address_id":"63df80f7-1697-44aa-be2b-d33c40b62551"}},{"id":"7d6e133a-6247-4f6a-a551-7e441f0b485a","type":"Feature","feature_type":"anchor","geometry":{"type":"Point","coordinates":[30.373330231021306,60.007289177401681]},"properties":{"unit_id":"451a11b8-4099-492d-8b86-21f99aa94aeb","address_id":"819f1bf1-46bb-41f4-bb5d-c43c13321049"}},{"id":"a1862bd7-543e-4be5-aa21-c15f8c08426f","type":"Feature","feature_type":"anchor","geometry":{"type":"Point","coordinates":[30.372642659082342,60.007344679661017]},"properties":{"unit_id":"7cbacd7f-84b8-4aae-86e6-d73086315410","address_id":"020e98ed-d207-432b-be11-57dcec867b93"}},{"id":"d6242d78-19e5-4092-b5a4-6b1de90afcd1","type":"Feature","feature_type":"anchor","geometry":{"type":"Point","coordinates":[30.37173227227948,60.007558793561657]},"properties":{"unit_id":"fe3f6b2e-ccfc-4b39-9676-3b9d72eb35a3","address_id":"e78f9efe-e475-43d1-ae0e-4b538ec8652e"}},{"id":"eab451d1-0d63-41ba-9f13-5d3d4c338ab1","type":"Feature","feature_type":"anchor","geometry":{"type":"Point","coordinates":[30.371670484637256,60.007569218863658]},"properties":{"unit_id":"5d6ec619-9439-4835-92af-b62e3aae0783","address_id":"c5f8c767-dc52-4979-9984-42ad5bd9b7e9"}},{"id":"a3ce9208-e437-4fe9-bd05-94bb84e0a5b4","type":"Feature","feature_type":"anchor","geometry":{"type":"Point","coordinates":[30.371608696426577,60.007579643891205]},"properties":{"unit_id":"67e3d787-eb3a-4b58-8b27-e30b02eb50a3","address_id":"45886d34-c58f-4c0f-b770-1aae6828051e"}},{"id":"b0500f31-84be-40c7-b1c5-0bf1ea64fc81","type":"Feature","feature_type":"anchor","geometry":{"type":"Point","coordinates":[30.371546908745398,60.007590069193206]},"properties":{"unit_id":"6d40cbb1-5b21-4063-b4b0-441443f01127","address_id":"50e15178-81e0-4928-8b4e-bbf786b53a7f"}},{"id":"687eb2fa-7802-42ed-b589-58240ec8bc37","type":"Feature","feature_type":"anchor","geometry":{"type":"Point","coordinates":[30.371485120495763,60.007600494220753]},"properties":{"unit_id":"80466f10-2eeb-4fec-9bcb-5f0bf677413e","address_id":"263aca89-f0f9-423c-9b4e-679cdae77d26"}},{"id":"bdaae184-19fa-4a35-8283-eaf22fea5673","type":"Feature","feature_type":"anchor","geometry":{"type":"Point","coordinates":[30.3712214914761,60.007708943324609]},"properties":{"unit_id":"38e64533-e4c1-4f09-a132-edc544b7b5bd","address_id":"1726716a-5064-489d-ab4d-fb99f60dff78"}},{"id":"2d18d352-08b9-43ce-9578-8f33cd31e925","type":"Feature","feature_type":"anchor","geometry":{"type":"Point","coordinates":[30.371308863483776,60.007661080687939]},"properties":{"unit_id":"26aa8a1b-9292-48f0-874b-237d8f1fd9fc","address_id":"3e06c3e9-7065-4077-8150-158904b3e34f"}},{"id":"0d1687bf-0ef8-43b8-be9e-d1eb3bbf1d17","type":"Feature","feature_type":"anchor","geometry":{"type":"Point","coordinates":[30.371273683639611,60.007615999339386]},"properties":{"unit_id":"1fa6354a-2f41-466d-a5ad-2f728560d4db","address_id":"0f5172e8-e89e-4851-a253-a57499a64462"}},{"id":"4e86ecdc-f52a-4101-8fab-56f84f092cc7","type":"Feature","feature_type":"anchor","geometry":{"type":"Point","coordinates":[30.371144968546545,60.007615174339179]},"properties":{"unit_id":"121cb846-9f41-4a59-8fca-387315258a35","address_id":"33235788-648e-40e5-9dd5-fca683271f0b"}},{"id":"938b677f-e617-4861-a3ae-abaaf2973929","type":"Feature","feature_type":"anchor","geometry":{"type":"Point","coordinates":[30.371283023880011,60.007819677783331]},"properties":{"unit_id":"f0d78bff-0066-4c21-a47e-1556017c03ec","address_id":"2e9ca421-f2c6-4b71-8770-0ce91c47aaa6"}},{"id":"a8389b2b-07d7-41df-85d5-0f97f5b6120f","type":"Feature","feature_type":"anchor","geometry":{"type":"Point","coordinates":[30.371382977554042,60.007777897807856]},"properties":{"unit_id":"560eed01-2cb8-4bf9-a5d4-8cf16418e1ff","address_id":"0447af22-f629-4790-b186-137d86c01469"}},{"id":"64fa9cd9-34e0-49be-b603-72a307ca6128","type":"Feature","feature_type":"anchor","geometry":{"type":"Point","coordinates":[30.371357758539926,60.007733509174045]},"properties":{"unit_id":"d42d6045-99f6-47a7-9c16-2a70650e839f","address_id":"c3f14c56-989a-4081-a7ee-b2d0a592dda5"}},{"id":"7ea81b90-f223-431f-a059-efc1122f43fa","type":"Feature","feature_type":"anchor","geometry":{"type":"Point","coordinates":[30.371163545842997,60.007579412803324]},"properties":{"unit_id":"f1b22b6e-7bd8-49e7-893e-2d3578fc48b0","address_id":"792274ba-9420-404f-ac41-99fd3b910a06"}},{"id":"20b19d15-e311-4e50-89f3-b8592301ca53","type":"Feature","feature_type":"anchor","geometry":{"type":"Point","coordinates":[30.371141255827542,60.007546394132426]},"properties":{"unit_id":"df062306-385e-4884-a589-28a664c78f97","address_id":"a162a691-c184-4cb6-97a2-3b74949cb291"}},{"id":"ad46dbd6-074c-4530-9806-d492f43d372b","type":"Feature","feature_type":"anchor","geometry":{"type":"Point","coordinates":[30.371118965834356,60.007513375187074]},"properties":{"unit_id":"cf310519-e7b8-403d-aeaf-032d766a499a","address_id":"90bd2ec9-9edc-4fc5-8003-68c186d8a978"}},{"id":"8049dd32-f72b-4566-92b4-16d2b82e2f11","type":"Feature","feature_type":"anchor","geometry":{"type":"Point","coordinates":[30.371096675588909,60.007480356516176]},"properties":{"unit_id":"d300288b-9b95-40dc-9593-4b51eccc0912","address_id":"7ecfb336-42e9-4027-8d93-3e231d35d6fc"}},{"id":"74fb0db9-a788-4944-9aeb-d81d24b9348a","type":"Feature","feature_type":"anchor","geometry":{"type":"Point","coordinates":[30.371074385640231,60.007447337570824]},"properties":{"unit_id":"3407dbc7-8145-464e-af47-e9c155e1b517","address_id":"0210f422-0b56-4af7-8455-a78d987f4820"}},{"id":"908f399c-cbd0-48a5-a2db-3e29f6f12b90","type":"Feature","feature_type":"anchor","geometry":{"type":"Point","coordinates":[30.371052095439289,60.007414318899926]},"properties":{"unit_id":"133e4311-b6ae-4ab1-b170-91ae4bb5cbeb","address_id":"88297876-2685-469a-b805-f8f2ce54f30f"}},{"id":"69044ca6-c6b1-4bbf-a722-34c11c18cf0a","type":"Feature","feature_type":"anchor","geometry":{"type":"Point","coordinates":[30.37102980553512,60.007381299954574]},"properties":{"unit_id":"c9af1cda-0d44-4973-8aab-ed536fc2d88e","address_id":"bd3f7e78-a515-48ff-a5b6-3b76fb4d5c26"}},{"id":"9bd6aaf2-a925-4b35-8b0d-b6b46d57c9c8","type":"Feature","feature_type":"anchor","geometry":{"type":"Point","coordinates":[30.371474890911248,60.0080406104232]},"properties":{"unit_id":"e53899a0-da95-4d4e-ab7a-f35602a5e364","address_id":"31c97d9a-b4a5-4d5d-a490-322d6316991f"}},{"id":"ee4c9172-98b0-4067-ac88-50652c73c493","type":"Feature","feature_type":"anchor","geometry":{"type":"Point","coordinates":[30.371452600310455,60.008007591752296]},"properties":{"unit_id":"c5133b94-52b3-4153-abd1-4ef51d9398eb","address_id":"7bd2a4a7-9d64-4134-ba55-678860e01d2e"}},{"id":"29616506-5947-4e8d-8491-27443e186106","type":"Feature","feature_type":"anchor","geometry":{"type":"Point","coordinates":[30.371430310006417,60.0079745730814]},"properties":{"unit_id":"70b71129-4cc4-42f1-ae64-ab208b9bd562","address_id":"325976ae-fcab-40e6-94b7-763196764df2"}},{"id":"548d120d-d4fd-4598-981d-c46bd7cc5586","type":"Feature","feature_type":"anchor","geometry":{"type":"Point","coordinates":[30.37140801972463,60.0079415544105]},"properties":{"unit_id":"f5be9106-e66e-4a93-b394-d60add968f18","address_id":"3cc3d013-28b0-49ef-a702-ee80dc1acc24"}},{"id":"9ca0406e-c088-4e60-885c-0872626b9a10","type":"Feature","feature_type":"anchor","geometry":{"type":"Point","coordinates":[30.371385729190603,60.0079085357396]},"properties":{"unit_id":"74847e6c-d7c5-42c7-88f0-6a497194a331","address_id":"251432e6-65e1-424f-9f84-930ff6372296"}},{"id":"c25f344a-9625-4bb0-a83c-2cccaa9ca1f8","type":"Feature","feature_type":"anchor","geometry":{"type":"Point","coordinates":[30.371363438953342,60.00787551679425]},"properties":{"unit_id":"2d13370e-d42c-47fe-92a2-4b65f17146f4","address_id":"9df32620-0689-4b46-81d0-b1572e3744b0"}},{"id":"6728ee39-6366-4fbc-931b-e1431bdf2436","type":"Feature","feature_type":"anchor","geometry":{"type":"Point","coordinates":[30.371341148738317,60.007842498123352]},"properties":{"unit_id":"4b5d2b40-8921-4d71-96a6-b65fcd080fe7","address_id":"73c1aef5-bf01-4c60-9594-bd123cef3355"}},