{"type":"FeatureCollection","name":"anchor","features":[{"id":"79fc6826-e609-449b-a624-6c14b7042053","type":"Feature","feature_type":"anchor","geometry":{"type":"Point","coordinates":[30.368264008590089,60.007741527264862]},"properties":{"unit_id":"f8496048-a53a-40bd-83be-1ce1a5e4e070","address_id":"9a9d3419-e94c-439b-b540-b6cc292d71f6"}},{"id":"d4dc6f36-8901-422a-97cf-6101123d4ead","type":"Feature","feature_type":"anchor","geometry":{"type":"Point","coordinates":[30.373166995984725,60.007664348303521]},"properties":{"unit_id":"a6c3a189-5a15-40dd-9ff9-0d01d486accc","address_id":"765a936d-b1fa-47d2-90c3-424685e6049c"}},{"id":"e004fb4a-8723-4f37-a4c7-081da24407be","type":"Feature","feature_type":"anchor","geometry":{"type":"Point","coordinates":[30.37209399350181,60.007670983160466]},"properties":{"unit_id":"e14dc8d9-ad3a-4860-a698-44427455e78f","address_id":"0054dc50-77cb-4f80-981d-ea949fec8360"}},{"id":"9cd70207-c239-424f-b372-ae5103bd44a2","type":"Feature","feature_type":"anchor","geometry":{"type":"Point","coordinates":[30.374028588197625,60.007344567684946]},"properties":{"unit_id":"55dac98e-cf6e-462b-8904-3c08d74be210","address_id":"4a6b3f4e-780d-4c7d-8fd2-0346a5f8bcba"}},{"id":"d154d9bd-aab6-4794-be33-5667d2d9bc13","type":"Feature","feature_type":"anchor","geometry":{"type":"Point","coordinates":[30.374507594890964,60.0067393350741]},"properties":{"unit_id":"12b8c5c0-8485-4d28-aa87-3b471ffaf12d","address_id":"af44cef0-df70-4d65-8551-4f639698370d"}},{"id":"8d7b2fab-2804-468b-8c1a-bfa8e36d7035","type":"Feature","feature_type":"anchor","geometry":{"type":"Point","coordinates":[30.370838704725919,60.007358374225305]},"properties":{"unit_id":"b0e1bae5-bb40-478a-901f-c1913d39b92d","address_id":"a0910412-acd5-4039-b72f-fe1d25623cc7"}},{"id":"e8230e29-4aca-4cb3-8ec0-39b0cdcf2306","type":"Feature","feature_type":"anchor","geometry":{"type":"Point","coordinates":[30.371327649700717,60.008082657439658]},"properties":{"unit_id":"6fccff77-882d-4538-b041-f6df39acbbec","address_id":"a1e04c69-fe01-4790-b372-3042a8a108ad"}},{"id":"b4d1ee6c-d7b7-46e2-aa46-ded351d49362","type":"Feature","feature_type":"anchor","geometry":{"type":"Point","coordinates":[30.374996575326826,60.007463618288448]},"properties":{"unit_id":"f3a3ad07-c259-4c81-9006-55b760d59f14","address_id":"0bacf443-425b-4786-b997-de69153d6f9d"}},{"id":"4208936b-65c3-4732-8607-1905dd7b6b63","type":"Feature","feature_type":"anchor","geometry":{"type":"Point","coordinates":[30.371180454913137,60.007319695273559]},"properties":{"unit_id":"60b60f57-a066-4bae-b03a-ad09f20c06ca","address_id":"e930d446-9ef1-4821-ba39-c864d457059c"}},{"id":"ff4ecb03-dba7-4e3c-99f8-a060ce4c6998","type":"Feature","feature_type":"anchor","geometry":{"type":"Point","coordinates":[30.371669403069713,60.008043978487912]},"properties":{"unit_id":"b27c58fe-f998-45f8-8a2a-f19d8b3d7193","address_id":"efb84cb8-e19c-4eac-b3b4-fb4915150a80"}},{"id":"8f281448-4d3b-459e-8c02-8bbc27b37841","type":"Feature","feature_type":"anchor","geometry":{"type":"Point","coordinates":[30.374818457537582,60.007512654752759]},"properties":{"unit_id":"f45c03ce-6208-48ef-988d-1f93a352baa5","address_id":"8c424bb2-259a-4e50-8f28-ae1f181a57f6"}},{"id":"829ad4f8-826f-406f-8257-2a655cf7a9dd","type":"Feature","feature_type":"anchor","geometry":{"type":"Point","coordinates":[30.374329478689578,60.006788371538406]},"properties":{"unit_id":"dd8a3447-02d6-46b2-9f47-128c393e4eeb","address_id":"34355676-a9cd-4c18-8c89-8a08ccd932a5"}},{"id":"61b4ab86-da2a-48b1-af45-2b01b98d14c5","type":"Feature","feature_type":"anchor","geometry":{"type":"Point","coordinates":[30.371451876584008,60.007767459606654]},"properties":{"unit_id":"a70c273f-4562-4a38-9f4a-ee172aef84f3","address_id":"89ec0c95-bb6f-495d-8ebd-d17462489101"}},{"id":"19c3db3c-de91-4d92-b264-9dfb8353b83a","type":"Feature","feature_type":"anchor","geometry":{"type":"Point","coordinates":[30.371382977554042,60.007777897807856]},"properties":{"unit_id":"99b7296b-732b-4792-9618-0a7578cbd3cc","address_id":"0b504687-9ad3-4c9e-b694-ab8f86952cdd"}},{"id":"96f4fd7a-a605-4474-a411-70ed67053fe0","type":"Feature","feature_type":"anchor","geometry":{"type":"Point","coordinates":[30.374455182831078,60.006767161677836]},"properties":{"unit_id":"8933cdff-72bb-4918-8467-60e024437b7c","address_id":"624746e8-88b3-4989-9751-26593a551c5f"}},{"id":"21d04a7d-9019-4ae3-821d-20d2beef5d2f","type":"Feature","feature_type":"anchor","geometry":{"type":"Point","coordinates":[30.374944162898743,60.007491444892189]},"properties":{"unit_id":"01c8256e-aab1-4f8b-8c50-e2183f8e563e","address_id":"00f99ccb-caff-4f54-8c70-efbd6527c9b8"}},{"id":"17e5c134-9fee-4c72-8e32-7ec5f10640c8","type":"Feature","feature_type":"anchor","geometry":{"type":"Point","coordinates":[30.371543695608402,60.008065188074035]},"properties":{"unit_id":"0541cf58-e9ab-43fe-8d0d-2ede9599662a","address_id":"646c5249-c346-4d48-8079-65fee3321c53"}},{"id":"90c89815-82d9-4413-9348-ce4ccbbc096d","type":"Feature","feature_type":"anchor","geometry":{"type":"Point","coordinates":[30.374898381241426,60.007455270581779]},"properties":{"unit_id":"0f0ab950-9c53-43f7-b982-8401d6009821","address_id":"e1d3a350-dddd-4482-87f4-1836de81fad3"}},{"id":"4f2bbce8-a3a4-4522-8de8-32bd2b698f70","type":"Feature","feature_type":"anchor","geometry":{"type":"Point","coordinates":[30.371512829632721,60.008026497595331]},"properties":{"unit_id":"cbf237dd-885d-4e1a-99d6-59c3d24e8e26","address_id":"8d2b4920-4e10-4fe3-a5c8-8a1f587cbd21"}},{"id":"0ed9e555-ab4d-4c22-867f-becae58a8b42","type":"Feature","feature_type":"anchor","geometry":{"type":"Point","coordinates":[30.370969365098162,60.0073339554817]},"properties":{"unit_id":"19b18056-e59d-41bb-9c52-419482216474","address_id":"4a663b94-8bf6-4610-b793-381a82bc5953"}},{"id":"9bee09d0-858a-4061-9272-4183ed847bf3","type":"Feature","feature_type":"anchor","geometry":{"type":"Point","coordinates":[30.374486050077429,60.006805852156539]},"properties":{"unit_id":"00014004-b208-481a-93b2-dfd2f6ca9f96","address_id":"a95fdafa-6ae0-4bad-99f8-5ada86085aa6"}},{"id":"1288e47d-c478-49bd-aa0b-a7310f9e4729","type":"Feature","feature_type":"anchor","geometry":{"type":"Point","coordinates":[30.371077091408949,60.007381033462487]},"properties":{"unit_id":"d806851f-26a0-46b9-a482-c6b008f41aa8","address_id":"a4d4322e-c09e-4762-bb06-a35c7656831b"}},{"id":"20fb1ce3-cae9-43fd-bf0b-5e90aa8a0672","type":"Feature","feature_type":"anchor","geometry":{"type":"Point","coordinates":[30.370994456235245,60.007265654192231]},"properties":{"unit_id":"95456ada-59a6-4b27-af35-7080aca7e525","address_id":"61935a3c-aaac-4979-960b-f0368857531e"}},{"id":"196741c5-ec63-4905-850d-0ea7ceeb1609","type":"Feature","feature_type":"anchor","geometry":{"type":"Point","coordinates":[30.374411931616084,60.006689034762168]},"properties":{"unit_id":"7531845f-6cce-403b-89b3-adfb16e5f26d","address_id":"69cbbd32-512a-4192-b40e-9384ff11977a"}},{"id":"dcd1845c-63ce-420b-ab35-4b4f24487c6e","type":"Feature","feature_type":"anchor","geometry":{"type":"Point","coordinates":[30.374236267686488,60.00716003413099]},"properties":{"unit_id":"8b10c681-ffa9-454e-94e7-311c2afdd251","address_id":"d46e343a-568b-43df-b206-3102f7fbf6af"}},{"id":"4b905953-12ab-45de-b87a-6ab3b765e8a3","type":"Feature","feature_type":"anchor","geometry":{"type":"Point","coordinates":[30.373639700665954,60.007260690742889]},"properties":{"unit_id":"8e360937-9f96-48d5-890a-990c2cc9e77c","address_id":"fe7cd517-34e6-46f5-8770-981e10d7dc61"}},{"id":"6bb5bc0b-3739-4100-aca4-fb4e0944bba4","type":"Feature","feature_type":"anchor","geometry":{"type":"Point","coordinates":[30.372301679001023,60.00748644960651]},"properties":{"unit_id":"239e3c5e-5a19-4449-a41c-4bc98e1d0919","address_id":"7bde2b40-806e-45e2-b95f-59f67ef21e46"}},{"id":"0dd6c4d7-25e0-4786-ad14-70030fc592c4","type":"Feature","feature_type":"anchor","geometry":{"type":"Point","coordinates":[30.371705106641507,60.007587106218416]},"properties":{"unit_id":"31768c2a-26fb-4c5b-a4f9-795bebf598a1","address_id":"6bfed3fe-8b4d-4ada-8a85-48c3b8910bc1"}},{"id":"252849d7-21c8-41ad-b93a-7eac6b301a5f","type":"Feature","feature_type":"anchor","geometry":{"type":"Point","coordinates":[30.374101215358859,60.0074521451319]},"properties":{"unit_id":"f8520dfe-af41-4251-beb7-0a0bb383699b","address_id":"963dbad1-31b0-412a-9d01-e0dd76f070b0"}},{"id":"0dc94772-207f-4585-afee-ad54d3b25013","type":"Feature","feature_type":"anchor","geometry":{"type":"Point","coordinates":[30.3721853134636,60.007806253827894]},"properties":{"unit_id":"b00f52d1-bb02-40e4-8aeb-3f3bf6147ea7","address_id":"28f5cb76-b9f0-4f3c-a94a-455397937768"}},{"id":"39c04465-01fd-4655-a364-a230f43db826","type":"Feature","feature_type":"anchor","geometry":{"type":"Point","coordinates":[30.37402139736982,60.007333916509637]},"properties":{"unit_id":"e72aa341-2bb1-4595-a678-b89fbda8a29f","address_id":"1a987d3f-0461-41e5-8313-cc1efccbdb92"}},{"id":"395e56c5-0854-4943-9e63-8fd348ea470e","type":"Feature","feature_type":"anchor","geometry":{"type":"Point","coordinates":[30.372086802950044,60.007660331985157]},"properties":{"unit_id":"986b9b23-f84c-4e7f-89d4-ce365df05bfb","address_id":"73315089-d7cc-4d44-a7e1-30f6c895ac96"}},{"id":"95bf25fb-5dff-4ade-b237-021ecdc881d8","type":"Feature","feature_type":"anchor","geometry":{"type":"Point","coordinates":[30.375004460583291,60.007566695834086]},"properties":{"unit_id":"9956062f-18e9-4598-b5c9-d0f3643ca202","address_id":"68df2cd4-81db-49e4-9300-6b561ba77206"}},{"id":"87b125c3-fde9-4b13-9129-5111b2a2a69a","type":"Feature","feature_type":"anchor","geometry":{"type":"Point","coordinates":[30.371586945021633,60.0081433149897]},"properties":{"unit_id":"f7874f79-6936-4248-bbb2-24d535373078","address_id":"54d408de-7a9b-411f-8a99-1dc8279e8f8f"}},{"id":"b1f2b6ac-d9b3-4fdc-8c50-af140c71c152","type":"Feature","feature_type":"anchor","geometry":{"type":"Point","coordinates":[30.373273314223148,60.00761793531791]},"properties":{"unit_id":"a623e642-608b-439a-9aba-326fefaf2c1f","address_id":"05416fbd-571d-4810-bde7-b80f18f8545d"}},{"id":"bc2c10c8-8bda-4013-808c-ce3895c5015e","type":"Feature","feature_type":"anchor","geometry":{"type":"Point","coordinates":[30.37209399350181,60.007670983160466]},"properties":{"unit_id":"4abaa8a7-566c-4b51-af06-65e9a6a2808f","address_id":"d3fc0e3a-fc2e-4f37-a61c-3a4b315c312a"}},{"id":"aeecf554-5764-4769-9774-71896698bbb5","type":"Feature","feature_type":"anchor","geometry":{"type":"Point","coordinates":[30.37209399350181,60.007670983160466]},"properties":{"unit_id":"98dbd444-0ac1-4c90-ae2e-e7e3f8af3268","address_id":"fd9d3ab5-d529-44af-8167-db8122ab1467"}},{"id":"ab6f0577-4c65-4656-8d1e-0e8d643b4305","type":"Feature","feature_type":"anchor","geometry":{"type":"Point","coordinates":[30.374028588197625,60.007344567684946]},"properties":{"unit_id":"cb963e10-c3fd-46d3-a996-51209487d2ab","address_id":"bf5ffbbc-73e2-4707-9e50-79d9747c7b60"}},{"id":"592635aa-d6ca-4171-b25b-73f4332900de","type":"Feature","feature_type":"anchor","geometry":{"type":"Point","coordinates":[30.374028588197625,60.007344567684946]},"properties":{"unit_id":"c9ff9aa4-26c9-4259-96b1-cda83745cc36","address_id":"19477de4-744e-4ffc-a07e-3a086af2fde5"}},{"id":"3a07d280-5a9d-4876-82f5-befb52a93412","type":"Feature","feature_type":"anchor","geometry":{"type":"Point","coordinates":[30.373531409307184,60.007898288556412]},"properties":{"unit_id":"03c6f8b1-f288-4419-9c57-2f51abbb9742","address_id":"8c6ddfdc-ef9b-48ef-a98c-f81ff8d5c889"}},{"id":"b4d6a579-12bd-49d0-86e6-ccd00234d310","type":"Feature","feature_type":"anchor","geometry":{"type":"Point","coordinates":[30.373503711196655,60.007902961910865]},"properties":{"unit_id":"88696502-92c8-4a6a-bc7c-3e37dde4fe20","address_id":"8e9c1413-83ae-4196-b4f1-e7a3713c0743"}},{"id":"e3c2b890-e19e-4cc4-a74d-ebd8228aa52e","type":"Feature","feature_type":"anchor","geometry":{"type":"Point","coordinates":[30.373132982875912,60.007965512625049]},"properties":{"unit_id":"67eb8cb1-50cc-497f-aece-f5c8767f5eb9","address_id":"56ff1984-5314-4dd2-8393-c7bfa1c1f453"}},{"id":"da31de52-a239-4b5b-bb6a-7663961f7cc0","type":"Feature","feature_type":"anchor","geometry":{"type":"Point","coordinates":[30.370917754129675,60.00727859566252]},"properties":{"unit_id":"29a0d297-ab53-4659-88d2-d7e777911af1","address_id":"d64ab6c9-31fa-4cbb-ab1d-e3f182490bb5"}},{"id":"fbf4ec98-43ef-48a1-9e3f-1e6e7f6a02de","type":"Feature","feature_type":"anchor","geometry":{"type":"Point","coordinates":[30.370872318376009,60.007288634811729]},"properties":{"unit_id":"4c21b2e0-e4be-4f05-a554-994cfaa29e5f","address_id":"da0971f9-2794-4634-a35c-a6505c0c2228"}},{"id":"edf00b9b-6ce4-4a5c-80af-f9376fe06989","type":"Feature","feature_type":"anchor","geometry":{"type":"Point","coordinates":[30.371119469929788,60.00724693415264]},"properties":{"unit_id":"04a29e47-1938-4c0d-a3ec-ba3c9ad26467","address_id":"7aa144cc-1937-46be-b3a1-805961fe2e57"}},{"id":"faaffe6c-497f-4666-aa04-49e17ab0eab1","type":"Feature","feature_type":"anchor","geometry":{"type":"Point","coordinates":[30.370988439187887,60.007221584470678]},"properties":{"unit_id":"3cb3c988-a9c8-494d-a105-0e11ee6df194","address_id":"0776ddc0-44cd-40e0-974f-c5fb8e33b670"}},{"id":"510d0eb5-946c-484a-ab69-408b6e0cccc4","type":"Feature","feature_type":"anchor","geometry":{"type":"Point","coordinates":[30.371145354875029,60.007285278548416]},"properties":{"unit_id":"37188f72-36a2-4f0a-90a7-9824c661569e","address_id":"ba5c1fb8-4236-4280-819a-ae84650a988d"}},{"id":"a7acc7e5-c3f4-46d3-b587-eee91f4bf450","type":"Feature","feature_type":"anchor","geometry":{"type":"Point","coordinates":[30.371090708548724,60.007204329176957]},"properties":{"unit_id":"ae04f0b6-c658-42b1-815c-7333551707d7","address_id":"f9d02ce6-cd01-4637-82a2-9a585dc6780f"}},{"id":"d3d369a3-dcd9-47ca-a179-7e61e44245ef","type":"Feature","feature_type":"anchor","geometry":{"type":"Point","coordinates":[30.370843557136009,60.007246029836047]},"properties":{"unit_id":"15378871-c23c-4cc2-81c1-eafe5be8710e","address_id":"90eb0b47-e7e4-458e-a41b-720062007932"}},{"id":"0efb5546-d5f0-4433-8378-250691a9edbe","type":"Feature","feature_type":"anchor","geometry":{"type":"Point","coordinates":[30.370898203194294,60.007326979207505]},"properties":{"unit_id":"646ec7e0-6ec1-47a0-8468-3f660af21d7a","address_id":"1449b5e9-9bc4-49e6-8f11-97f2698a4e10"}},{"id":"5e2c2584-92c1-400b-89fd-0f5da00c4b2b","type":"Feature","feature_type":"anchor","geometry":{"type":"Point","coordinates":[30.371015308124854,60.007296542847634]},"properties":{"unit_id":"4298f876-971b-43f7-ad45-4ac5c7304db9","address_id":"f865f937-658d-4d26-b3f2-57c828224723"}},{"id":"3d836ee6-8269-4ee0-9096-b354ec102c58","type":"Feature","feature_type":"anchor","geometry":{"type":"Point","coordinates":[30.373273314223148,60.00761793531791]},"properties":{"unit_id":"bbeefeb6-2d44-4141-b856-00168a45ce69","address_id":"3c586b69-a365-4583-9868-b600057a11ab"}},{"id":"83691cdc-5c37-4ca8-85bb-2dd647516fc5","type":"Feature","feature_type":"anchor","geometry":{"type":"Point","coordinates":[30.37324791779503,60.007784213752544]},"properties":{"unit_id":"35f2a92f-1c59-4b8a-b287-ecce42061882","address_id":"872905c1-d2ad-4cdd-83a0-eafdf4d34592"}},{"id":"f03ff6ac-e749-4d71-8f58-08b3bd07ec38","type":"Feature","feature_type":"anchor","geometry":{"type":"Point","coordinates":[30.373160681038829,60.007960839270595]},"properties":{"unit_id":"06ad585e-e64a-4144-b59e-1d1f70916049","address_id":"412b8a65-b1ad-4aac-b77b-91ce2facf26e"}},{"id":"b8e99e2e-c2da-4184-ab5d-9754b241b327","type":"Feature","feature_type":"anchor","geometry":{"type":"Point","coordinates":[30.373467490690246,60.007909073389435]},"properties":{"unit_id":"95a201ad-6127-4a42-a15f-2288c8680ed4","address_id":"c5f369e5-601f-4ad4-bdad-59efcc50a339"}},{"id":"41235086-fc4a-47a1-9f38-fdb56e897862","type":"Feature","feature_type":"anchor","geometry":{"type":"Point","coordinates":[30.373224599755805,60.007950054986466]},"properties":{"unit_id":"c7ecb4d9-f802-4737-b11a-b051a6ddee6b","address_id":"0022ea55-ee49-48c4-9a80-bbea12c4d19f"}},{"id":"e1353970-39d4-457d-9939-7eca3f1f87b9","type":"Feature","feature_type":"anchor","geometry":{"type":"Point","coordinates":[30.373343011562465,60.007619226336196]},"properties":{"unit_id":"05c7de8d-ae38-4b61-8fc1-56dfec211c96","address_id":"eac1a221-9851-41d5-91b9-6ffcf84c5c8a"}},{"id":"b23a6c62-7e17-45a1-a685-bcff9670e8e2","type":"Feature","feature_type":"anchor","geometry":{"type":"Point","coordinates":[30.373253525827455,60.007634324992651]},"properties":{"unit_id":"49252497-657e-49c6-8b1a-c4d617528d98","address_id":"8c01351e-3a72-49d3-b8c3-7881c03be19b"}},{"id":"5cbb537a-5e29-4569-89c5-895065cfd763","type":"Feature","feature_type":"anchor","geometry":{"type":"Point","coordinates":[30.373025550125593,60.007672790146941]},"properties":{"unit_id":"44ab22d9-ac8f-4b0a-b237-8dacae29fec3","address_id":"55018a12-ac2c-4863-ae01-a95be20e3937"}},{"id":"1ed3e6f4-042b-4ff4-a23f-bc0028bfd824","type":"Feature","feature_type":"anchor","geometry":{"type":"Point","coordinates":[30.374291128243524,60.006794842273557]},"properties":{"unit_id":"d6f26193-87a6-44b4-9c8e-9c18b2ba08f6","address_id":"d9b7b4b4-fd34-4b21-bdd5-2fa349d19438"}},{"id":"5b7028b0-8239-4b35-b7d9-6de37860bb40","type":"Feature","feature_type":"anchor","geometry":{"type":"Point","coordinates":[30.37496838477913,60.007449984926772]},"properties":{"unit_id":"28ae39ef-9d69-4f7e-b632-d93884045218","address_id":"f7943517-67d7-4206-95be-4b1a61d936e7"}},{"id":"1585f2c5-3d1a-4b12-8df7-c5d8c4fd2df6","type":"Feature","feature_type":"anchor","geometry":{"type":"Point","coordinates":[30.374930991763108,60.007394598485831]},"properties":{"unit_id":"60445775-2f59-478b-baf9-2a1465485853","address_id":"bd3e570c-95c9-4812-b540-a67a66620df8"}},{"id":"21afc9e3-3bff-4781-b91d-431064d6356b","type":"Feature","feature_type":"anchor","geometry":{"type":"Point","coordinates":[30.374897194293833,60.007344537769768]},"properties":{"unit_id":"1597e374-1bba-4d95-9991-774334a22c31","address_id":"4137f6fd-fb84-4097-bd76-9f221cdab562"}},{"id":"963fa48f-2047-4181-a9e0-eab517cd94dd","type":"Feature","feature_type":"anchor","geometry":{"type":"Point","coordinates":[30.374828880606209,60.007243350918209]},"properties":{"unit_id":"256a22a9-d842-4125-a27b-4f46c2970250","address_id":"41b4c5fb-9710-44ff-9ad8-8cb6a647c777"}},{"id":"eb614b73-6fe9-4b5a-9bcd-c585f1c5e229","type":"Feature","feature_type":"anchor","geometry":{"type":"Point","coordinates":[30.374863037423893,60.007293944343992]},"properties":{"unit_id":"e15c5247-1e88-40d7-b496-d335b8c3200d","address_id":"55aef6a3-4511-49cd-8116-7d6b578191a6"}},{"id":"c1ab5520-ce85-44fd-8bbf-6aefe6f8b691","type":"Feature","feature_type":"anchor","geometry":{"type":"Point","coordinates":[30.374806588737069,60.007210332247311]},"properties":{"unit_id":"cea9a73c-c724-4827-983b-4ccc7e7487b8","address_id":"6c574ce4-a039-4572-8a55-cc2b8d6f2ca5"}},{"id":"039f718e-87a5-47c7-8cff-87e18220c505","type":"Feature","feature_type":"anchor","geometry":{"type":"Point","coordinates":[30.374781061011983,60.007172520286794]},"properties":{"unit_id":"26c50c1f-aaaa-4123-929c-4684e467cb8e","address_id":"69732ba5-9434-4186-bb42-b629b513a9a0"}},{"id":"876ea075-35bf-4825-8430-7ebd58f03536","type":"Feature","feature_type":"anchor","geometry":{"type":"Point","coordinates":[30.374576121230319,60.006868960555487]},"properties":{"unit_id":"df0ba666-3095-4b0e-90aa-c7dc6b622cd4","address_id":"6f7b9afb-8754-4f09-9b2b-fd2d24b79ef8"}},{"id":"6b8427f4-9682-4a4b-a239-0651fa33c53c","type":"Feature","feature_type":"anchor","geometry":{"type":"Point","coordinates":[30.3745344144145,60.006807183519143]},"properties":{"unit_id":"260b96dd-b78e-4305-bef7-be9414c73ccf","address_id":"bcb42758-8758-4431-8891-82da4bef43b5"}},{"id":"1e0aeb61-8373-4927-8767-695dccf145be","type":"Feature","feature_type":"anchor","geometry":{"type":"Point","coordinates":[30.374655939649816,60.006987189177757]},"properties":{"unit_id":"ee56e146-9058-45c4-9754-7491b1f617b8","address_id":"978989f0-ffdd-49df-91e0-ca72c507927a"}},{"id":"a51030e1-45b8-43fb-9d66-9fbc5f4bc4c3","type":"Feature","feature_type":"anchor","geometry":{"type":"Point","coordinates":[30.37460812056322,60.006916358546341]},"properties":{"unit_id":"a11582ee-e2b2-4f19-99e3-b2b6c432cc6f","address_id":"dd09fafc-892a-4c52-beec-4344afcd1c5f"}},{"id":"15c8816d-1680-4d91-94b8-c79d06d48506","type":"Feature","feature_type":"anchor","geometry":{"type":"Point","coordinates":[30.374630412096966,60.006949377217239]},"properties":{"unit_id":"eeeff794-ab13-4900-8870-da0f9684539d","address_id":"a00864d9-c0d8-4d7a-8e6d-d6a45780fd6d"}},{"id":"fe86ef0a-7513-45c3-9dbc-3e63901f4303","type":"Feature","feature_type":"anchor","geometry":{"type":"Point","coordinates":[30.374691174961811,60.00703938018377]},"properties":{"unit_id":"ec362d52-d39e-4eb9-838c-f04639ae6afe","address_id":"1161d1c0-b854-48c2-be75-e24097e26c31"}},{"id":"8634e814-c3f9-400e-b9f7-ebc6ce6a192d","type":"Feature","feature_type":"anchor","geometry":{"type":"Point","coordinates":[30.374743668309669,60.007117134120307]},"properties":{"unit_id":"a78ea147-8b6b-4478-b70e-d6540cf77050","address_id":"01b5cbd3-5094-4481-9c14-63772020da38"}},{"id":"b63e9f26-ee17-4b49-b5ec-26df96af360b","type":"Feature","feature_type":"anchor","geometry":{"type":"Point","coordinates":[30.374281966361952,60.006710963684796]},"properties":{"unit_id":"adb77982-5c5b-42eb-8d12-0e657372398f","address_id":"a801973f-5aad-4eb4-b7ac-bd4a2421ac25"}},{"id":"037fbf42-b69b-4a52-b204-fb1d663b0071","type":"Feature","feature_type":"anchor","geometry":{"type":"Point","coordinates":[30.374477979521593,60.006677890672563]},"properties":{"unit_id":"1021b298-77e8-4a62-b9c4-cb43bd6044eb","address_id":"0a1a5b72-8033-4181-8c9c-50b774062d3d"}},{"id":"c311274c-6b87-4730-a588-fd97e6f23a59","type":"Feature","feature_type":"anchor","geometry":{"type":"Point","coordinates":[30.372925390085364,60.007306467276251]},"properties":{"unit_id":"b6d22fea-db21-4f82-bc71-1562c88faf02","address_id":"f4ec8511-ae8a-42b3-ae7a-8fd09051174a"}},{"id":"373c1247-1743-4caa-a663-ed48824881a9","type":"Feature","feature_type":"anchor","geometry":{"type":"Point","coordinates":[30.372582388126975,60.007415357697589]},"properties":{"unit_id":"ec184441-9857-4129-bc3b-d8bb3438faca","address_id":"a9cdb8bd-8d4d-4a8a-bdd8-912f827ce1c4"}},{"id":"16f60b9e-ed97-4e4e-a915-8eb9c5f3c229","type":"Feature","feature_type":"anchor","geometry":{"type":"Point","coordinates":[30.372481183882822,60.007432433500242]},"properties":{"unit_id":"dd3a5627-4dd7-44ad-b912-f1df923660d7","address_id":"279f89e7-181b-4fcc-8296-23c2b626832e"}},{"id":"e2fb9957-9f71-4904-80b5-b8925d25621c","type":"Feature","feature_type":"anchor","geometry":{"type":"Point","coordinates":[30.372382110244175,60.007449149771872]},"properties":{"unit_id":"ade7418b-d3b2-47f4-9262-54557e007d4a","address_id":"98e046f3-1026-4344-853c-06211108dd5c"}},{"id":"f8a615d2-0a5f-4cfa-8261-bbba6bb5fab8","type":"Feature","feature_type":"anchor","geometry":{"type":"Point","coordinates":[30.372316061489922,60.007460293861477]},"properties":{"unit_id":"d7929e76-e51a-4d0d-b9c4-6d1a14baa4eb","address_id":"e5f117dd-b152-42a9-a036-28b88addfdc2"}},{"id":"6b374a7d-e570-4f16-a2fe-89aa3b2b4d6a","type":"Feature","feature_type":"anchor","geometry":{"type":"Point","coordinates":[30.372250012164422,60.007471437951075]},"properties":{"unit_id":"8fb9fc5c-418d-425d-82a2-e1b7e400bd0b","address_id":"3229992a-f80b-417e-b0bd-be647658e752"}},{"id":"b3054c7f-3b57-4990-a82a-a106d9a7b708","type":"Feature","feature_type":"anchor","geometry":{"type":"Point","coordinates":[30.372183963365657,60.00748258204068]},"properties":{"unit_id":"67b09dba-f412-416c-aa41-1487fba5b1b8","address_id":"1dd8f401-e0be-4586-b68d-eba58bed5314"}},{"id":"b097e09d-04a0-400a-a0ec-0979950ca119","type":"Feature","feature_type":"anchor","geometry":{"type":"Point","coordinates":[30.374790094008198,60.0075233726197]},"properties":{"unit_id":"34660f02-fa91-4ce3-a888-3b1671d9c1c4","address_id":"1c3e1f3c-e9ae-43d8-9792-3b36388c05a6"}},{"id":"1f37faaa-65db-41a1-ae3c-b446f363882c","type":"Feature","feature_type":"anchor","geometry":{"type":"Point","coordinates":[30.374402986288363,60.007108174936434]},"properties":{"unit_id":"34e78a1a-f3e5-4da9-a715-69d4017054ee","address_id":"5ec9faac-205c-49bd-9ee1-b6d590cee307"}},{"id":"458c9289-a6d9-4281-88be-4bd1314cd3ed","type":"Feature","feature_type":"anchor","geometry":{"type":"Point","coordinates":[30.374316697441795,60.007122734296352]},"properties":{"unit_id":"5d9948f9-0f58-419a-b658-a2715b2dc803","address_id":"2ef179bd-9af3-492a-9659-7ffd6b919a9a"}},{"id":"f9221e59-029e-4c2b-872f-cd68ca00ac2f","type":"Feature","feature_type":"anchor","geometry":{"type":"Point","coordinates":[30.374250649064926,60.00713387838595]},"properties":{"unit_id":"44b29194-25e7-44d8-bdec-d51b2111e07e","address_id":"dbbcab69-c96f-4873-92b8-57e70b1e51ca"}},{"id":"a8262b29-3241-46a7-ac1a-43557b451caf","type":"Feature","feature_type":"anchor","geometry":{"type":"Point","coordinates":[30.3741846006658,60.007145022475555]},"properties":{"unit_id":"eea9f957-853f-4dbc-8e44-6ce135d1a9e6","address_id":"3ccf69f9-00c5-49e2-a4a6-a48e62bf5dc1"}},{"id":"fc6bd46e-449c-4a60-ba41-6867faa045e8","type":"Feature","feature_type":"anchor","geometry":{"type":"Point","coordinates":[30.373596556005896,60.007244241237792]},"properties":{"unit_id":"1d1e86a1-06b7-4561-b4a6-e1138b73ba75","address_id":"4c767bda-d4c3-43ce-8385-7646e5cdd6ba"}},{"id":"484dadaf-1c66-492f-831d-80adf871bdb4","type":"Feature","feature_type":"anchor","geometry":{"type":"Point","coordinates":[30.374118552244418,60.00715616656516]},"properties":{"unit_id":"782fff30-da05-4030-9aef-217451072361","address_id":"61ee7199-25d2-41f9-9d54-6f43551f2f17"}},{"id":"39e73122-cdb9-48aa-b4d2-355ce6a8463b","type":"Feature","feature_type":"anchor","geometry":{"type":"Point","coordinates":[30.373917850200318,60.007180538926519]},"properties":{"unit_id":"d1cf13a1-dc6e-4353-bb7c-653fe35daeda","address_id":"f638c119-e46d-4f02-9538-d04cd03a86a6"}},{"id":"b2d86bd3-3b7f-4839-b71b-4eea42392dd3","type":"Feature","feature_type":"anchor","geometry":{"type":"Point","coordinates":[30.37319661612965,60.00725121284632]},"properties":{"unit_id":"ddc1f0a3-18d8-44cf-be96-da86f71c0da4","address_id":"add2a7fc-a71f-44c0-8010-9bb3e2ebdd78"}},{"id":"ede35285-97d8-4af4-81c7-f113b5c6431c","type":"Feature","feature_type":"anchor","geometry":{"type":"Point","coordinates":[30.374103681490748,60.007458610378023]},"properties":{"unit_id":"ce1601e1-bf4e-43f5-830e-a64e178d7db7","address_id":"d69c7266-dc6c-4601-9bc0-6ebfa663595b"}},{"id":"cc622b05-343f-4f59-9880-54044a3fa578","type":"Feature","feature_type":"anchor","geometry":{"type":"Point","coordinates":[30.374252454727632,60.007398448761236]},"properties":{"unit_id":"4d022934-a3a4-4f41-8526-cc1811b68d3a","address_id":"bd9364e3-9d05-4357-86b5-f7e8c932e557"}},{"id":"b258fde1-29a7-4542-b29f-1d0c23ee8e53","type":"Feature","feature_type":"anchor","geometry":{"type":"Point","coordinates":[30.3739430180772,60.007407650285487]},"properties":{"unit_id":"bcae4425-ce6e-4dc7-a2fc-c41de8fed8e7","address_id":"3f0d2830-e26b-472f-98a5-4a6b80b2e756"}},{"id":"6728ee39-6366-4fbc-931b-e1431bdf2436","type":"Feature","feature_type":"anchor","geometry":{"type":"Point","coordinates":[30.371341148738317,60.007842498123352]},"properties":{"unit_id":"4b5d2b40-8921-4d71-96a6-b65fcd080fe7","address_id":"73c1aef5-bf01-4c60-9594-bd123cef3355"}},{"id":"c25f344a-9625-4bb0-a83c-2cccaa9ca1f8","type":"Feature","feature_type":"anchor","geometry":{"type":"Point","coordinates":[30.371363438953342,60.00787551679425]},"properties":{"unit_id":"2d13370e-d42c-47fe-92a2-4b65f17146f4","address_id":"9df32620-0689-4b46-81d0-b1572e3744b0"}},{"id":"9ca0406e-c088-4e60-885c-0872626b9a10","type":"Feature","feature_type":"anchor","geometry":{"type":"Point","coordinates":[30.371385729190603,60.0079085357396]},"properties":{"unit_id":"74847e6c-d7c5-42c7-88f0-6a497194a331","address_id":"251432e6-65e1-424f-9f84-930ff6372296"}},{"id":"548d120d-d4fd-4598-981d-c46bd7cc5586","type":"Feature","feature_type":"anchor","geometry":{"type":"Point","coordinates":[30.37140801972463,60.0079415544105]},"properties":{"unit_id":"f5be9106-e66e-4a93-b394-d60add968f18","address_id":"3cc3d013-28b0-49ef-a702-ee80dc1acc24"}},{"id":"29616506-5947-4e8d-8491-27443e186106","type":"Feature","feature_type":"anchor","geometry":{"type":"Point","coordinates":[30.371430310006417,60.0079745730814]},"properties":{"unit_id":"70b71129-4cc4-42f1-ae64-ab208b9bd562","address_id":"325976ae-fcab-40e6-94b7-763196764df2"}},{"id":"ee4c9172-98b0-4067-ac88-50652c73c493","type":"Feature","feature_type":"anchor","geometry":{"type":"Point","coordinates":[30.371452600310455,60.008007591752296]},"properties":{"unit_id":"c5133b94-52b3-4153-abd1-4ef51d9398eb","address_id":"7bd2a4a7-9d64-4134-ba55-678860e01d2e"}},{"id":"9bd6aaf2-a925-4b35-8b0d-b6b46d57c9c8","type":"Feature","feature_type":"anchor","geometry":{"type":"Point","coordinates":[30.371474890911248,60.0080406104232]},"properties":{"unit_id":"e53899a0-da95-4d4e-ab7a-f35602a5e364","address_id":"31c97d9a-b4a5-4d5d-a490-322d6316991f"}},{"id":"69044ca6-c6b1-4bbf-a722-34c11c18cf0a","type":"Feature","feature_type":"anchor","geometry":{"type":"Point","coordinates":[30.37102980553512,60.007381299954574]},"properties":{"unit_id":"c9af1cda-0d44-4973-8aab-ed536fc2d88e","address_id":"bd3f7e78-a515-48ff-a5b6-3b76fb4d5c26"}},{"id":"908f399c-cbd0-48a5-a2db-3e29f6f12b90","type":"Feature","feature_type":"anchor","geometry":{"type":"Point","coordinates":[30.371052095439289,60.007414318899926]},"properties":{"unit_id":"133e4311-b6ae-4ab1-b170-91ae4bb5cbeb","address_id":"88297876-2685-469a-b805-f8f2ce54f30f"}},{"id":"74fb0db9-a788-4944-9aeb-d81d24b9348a","type":"Feature","feature_type":"anchor","geometry":{"type":"Point","coordinates":[30.371074385640231,60.007447337570824]},"properties":{"unit_id":"3407dbc7-8145-464e-af47-e9c155e1b517","address_id":"0210f422-0b56-4af7-8455-a78d987f4820"}},{"id":"8049dd32-f72b-4566-92b4-16d2b82e2f11","type":"Feature","feature_type":"anchor","geometry":{"type":"Point","coordinates":[30.371096675588909,60.007480356516176]},"properties":{"unit_id":"d300288b-9b95-40dc-9593-4b51eccc0912","address_id":"7ecfb336-42e9-4027-8d93-3e231d35d6fc"}},{"id":"ad46dbd6-074c-4530-9806-d492f43d372b","type":"Feature","feature_type":"anchor","geometry":{"type":"Point","coordinates":[30.371118965834356,60.007513375187074]},"properties":{"unit_id":"cf310519-e7b8-403d-aeaf-032d766a499a","address_id":"90bd2ec9-9edc-4fc5-8003-68c186d8a978"}},{"id":"20b19d15-e311-4e50-89f3-b8592301ca53","type":"Feature","feature_type":"anchor","geometry":{"type":"Point","coordinates":[30.371141255827542,60.007546394132426]},"properties":{"unit_id":"df062306-385e-4884-a589-28a664c78f97","address_id":"a162a691-c184-4cb6-97a2-3b74949cb291"}},{"id":"7ea81b90-f223-431f-a059-efc1122f43fa","type":"Feature","feature_type":"anchor","geometry":{"type":"Point","coordinates":[30.371163545842997,60.007579412803324]},"properties":{"unit_id":"f1b22b6e-7bd8-49e7-893e-2d3578fc48b0","address_id":"792274ba-9420-404f-ac41-99fd3b910a06"}},{"id":"64fa9cd9-34e0-49be-b603-72a307ca6128","type":"Feature","feature_type":"anchor","geometry":{"type":"Point","coordinates":[30.371357758539926,60.007733509174045]},"properties":{"unit_id":"d42d6045-99f6-47a7-9c16-2a70650e839f","address_id":"c3f14c56-989a-4081-a7ee-b2d0a592dda5"}},{"id":"a8389b2b-07d7-41df-85d5-0f97f5b6120f","type":"Feature","feature_type":"anchor","geometry":{"type":"Point","coordinates":[30.371382977554042,60.007777897807856]},"properties":{"unit_id":"560eed01-2cb8-4bf9-a5d4-8cf16418e1ff","address_id":"0447af22-f629-4790-b186-137d86c01469"}},{"id":"938b677f-e617-4861-a3ae-abaaf2973929","type":"Feature","feature_type":"anchor","geometry":{"type":"Point","coordinates":[30.371283023880011,60.007819677783331]},"properties":{"unit_id":"f0d78bff-0066-4c21-a47e-1556017c03ec","address_id":"2e9ca421-f2c6-4b71-8770-0ce91c47aaa6"}},{"id":"4e86ecdc-f52a-4101-8fab-56f84f092cc7","type":"Feature","feature_type":"anchor","geometry":{"type":"Point","coordinates":[30.371144968546545,60.007615174339179]},"properties":{"unit_id":"121cb846-9f41-4a59-8fca-387315258a35","address_id":"33235788-648e-40e5-9dd5-fca683271f0b"}},{"id":"0d1687bf-0ef8-43b8-be9e-d1eb3bbf1d17","type":"Feature","feature_type":"anchor","geometry":{"type":"Point","coordinates":[30.371273683639611,60.007615999339386]},"properties":{"unit_id":"1fa6354a-2f41-466d-a5ad-2f728560d4db","address_id":"0f5172e8-e89e-4851-a253-a57499a64462"}},{"id":"2d18d352-08b9-43ce-9578-8f33cd31e925","type":"Feature","feature_type":"anchor","geometry":{"type":"Point","coordinates":[30.371308863483776,60.007661080687939]},"properties":{"unit_id":"26aa8a1b-9292-48f0-874b-237d8f1fd9fc","address_id":"3e06c3e9-7065-4077-8150-158904b3e34f"}},{"id":"bdaae184-19fa-4a35-8283-eaf22fea5673","type":"Feature","feature_type":"anchor","geometry":{"type":"Point","coordinates":[30.3712214914761,60.007708943324609]},"properties":{"unit_id":"38e64533-e4c1-4f09-a132-edc544b7b5bd","address_id":"1726716a-5064-489d-ab4d-fb99f60dff78"}},{"id":"687eb2fa-7802-42ed-b589-58240ec8bc37","type":"Feature","feature_type":"anchor","geometry":{"type":"Point","coordinates":[30.371485120495763,60.007600494220753]},"properties":{"unit_id":"80466f10-2eeb-4fec-9bcb-5f0bf677413e","address_id":"263aca89-f0f9-423c-9b4e-679cdae77d26"}},{"id":"b0500f31-84be-40c7-b1c5-0bf1ea64fc81","type":"Feature","feature_type":"anchor","geometry":{"type":"Point","coordinates":[30.371546908745398,60.007590069193206]},"properties":{"unit_id":"6d40cbb1-5b21-4063-b4b0-441443f01127","address_id":"50e15178-81e0-4928-8b4e-bbf786b53a7f"}},{"id":"a3ce9208-e437-4fe9-bd05-94bb84e0a5b4","type":"Feature","feature_type":"anchor","geometry":{"type":"Point","coordinates":[30.371608696426577,60.007579643891205]},"properties":{"unit_id":"67e3d787-eb3a-4b58-8b27-e30b02eb50a3","address_id":"45886d34-c58f-4c0f-b770-1aae6828051e"}},{"id":"eab451d1-0d63-41ba-9f13-5d3d4c338ab1","type":"Feature","feature_type":"anchor","geometry":{"type":"Point","coordinates":[30.371670484637256,60.007569218863658]},"properties":{"unit_id":"5d6ec619-9439-4835-92af-b62e3aae0783","address_id":"c5f8c767-dc52-4979-9984-42ad5bd9b7e9"}},{"id":"d6242d78-19e5-4092-b5a4-6b1de90afcd1","type":"Feature","feature_type":"anchor","geometry":{"type":"Point","coordinates":[30.37173227227948,60.007558793561657]},"properties":{"unit_id":"fe3f6b2e-ccfc-4b39-9676-3b9d72eb35a3","address_id":"e78f9efe-e475-43d1-ae0e-4b538ec8652e"}},{"id":"a1862bd7-543e-4be5-aa21-c15f8c08426f","type":"Feature","feature_type":"anchor","geometry":{"type":"Point","coordinates":[30.372642659082342,60.007344679661017]},"properties":{"unit_id":"7cbacd7f-84b8-4aae-86e6-d73086315410","address_id":"020e98ed-d207-432b-be11-57dcec867b93"}},{"id":"7d6e133a-6247-4f6a-a551-7e441f0b485a","type":"Feature","feature_type":"anchor","geometry":{"type":"Point","coordinates":[30.373330231021306,60.007289177401681]},"properties":{"unit_id":"451a11b8-4099-492d-8b86-21f99aa94aeb","address_id":"819f1bf1-46bb-41f4-bb5d-c43c13321049"}},{"id":"8f75cf51-9c4d-4ccd-ac3b-848d5c02613b","type":"Feature","feature_type":"anchor","geometry":{"type":"Point","coordinates":[30.37346232809859,60.007266888948031]},"properties":{"unit_id":"148c77a9-61d5-43e4-a56e-e67d32bfe045","address_id":"63df80f7-1697-44aa-be2b-d33c40b62551"}},{"id":"01f19688-b3b9-4d41-b7e4-d32f33f49bc5","type":"Feature","feature_type":"anchor","geometry":{"type":"Point","coordinates":[30.373728653178187,60.00722195305859]},"properties":{"unit_id":"e018fcf4-890d-4057-a978-d975dda9eb1c","address_id":"3a75ea12-0c13-4346-a656-aa607638ed46"}},{"id":"fd4aa10d-467e-4595-a244-1e1c11425273","type":"Feature","feature_type":"anchor","geometry":{"type":"Point","coordinates":[30.373662604603169,60.007233097148195]},"properties":{"unit_id":"8e525377-204a-4e7f-bff7-68614b542645","address_id":"e22669db-9582-4c58-87f4-f0c7a9cc8649"}},{"id":"24206b02-6a3d-4377-a2da-5b4c0f714871","type":"Feature","feature_type":"anchor","geometry":{"type":"Point","coordinates":[30.371983259755527,60.007506954402039]},"properties":{"unit_id":"1cbe883c-61c6-4668-808a-3907668bf4e6","address_id":"063733f7-7f79-4102-a108-3d3bd7c344b6"}},{"id":"fc25e08c-c2da-4ce5-b008-536672598bdf","type":"Feature","feature_type":"anchor","geometry":{"type":"Point","coordinates":[30.371794060451212,60.00754836853411]},"properties":{"unit_id":"df492c74-e70e-42ad-98a9-cce6f4f2d4b1","address_id":"c3c6493c-2b38-4e85-a7f9-8f014ae3b4f4"}},{"id":"a2ea28de-c8c8-43db-be4b-d0d8ae487dab","type":"Feature","feature_type":"anchor","geometry":{"type":"Point","coordinates":[30.372220071563291,60.007699541451011]},"properties":{"unit_id":"27d9494e-f9f9-484d-9045-8300332bdd57","address_id":"b85dcc37-9e6f-4207-8497-c32b8a2cc6c8"}},{"id":"7cc0828b-c112-4a0a-903d-6d52f213999d","type":"Feature","feature_type":"anchor","geometry":{"type":"Point","coordinates":[30.372028315859204,60.007731895401186]},"properties":{"unit_id":"a56d0650-d796-445d-8a52-c55d7e1b8658","address_id":"234bf386-544f-487a-b751-341f85870d53"}},{"id":"a40c8de8-e712-4d2f-bc07-ea45dbbffea5","type":"Feature","feature_type":"anchor","geometry":{"type":"Point","coordinates":[30.372141875563237,60.0077981591652]},"properties":{"unit_id":"3bba2ea8-f1c6-49ef-b5ba-f4285dc8bd52","address_id":"d4e75515-9d46-432a-8428-5f53d92b35d9"}},{"id":"f16c518b-7c43-4427-95d6-fc7ce334f5a6","type":"Feature","feature_type":"anchor","geometry":{"type":"Point","coordinates":[30.37197528800759,60.007745588044315]},"properties":{"unit_id":"cf5ed5ee-596f-4df4-a168-166af041c6af","address_id":"01ae436d-d5a3-4acb-adf5-47b697d3f89e"}},{"id":"35dab587-936b-4690-b97d-460eb70f35a7","type":"Feature","feature_type":"anchor","geometry":{"type":"Point","coordinates":[30.372278851355578,60.007694369418786]},"properties":{"unit_id":"a21baf6f-6d09-4c3b-a973-2d584b44e125","address_id":"83a8c5c0-f3ac-4204-ab7e-c26870904eb4"}},{"id":"863e6454-c1eb-4266-9464-f6c954972d14","type":"Feature","feature_type":"anchor","geometry":{"type":"Point","coordinates":[30.372068927857036,60.007837755332744]},"properties":{"unit_id":"b70645f0-375c-446e-bcc7-1d838434a1a5","address_id":"9018c212-193f-4933-bd11-b22bf657934a"}},{"id":"f2e183e6-2a32-4b89-8432-173b5b96edc8","type":"Feature","feature_type":"anchor","geometry":{"type":"Point","coordinates":[30.372316855347343,60.007795923760447]},"properties":{"unit_id":"c2695e81-d5d9-4526-875d-dad026ea96bd","address_id":"fa3d5f62-5932-440e-a611-4470a2053682"}},{"id":"3df45df6-e212-470d-858a-9a9deecb7dcc","type":"Feature","feature_type":"anchor","geometry":{"type":"Point","coordinates":[30.37298102123426,60.007613862188151]},"properties":{"unit_id":"4b287f11-5324-406a-b8f1-eea67b37d26a","address_id":"37bce4b1-0dd9-40e9-8bff-46d6578680e4"}},{"id":"0c9f41d5-84f6-4310-9b51-4b5a5b4361fa","type":"Feature","feature_type":"anchor","geometry":{"type":"Point","coordinates":[30.37402139736982,60.007333916509637]},"properties":{"unit_id":"d1d9e9b5-d7a8-43d2-8ee9-7bf8a7f0ca85","address_id":"0aacd42b-8fb5-4397-9220-f06204ba0ed7"}},{"id":"f421d345-814d-4781-88dd-111debc645a8","type":"Feature","feature_type":"anchor","geometry":{"type":"Point","coordinates":[30.372086802950044,60.007660331985157]},"properties":{"unit_id":"0aa9636f-c3ea-4ea5-8d8f-5a2c33da803d","address_id":"22945245-f3d8-4ad6-82b7-73d908a958f7"}},{"id":"a93c43d0-a0fc-43b4-bf4f-8f0e6f8b3844","type":"Feature","feature_type":"anchor","geometry":{"type":"Point","coordinates":[30.371218806242318,60.00731322426396]},"properties":{"unit_id":"d5e0df5b-1c3e-4c6e-bb5c-e15e7e98c906","address_id":"2c926edf-3c13-4ad0-996e-007fc0ea2449"}},{"id":"8cb93a27-23d6-4595-bf67-a311681409a0","type":"Feature","feature_type":"anchor","geometry":{"type":"Point","coordinates":[30.374583611216938,60.0074882110341]},"properties":{"unit_id":"23d85377-8820-45ba-91c9-2b3a01548ada","address_id":"afb541ef-b4ba-46a9-9c9f-3728f938e447"}},{"id":"536b6242-8895-4ab0-9983-88437561ed41","type":"Feature","feature_type":"anchor","geometry":{"type":"Point","coordinates":[30.3743485522642,60.007530244602449]},"properties":{"unit_id":"ed6558d1-2a2d-4e23-ae28-e9c5f126a5d9","address_id":"1abe0866-c5dd-4a9a-8dc3-ce54a30899a4"}},{"id":"c481e58f-9c43-4768-a903-a052cbdba10f","type":"Feature","feature_type":"anchor","geometry":{"type":"Point","coordinates":[30.373999132818255,60.007589200555259]},"properties":{"unit_id":"802666e1-68ea-4f96-82c0-f0793664260b","address_id":"14ba01ca-6b89-41c6-b300-f6f61a1a385f"}},{"id":"a2ede2e4-ee3f-4493-9849-ef19349bb47a","type":"Feature","feature_type":"anchor","geometry":{"type":"Point","coordinates":[30.374179595567472,60.007568243464213]},"properties":{"unit_id":"4c640e97-8aec-423c-8e76-77942373325d","address_id":"8e2eac64-c113-47e3-acb7-6a29638831cc"}},{"id":"9487f0ee-c6a7-4e23-af7f-ddd2400325b9","type":"Feature","feature_type":"anchor","geometry":{"type":"Point","coordinates":[30.371427061033135,60.007610290480677]},"properties":{"unit_id":"44f12423-7a58-4383-83af-9507eaf90580","address_id":"12cef260-a30c-494c-8243-dba71687c194"}},{"id":"c579ef71-1186-4923-ab79-123c5f2033e2","type":"Feature","feature_type":"anchor","geometry":{"type":"Point","coordinates":[30.374493989054109,60.007105871193346]},"properties":{"unit_id":"733bf6b5-1c52-4cfd-8444-a66ba375ab4a","address_id":"4fa93509-689f-4544-9238-c19e4653dee1"}},{"id":"9b6bd468-642f-4c03-a294-b4c3e2627191","type":"Feature","feature_type":"anchor","geometry":{"type":"Point","coordinates":[30.371707754771009,60.008037507478313]},"properties":{"unit_id":"71335841-bedf-4204-92db-929218ce6b39","address_id":"206a1f71-c0a2-4f69-9070-a09c2c4474e3"}},{"id":"3e6761bb-1e3c-41a7-bea4-30e0507cc8de","type":"Feature","feature_type":"anchor","geometry":{"type":"Point","coordinates":[30.37171052193451,60.008122464385707]},"properties":{"unit_id":"eed76ea1-ba5f-4bf4-bd36-e784854ef737","address_id":"bc185709-c5c6-42b2-8bb8-d07112a4d46b"}},{"id":"04bcb3ba-3258-4598-8153-d6e66bb99469","type":"Feature","feature_type":"anchor","geometry":{"type":"Point","coordinates":[30.374874493801116,60.007588624482267]},"properties":{"unit_id":"d9db81c5-f83e-4653-8f70-e3a16e3b345d","address_id":"58e6c2e6-76ff-40b2-8839-e3ad82f1e24b"}},{"id":"0abcbee0-e0fb-48c5-8e92-857e9cf6f685","type":"Feature","feature_type":"anchor","geometry":{"type":"Point","coordinates":[30.375070509265345,60.007555551470034]},"properties":{"unit_id":"1f82d0b9-fa47-40d6-8092-68ec1755dd4f","address_id":"4a713b3e-bf8e-462a-95d5-580b4574a1f6"}},{"id":"3c11ef53-b5b1-46b5-85c5-50c7b0911d98","type":"Feature","feature_type":"anchor","geometry":{"type":"Point","coordinates":[30.371514502835709,60.008155537397933]},"properties":{"unit_id":"6d3c60c2-f047-446e-9dbb-2621478fc453","address_id":"edc48e1f-fa00-43a4-a51b-d1371b00e6e8"}},{"id":"82659ed2-e973-4fdc-9694-29ccb2e1c048","type":"Feature","feature_type":"anchor","geometry":{"type":"Point","coordinates":[30.374507594890964,60.0067393350741]},"properties":{"unit_id":"d2011ab9-6f0d-4c93-8b01-175b4fe8a4c6","address_id":"89382e42-a31d-4af5-bbb4-9e3e9ad92f4e"}},{"id":"0b4b916f-89b1-4c59-bf2a-8142e3d17451","type":"Feature","feature_type":"anchor","geometry":{"type":"Point","coordinates":[30.370838704725919,60.007358374225305]},"properties":{"unit_id":"0f2ddb2c-60ad-4788-a4b8-1b9a028a78e2","address_id":"51f69333-9463-4ec1-bb6a-e7879758096e"}},{"id":"83d4b5f3-c44b-4054-9d20-bb5e478b85d9","type":"Feature","feature_type":"anchor","geometry":{"type":"Point","coordinates":[30.371327649700717,60.008082657439658]},"properties":{"unit_id":"73148e79-5be4-46a6-871d-3e12fc443362","address_id":"56b5a1e0-b5c2-4618-a606-b152ce8917ef"}},{"id":"158a9d2c-a45f-45ec-b274-57843c0af0fe","type":"Feature","feature_type":"anchor","geometry":{"type":"Point","coordinates":[30.374996575326826,60.007463618288448]},"properties":{"unit_id":"322b5e24-d3f8-4b3e-a438-da3b45b6cda7","address_id":"5dd53c4a-0220-4cc9-b8cd-edcfc4bfe090"}},{"id":"9f2a30aa-c341-4d79-a8a1-83f097f68d67","type":"Feature","feature_type":"anchor","geometry":{"type":"Point","coordinates":[30.373045473694546,60.007484342644908]},"properties":{"unit_id":"ba4efc0b-4b91-4ecc-bc11-930250808f26","address_id":"70c48169-9f39-4b56-b5ce-6546fdb730ae"}},{"id":"4e327ed6-f65c-4aab-96b8-9efaaceff0ea","type":"Feature","feature_type":"anchor","geometry":{"type":"Point","coordinates":[30.374511593009174,60.007082731392174]},"properties":{"unit_id":"72a1339f-af06-42fb-aa4c-8c2735c628ad","address_id":"9fe411fd-d2aa-4bae-8975-6044386514f7"}},{"id":"1bb03a54-46c1-45ff-9ab4-1d5be04666aa","type":"Feature","feature_type":"anchor","geometry":{"type":"Point","coordinates":[30.3744594730313,60.007054745332312]},"properties":{"unit_id":"65cfa8fa-2f16-4371-852b-61b1d5d4ef02","address_id":"15218961-b42a-48da-9722-9c454e61d0ac"}},{"id":"dc889c40-7f7b-4716-bb67-1489c8cc8d65","type":"Feature","feature_type":"anchor","geometry":{"type":"Point","coordinates":[30.374028588197625,60.007344567684946]},"properties":{"unit_id":"162c8e79-aad8-4902-bcf2-cf5ba3a7637f","address_id":"c3918c40-ef3f-4fda-a27a-452f280c80e2"}},{"id":"17267c1d-514c-49a4-bfbf-ef8c58abb484","type":"Feature","feature_type":"anchor","geometry":{"type":"Point","coordinates":[30.374028588197625,60.007344567684946]},"properties":{"unit_id":"fdc31285-bb32-4328-a2f5-9d950390c420","address_id":"fa93637a-0caa-4a27-bd90-bf5ca1704c22"}},{"id":"93394323-1081-44da-801c-2c72ee2dc791","type":"Feature","feature_type":"anchor","geometry":{"type":"Point","coordinates":[30.37209399350181,60.007670983160466]},"properties":{"unit_id":"0fa9181b-68fc-4ea1-8fa2-42431c0907ba","address_id":"9ff61e81-ef9d-4c4d-8f94-4229175b3bf5"}},{"id":"b07fa4e6-4926-4b37-9710-543fbc3a6c73","type":"Feature","feature_type":"anchor","geometry":{"type":"Point","coordinates":[30.37209399350181,60.007670983160466]},"properties":{"unit_id":"acc16099-dd47-453f-b369-ee77c54d4c61","address_id":"cb361745-6d0d-4d81-8299-6525f96595c8"}},{"id":"465d4713-84ce-4935-bfa3-4073e1f6bf7f","type":"Feature","feature_type":"anchor","geometry":{"type":"Point","coordinates":[30.374790094008198,60.0075233726197]},"properties":{"unit_id":"30738ec6-d209-4efc-bf17-c09bb8abe2dc","address_id":"ad453168-318d-4404-a545-f6a6d9f143ec"}},{"id":"8b32da77-6f73-4a85-b384-55dbb40de2aa","type":"Feature","feature_type":"anchor","geometry":{"type":"Point","coordinates":[30.374507594890964,60.0067393350741]},"properties":{"unit_id":"7977b9bd-291a-4f2e-b3d9-0c8980354013","address_id":"feb3a6cc-5fc7-48df-82ce-226f89873e93"}},{"id":"b5a28c85-5e0c-4e5a-b22f-00af65155110","type":"Feature","feature_type":"anchor","geometry":{"type":"Point","coordinates":[30.370838704725919,60.007358374225305]},"properties":{"unit_id":"b00edf9d-2d23-4411-bc04-21f41a17f88e","address_id":"ac3ce38a-4f10-4c7c-8d03-88f42a99793f"}},{"id":"ecb529eb-f9bc-43f6-9a48-22c1a328cfe9","type":"Feature","feature_type":"anchor","geometry":{"type":"Point","coordinates":[30.371327649700717,60.008082657439658]},"properties":{"unit_id":"84d508b5-1249-4041-bff3-23ed5d771b3f","address_id":"fe1fd0aa-eb2e-4c8a-9733-1216374d5533"}},{"id":"b21604d5-3520-4745-bacd-747fcc52ae43","type":"Feature","feature_type":"anchor","geometry":{"type":"Point","coordinates":[30.374996575326826,60.007463618288448]},"properties":{"unit_id":"4916303a-6ee3-4055-839f-f4d6bb582eb0","address_id":"301944a3-3e44-4de7-aed0-5beb19cc2e6f"}},{"id":"a5b65495-182e-4aa1-a426-5f97b5207f31","type":"Feature","feature_type":"anchor","geometry":{"type":"Point","coordinates":[30.372266566615338,60.007926612740114]},"properties":{"unit_id":"98a21c1d-c7c7-4a42-a878-e69bd88b52f6","address_id":"a05e7e3c-c986-4b0d-b0d0-eb7dafad4f2b"}},{"id":"7e1762ec-cd0e-4804-833d-764356a44d6e","type":"Feature","feature_type":"anchor","geometry":{"type":"Point","coordinates":[30.372360314042083,60.007910795296048]},"properties":{"unit_id":"633e537b-74ea-494d-93d3-7d073b259d64","address_id":"36f116bb-d129-44c5-8738-d6dedfb216f3"}},{"id":"d35f958c-5c20-4223-9379-d15047bd71b9","type":"Feature","feature_type":"anchor","geometry":{"type":"Point","coordinates":[30.372172819143753,60.007942430184173]},"properties":{"unit_id":"a981fbeb-e749-4151-952f-2c1f80f0ada7","address_id":"6b87c276-4ecf-4127-8127-eef81cbc942b"}},{"id":"99d9c5e7-cee6-446f-a8ab-561709ced32f","type":"Feature","feature_type":"anchor","geometry":{"type":"Point","coordinates":[30.372917336733835,60.007480858761809]},"properties":{"unit_id":"669de416-f07b-4717-9a9e-9bffda3e0788","address_id":"08416839-31b9-4b52-b59a-2bf354645b35"}},{"id":"c84d1066-5e1f-41a6-bacd-66d016912fdc","type":"Feature","feature_type":"anchor","geometry":{"type":"Point","coordinates":[30.373240266424038,60.007474066095448]},"properties":{"unit_id":"105c26db-6ea8-4875-95f8-6e4a96d16749","address_id":"3063bcc6-cf6c-4220-bb9d-c5b64cc2c929"}},{"id":"6e3fd651-340a-4be4-b60a-4d6c9ea658f6","type":"Feature","feature_type":"anchor","geometry":{"type":"Point","coordinates":[30.373143181458214,60.007442753138541]},"properties":{"unit_id":"dc041240-cd57-4ae5-a1e9-406a31cf6455","address_id":"6ef6fa9d-5164-4643-98c0-e55513bb2553"}},{"id":"df420b1d-ce3a-45bb-aa15-102f40f81dff","type":"Feature","feature_type":"anchor","geometry":{"type":"Point","coordinates":[30.373277789010341,60.007550739243285]},"properties":{"unit_id":"8eaaefdb-d1ee-409a-99e8-c7829f046122","address_id":"1e2b8e08-0e51-41a5-9093-18f5d27c41de"}},{"id":"1867881c-68ac-4145-93d0-33de7133d184","type":"Feature","feature_type":"anchor","geometry":{"type":"Point","coordinates":[30.373201511326631,60.007715474164563]},"properties":{"unit_id":"2475eeb4-fa83-46d1-ba83-b9cdee6ac06f","address_id":"d5339ff1-21be-4afd-a810-0d0ba2415e8b"}},{"id":"430e134d-e383-4a63-9935-43eb2f36f10b","type":"Feature","feature_type":"anchor","geometry":{"type":"Point","coordinates":[30.373271085057976,60.007590025281019]},"properties":{"unit_id":"4b55a781-715b-4815-a7db-ce6bbe9ac281","address_id":"b1bd2ce8-bf22-4e89-83d5-f533f4f45958"}},{"id":"61504868-28b1-4479-a33d-03d191f75e8b","type":"Feature","feature_type":"anchor","geometry":{"type":"Point","coordinates":[30.372993990972073,60.007636589214769]},"properties":{"unit_id":"b795d4ad-b115-4a73-b7f6-cae2777d1223","address_id":"471f1855-da6a-48ff-9502-7e8ae87591f3"}},{"id":"d3a293f0-1cc2-42bf-868f-32feb240c521","type":"Feature","feature_type":"anchor","geometry":{"type":"Point","coordinates":[30.373025746592678,60.007572304518121]},"properties":{"unit_id":"dd4c03b6-da81-497f-9de9-d7cd49521477","address_id":"e36d5026-6dbb-4abf-b1f6-3dc4579758a0"}},{"id":"14faea7d-b689-4e5a-911b-64801f3d0c40","type":"Feature","feature_type":"anchor","geometry":{"type":"Point","coordinates":[30.374936744657418,60.007403119371183]},"properties":{"unit_id":"17895583-d5c6-45bb-a849-38f2607932fa","address_id":"17ef7a39-e3f3-4997-acdb-9cb96e6b3dda"}},{"id":"4ac3d3d1-be87-488a-ae04-0205dfe0eb83","type":"Feature","feature_type":"anchor","geometry":{"type":"Point","coordinates":[30.37496838477913,60.007449984926772]},"properties":{"unit_id":"7914f295-b317-483a-b15c-f362a31d0c90","address_id":"08b75408-2ae4-4742-8a41-56f41d971597"}},{"id":"0a2863a8-979e-403b-8ae8-f8a036698d50","type":"Feature","feature_type":"anchor","geometry":{"type":"Point","coordinates":[30.374860520575073,60.0072902164738]},"properties":{"unit_id":"b08b782e-b13c-4377-a31e-cd185f2ded33","address_id":"f1369389-2f6c-45ed-a547-7996013a8def"}},{"id":"e3cc6b68-3837-4b04-a304-b2a2c2e9e0e5","type":"Feature","feature_type":"anchor","geometry":{"type":"Point","coordinates":[30.374905104306045,60.007356254090048]},"properties":{"unit_id":"be1603cc-5393-4b6a-aeea-aa24c64610ef","address_id":"7c94145b-c74d-4535-a86a-8dd4fac37cd5"}},{"id":"cdb1ba9e-d93a-45be-8cfd-66017bdc1b70","type":"Feature","feature_type":"anchor","geometry":{"type":"Point","coordinates":[30.374882812498054,60.007323235144696]},"properties":{"unit_id":"a7ad5112-da5d-41c2-998c-b81188e25222","address_id":"462b1df1-cd1c-46bb-a6b2-4211263a2dd9"}},{"id":"f023e506-c776-4f92-8e80-b6459a1daedd","type":"Feature","feature_type":"anchor","geometry":{"type":"Point","coordinates":[30.374838228674342,60.007257197528446]},"properties":{"unit_id":"86541214-1044-47ff-a688-b2100023263c","address_id":"98d1f831-8635-4257-8c95-da5add29c625"}},{"id":"a915bb58-3b02-46e9-b596-54762e12fe82","type":"Feature","feature_type":"anchor","geometry":{"type":"Point","coordinates":[30.374796880956929,60.007195953201816]},"properties":{"unit_id":"c9d663af-5d4b-4fdd-acf8-bdbe4eeee082","address_id":"db3f51bb-5460-4fe5-b10d-cae5ace60922"}},{"id":"e480adf8-1634-4292-8a82-a8357db9d3b8","type":"Feature","feature_type":"anchor","geometry":{"type":"Point","coordinates":[30.374651265584795,60.006980265872635]},"properties":{"unit_id":"0841883b-0fd9-45fa-96ca-ef9eae482e1b","address_id":"bcd4f938-6742-4454-b74d-1ce1f30da7ac"}},{"id":"d2f9a730-91d2-41a4-8ca6-3e4603eb5b70","type":"Feature","feature_type":"anchor","geometry":{"type":"Point","coordinates":[30.374752297442047,60.007129915585566]},"properties":{"unit_id":"da4248e0-275b-4445-bd0c-1cf882aba19b","address_id":"dc2e0130-6715-4da0-8c7b-a26de4854b1b"}},{"id":"acfe26c5-2312-4347-8094-9fcc7e61a6ff","type":"Feature","feature_type":"anchor","geometry":{"type":"Point","coordinates":[30.374707713878941,60.007063877969316]},"properties":{"unit_id":"429d9654-da48-46f1-ad36-03bc8138cc60","address_id":"e9dfb612-e865-4aba-ad13-c8a557ca3dd6"}},{"id":"f551d1a6-ec7b-4edb-8669-deea9b17e103","type":"Feature","feature_type":"anchor","geometry":{"type":"Point","coordinates":[30.374613873237095,60.006924879431693]},"properties":{"unit_id":"6d2f3eca-ff45-40c6-8f3e-b7a7465e54a1","address_id":"e65d3a4d-d8bd-4bd0-9a85-c9e6a15bab08"}},{"id":"1bc36125-3a02-49dc-b3f8-42fd17180922","type":"Feature","feature_type":"anchor","geometry":{"type":"Point","coordinates":[30.374591581582614,60.006891860760796]},"properties":{"unit_id":"08403602-574f-47da-afcb-0cd4c934acbd","address_id":"d8092f92-5377-4109-88ee-ba8b753bcc65"}},{"id":"4e548778-608b-4583-8a5c-1b564b508797","type":"Feature","feature_type":"anchor","geometry":{"type":"Point","coordinates":[30.374569289950387,60.006858841815443]},"properties":{"unit_id":"798e3241-0648-4fe4-9de4-0df398734ea3","address_id":"10a16bb9-49bd-40d0-af1e-a1bb1d2348a5"}},{"id":"843cdcb0-e314-4239-b1df-695bd05890ce","type":"Feature","feature_type":"anchor","geometry":{"type":"Point","coordinates":[30.374546998340413,60.006825823144545]},"properties":{"unit_id":"37d87cc5-5732-4832-b390-a7fde2ff81ba","address_id":"20cc1459-963a-4bf1-998c-f12399dd0d2c"}},{"id":"c0a00f1f-ef18-4275-84bf-fab7fca60532","type":"Feature","feature_type":"anchor","geometry":{"type":"Point","coordinates":[30.374524706889943,60.006792804199193]},"properties":{"unit_id":"b5ac505e-c1eb-4da3-a127-0e42d7d92273","address_id":"0358555a-5ea5-4845-be62-43403b304db4"}},{"id":"f702a045-06c4-4146-b226-2c3fcc468ffc","type":"Feature","feature_type":"anchor","geometry":{"type":"Point","coordinates":[30.374301115254291,60.006799089405348]},"properties":{"unit_id":"3010ec00-e181-4193-848e-bb2dc370b8cc","address_id":"e5e71206-fd04-4deb-b160-28091e020609"}},{"id":"feee9279-0db8-4a97-8c4f-1a1ae9617d44","type":"Feature","feature_type":"anchor","geometry":{"type":"Point","coordinates":[30.3744594730313,60.007054745332312]},"properties":{"unit_id":"82739836-a218-472b-a9f7-3362dcf1de91","address_id":"ff798aef-3b67-4533-9a6f-68a4f857204b"}},{"id":"327f75a3-3310-4ee7-bf31-7f30fb37ec7a","type":"Feature","feature_type":"anchor","geometry":{"type":"Point","coordinates":[30.373912097728535,60.007361849874876]},"properties":{"unit_id":"a607e432-1ef9-4098-ab66-7863b74fb43f","address_id":"785da1b5-b06c-4418-a92c-7188247e9fc7"}},{"id":"86ba29de-7d1e-4196-bd2e-cf400036d882","type":"Feature","feature_type":"anchor","geometry":{"type":"Point","coordinates":[30.37448607914466,60.007094154873066]},"properties":{"unit_id":"ec85e72a-0e5f-4054-b494-425e6e0eb80f","address_id":"023e2e78-e351-4c6d-88fa-d09a47caa216"}},{"id":"379ea9b3-5f99-4b89-804a-a322e6966a8d","type":"Feature","feature_type":"anchor","geometry":{"type":"Point","coordinates":[30.374427488049296,60.007104040878517]},"properties":{"unit_id":"7de0e1f5-ac80-4f72-9159-5b83b6f0b3db","address_id":"dc95f110-d648-4f53-8d1f-5500dc8046fc"}},{"id":"6999f0f4-458a-46f6-b40a-fc582af8e786","type":"Feature","feature_type":"anchor","geometry":{"type":"Point","coordinates":[30.374365700982175,60.007114465906064]},"properties":{"unit_id":"50efe979-640f-4253-a40b-d6235432c172","address_id":"41e4a32b-7b90-4718-bcc8-b50c38c81af8"}},{"id":"47b58dcf-1411-4166-82ce-bbe91d6e7791","type":"Feature","feature_type":"anchor","geometry":{"type":"Point","coordinates":[30.374303913621077,60.007124891208065]},"properties":{"unit_id":"286e3c63-6a50-452d-9a15-0b95c3bf3ac0","address_id":"e06c773c-a52c-4da7-aacc-5b9a38228c5d"}},{"id":"74052633-6ce6-49a0-b1f9-92393617d476","type":"Feature","feature_type":"anchor","geometry":{"type":"Point","coordinates":[30.374242126515,60.007135316235612]},"properties":{"unit_id":"d035cdfc-4444-4d9c-8b2d-64d5aed4b325","address_id":"d9db0aab-f651-4e29-926f-f128e0acc69e"}},{"id":"fa1269c8-9b28-49ac-8b1f-0e629473846a","type":"Feature","feature_type":"anchor","geometry":{"type":"Point","coordinates":[30.374180339389447,60.007145741537613]},"properties":{"unit_id":"72a81a25-3f32-4993-90d6-b379a737e6b7","address_id":"fb0a4db1-781a-44b5-9401-b479862f5cdf"}},{"id":"c429a79f-def3-4302-bc5f-023d250bc7a4","type":"Feature","feature_type":"anchor","geometry":{"type":"Point","coordinates":[30.374118552244418,60.00715616656516]},"properties":{"unit_id":"86517bd5-445f-4a7d-b02a-a7dda8056bc5","address_id":"b6cc90dc-cfae-450f-8041-aa4294b0d7cf"}},{"id":"5f5427af-d98c-4857-9099-a8dc78920d2f","type":"Feature","feature_type":"anchor","geometry":{"type":"Point","coordinates":[30.37159591297824,60.007581800802917]},"properties":{"unit_id":"3571fc30-8a8c-493a-ac07-d58b67804640","address_id":"4fa077ae-3079-498f-a69a-38e364a9351e"}},{"id":"cb99e8c9-d722-4909-b198-ceca944f1f4d","type":"Feature","feature_type":"anchor","geometry":{"type":"Point","coordinates":[30.374045685885037,60.007206427630571]},"properties":{"unit_id":"e05e213b-1f71-44e0-8f9d-5188a48398e1","address_id":"6ece3ed1-96e9-4552-a25a-4b038d87ad5b"}},{"id":"d67bdb96-5669-4c0f-98e4-f491b8cc0af4","type":"Feature","feature_type":"anchor","geometry":{"type":"Point","coordinates":[30.373847540299963,60.007239860173833]},"properties":{"unit_id":"8e239e43-dd4c-4b5e-be86-ad6776e4999d","address_id":"59557760-0113-411c-9a72-c848581bcfab"}},{"id":"4d95e4bd-8082-41e2-b4a9-fabcf5f03c10","type":"Feature","feature_type":"anchor","geometry":{"type":"Point","coordinates":[30.373946613254784,60.0072231439022]},"properties":{"unit_id":"a0713931-1463-4245-b551-850516d298cc","address_id":"6354eb2d-a118-452b-bb71-f8cb0300ae90"}},{"id":"5b05da23-726a-4658-8ddd-0a0e59f2fa18","type":"Feature","feature_type":"anchor","geometry":{"type":"Point","coordinates":[30.373896331105339,60.007155695058053]},"properties":{"unit_id":"52e1ae38-dc62-4cac-9997-bc44e4ae6e03","address_id":"f948d125-3d2b-45d9-bb5a-8684dd3d3725"}},{"id":"627c0b9b-cc0f-4465-bf93-5df47f015799","type":"Feature","feature_type":"anchor","geometry":{"type":"Point","coordinates":[30.37365621267158,60.007234175741274]},"properties":{"unit_id":"be7675f0-5869-4233-839e-18e0cbb37afc","address_id":"9353311d-ab86-4f34-b28c-eb5a457ca454"}},{"id":"2f660619-33b5-49da-af40-728e49beb420","type":"Feature","feature_type":"anchor","geometry":{"type":"Point","coordinates":[30.373357928612574,60.007284504047227]},"properties":{"unit_id":"c5f2074e-fea3-4bbd-b81a-fad46c260265","address_id":"ef7b92d8-f51f-4920-9074-5a56a0e7ffdc"}},{"id":"13f7c608-9052-478c-920a-eabfc5983e25","type":"Feature","feature_type":"anchor","geometry":{"type":"Point","coordinates":[30.373517723788872,60.00725754223911]},"properties":{"unit_id":"95257c81-0c9f-4207-918a-4bb2ac96d36a","address_id":"77c50669-f800-42b8-ae5c-c5f03d6f0efa"}},{"id":"772f7094-d538-4943-8f2a-c1897169e877","type":"Feature","feature_type":"anchor","geometry":{"type":"Point","coordinates":[30.373451675142775,60.007268686603169]},"properties":{"unit_id":"9895e276-f790-4068-8d7a-4060ae652924","address_id":"4212b30f-1dff-40f9-a626-37c44047afc7"}},{"id":"a3a151b9-5991-4010-8511-bda5a43cdfbc","type":"Feature","feature_type":"anchor","geometry":{"type":"Point","coordinates":[30.373251984224535,60.007333227362757]},"properties":{"unit_id":"95cad370-776e-485b-8afb-ba3d0242725b","address_id":"ef05bd1f-feb1-4ca5-bf12-b027b2698e0c"}},{"id":"4471d4fc-d159-4b36-ac3c-9ce8898502be","type":"Feature","feature_type":"anchor","geometry":{"type":"Point","coordinates":[30.372698026431355,60.007426694177454]},"properties":{"unit_id":"69801f35-a0cd-42b8-a633-f796cd6e6bfa","address_id":"b805fc79-b247-4ad7-ba82-0af42ef45df3"}},{"id":"f5260cb3-8356-487c-99b6-af6a173f1943","type":"Feature","feature_type":"anchor","geometry":{"type":"Point","coordinates":[30.372581322524692,60.0074155374631]},"properties":{"unit_id":"86a6eb70-7438-4596-8104-af36841be536","address_id":"87e5b8e5-c919-43d9-9f2c-6b62991f6fcb"}},{"id":"5808ecdc-0d7c-4b25-9bc5-523b701e5e93","type":"Feature","feature_type":"anchor","geometry":{"type":"Point","coordinates":[30.372514208234914,60.007426861318216]},"properties":{"unit_id":"07775b7b-d0f8-4646-9360-5e2e76bb7118","address_id":"e5edde7b-39bc-4948-bc33-55ecce1438a7"}},{"id":"186c4824-2228-4811-98aa-f00ba6a3cde3","type":"Feature","feature_type":"anchor","geometry":{"type":"Point","coordinates":[30.372448159525174,60.00743800540782]},"properties":{"unit_id":"7a7bfb81-5304-46ca-8125-b406495267e8","address_id":"416b0f8b-abd6-43aa-acdc-fe2be7c7b7ef"}},{"id":"ef6fdd51-4af4-4a5e-9ec5-1e1ffb41fd09","type":"Feature","feature_type":"anchor","geometry":{"type":"Point","coordinates":[30.372316061489922,60.007460293861477]},"properties":{"unit_id":"ffdf5e3b-a80f-4f90-9871-81d34bf91f86","address_id":"20a275ea-c23f-4d2f-b290-2298281a5e52"}},{"id":"0bc59000-87f1-4136-ac5e-afb3eb4bd37b","type":"Feature","feature_type":"anchor","geometry":{"type":"Point","coordinates":[30.372382110244175,60.007449149771872]},"properties":{"unit_id":"36ec1a2e-a595-4fa6-9850-705cfa788a30","address_id":"0457ac6f-7e42-4ee5-8b22-5700720726d4"}},{"id":"99acaa6c-5430-427c-aa73-e0be50de1609","type":"Feature","feature_type":"anchor","geometry":{"type":"Point","coordinates":[30.372250012164422,60.007471437951075]},"properties":{"unit_id":"60679c26-769f-433d-9e3e-501da850bc65","address_id":"2b1dabcb-f608-4008-a483-a0423e823871"}},{"id":"cec3d23f-8597-4395-92ec-82be4ee38534","type":"Feature","feature_type":"anchor","geometry":{"type":"Point","coordinates":[30.372183963365657,60.00748258204068]},"properties":{"unit_id":"9fb5932d-28dc-4318-ba9f-0f54df5ccdcf","address_id":"5924706f-de11-4a9e-a4e4-f706e1c0b95a"}},{"id":"22ad10e1-feb3-4d2e-8c47-4209a538ba21","type":"Feature","feature_type":"anchor","geometry":{"type":"Point","coordinates":[30.371429724231039,60.007609840929668]},"properties":{"unit_id":"7f2fea9c-293a-4462-9399-ddffd92fb43b","address_id":"254808c7-3adc-4c73-92e6-dc4a6013c442"}},{"id":"e699c77f-150d-4513-b3bc-d6e1671ff6fe","type":"Feature","feature_type":"anchor","geometry":{"type":"Point","coordinates":[30.37151281862225,60.007595820866293]},"properties":{"unit_id":"40b8279f-4f3c-40de-8d32-d49e12f86912","address_id":"5820a3e4-194b-47c6-83d4-0f17a50531dd"}},{"id":"896e4227-a696-4ee6-89a4-7f963ac8c53c","type":"Feature","feature_type":"anchor","geometry":{"type":"Point","coordinates":[30.371661961975153,60.00757065671332]},"properties":{"unit_id":"abf8af45-37fc-4703-941e-9e5eb62416ca","address_id":"4a615285-3809-43e1-b3f8-1f2138b985e3"}},{"id":"611a6aef-1596-4915-8e33-869975eb7888","type":"Feature","feature_type":"anchor","geometry":{"type":"Point","coordinates":[30.371728011498806,60.007559512623715]},"properties":{"unit_id":"070cb719-5e52-4d63-ba8c-279de50b1f71","address_id":"8a6475bd-98bc-480d-a560-97676bf49b00"}},{"id":"d79bc29f-c944-4ce0-be8d-d85ab6c1cc53","type":"Feature","feature_type":"anchor","geometry":{"type":"Point","coordinates":[30.371794060451212,60.00754836853411]},"properties":{"unit_id":"03fde7d9-6446-4889-902a-3242cf57a194","address_id":"46c63624-455f-4ec2-a02e-899fbbdbbb18"}},{"id":"fccdaa2d-901d-46ec-a700-95322836ef36","type":"Feature","feature_type":"anchor","geometry":{"type":"Point","coordinates":[30.372135597238149,60.007528709048181]},"properties":{"unit_id":"ab115978-8444-4af7-b981-33ce4716ec2f","address_id":"b07cc868-d22d-4097-bbf1-80e72a0e9564"}},{"id":"057411b2-2b74-442f-839b-08ed776f51a5","type":"Feature","feature_type":"anchor","geometry":{"type":"Point","coordinates":[30.371884184492409,60.007571128494874]},"properties":{"unit_id":"f1de1845-2c56-42b8-9722-f56d808df720","address_id":"af80ab79-0c9f-4149-bb48-f3cecc1a1f83"}},{"id":"536a4854-21c8-4cee-8c4d-7c1f99e493e3","type":"Feature","feature_type":"anchor","geometry":{"type":"Point","coordinates":[30.372012021568583,60.007549559377722]},"properties":{"unit_id":"fdc49d32-9d9b-401c-8637-6992ae0e359a","address_id":"f8328747-c7d3-49ba-887c-89da489ecb67"}},{"id":"ebf1677f-e8b6-44c2-b1f1-440fa6f7884c","type":"Feature","feature_type":"anchor","geometry":{"type":"Point","coordinates":[30.371961741143735,60.007482110533573]},"properties":{"unit_id":"57c6c9a8-55fa-4a41-89c6-bbf691f41989","address_id":"ba3ea5db-e7b0-4b73-bf13-dbf1e1fbfe5a"}},{"id":"2fb0a7f4-c99f-4353-9378-78839e7b7108","type":"Feature","feature_type":"anchor","geometry":{"type":"Point","coordinates":[30.372207609256726,60.00764944039063]},"properties":{"unit_id":"8df2ffed-f613-48d2-9cd0-9320a8540fa1","address_id":"4ba6689d-2da1-4892-829e-1b7d762d021c"}},{"id":"24cafd72-7051-4917-9b42-c5ebe850029d","type":"Feature","feature_type":"anchor","geometry":{"type":"Point","coordinates":[30.371218806242318,60.00731322426396]},"properties":{"unit_id":"966a17c6-6391-42e2-ba23-d432602c301e","address_id":"4fe5cefb-ef34-4e4c-8fd5-ee917abb1069"}},{"id":"9d66791f-c2e5-4f4e-8d0d-0aca6126fbd3","type":"Feature","feature_type":"anchor","geometry":{"type":"Point","coordinates":[30.3714299504413,60.007974040371685]},"properties":{"unit_id":"d5d32ec6-a389-4854-a26d-a3b95203d66c","address_id":"0c196375-6086-479f-96c5-22cec8711552"}},{"id":"84865ec0-86e2-4f63-bead-50cd595c96bf","type":"Feature","feature_type":"anchor","geometry":{"type":"Point","coordinates":[30.371474171779553,60.008039545552677]},"properties":{"unit_id":"485743f0-40ec-43d4-9478-7cafbae823e9","address_id":"5330978e-c62f-4cd5-a131-35a64d993bba"}},{"id":"a6540e6c-265e-457d-9850-4c8d42ff633c","type":"Feature","feature_type":"anchor","geometry":{"type":"Point","coordinates":[30.371385729190603,60.0079085357396]},"properties":{"unit_id":"004848c2-26ba-4bb9-97d8-c4c57c4ae5d1","address_id":"54d5fc10-b391-4ddf-8b7e-9fcb42f01165"}},{"id":"2d762eba-ff60-4978-a74a-c44124f39c85","type":"Feature","feature_type":"anchor","geometry":{"type":"Point","coordinates":[30.371363438953342,60.00787551679425]},"properties":{"unit_id":"62749613-4c7f-4170-bfce-7ac616fad5d1","address_id":"81c1ad39-3136-4764-96b7-d56b88212bf5"}},{"id":"412d3ba8-8c64-46a0-bcf1-a50e97cb8c34","type":"Feature","feature_type":"anchor","geometry":{"type":"Point","coordinates":[30.371341148738317,60.007842498123352]},"properties":{"unit_id":"52baec95-477f-4916-bf22-b59b03eac5fe","address_id":"742e2737-5963-4e0c-b71b-a558fc989cfe"}},{"id":"0bd8aee9-e14c-4eb8-a445-4794a43f000e","type":"Feature","feature_type":"anchor","geometry":{"type":"Point","coordinates":[30.371030165093792,60.007381832664286]},"properties":{"unit_id":"6d0659bc-9a01-4557-983e-7479857c9e20","address_id":"797e0b1d-9a6c-4dbb-a258-de5f3214738c"}},{"id":"812e3f16-8321-466f-b2a1-24c6695c9995","type":"Feature","feature_type":"anchor","geometry":{"type":"Point","coordinates":[30.371052095439289,60.007414318899926]},"properties":{"unit_id":"9fece7ad-973c-4fbb-9989-8cb528895040","address_id":"15b46425-00e2-451f-8836-a5ba89d1a49f"}},{"id":"93a35cf9-7cc4-4721-9e5b-e9a1236493fd","type":"Feature","feature_type":"anchor","geometry":{"type":"Point","coordinates":[30.371074385640231,60.007447337570824]},"properties":{"unit_id":"f8496048-a53a-40bd-83be-1ce1a5e4e070","address_id":"9a9d3419-e94c-439b-b540-b6cc292d71f6"}},{"id":"9dfcf0fc-2184-4f75-bf65-7fe3e00bbf18","type":"Feature","feature_type":"anchor","geometry":{"type":"Point","coordinates":[30.371096675588909,60.007480356516176]},"properties":{"unit_id":"94927d6b-16c6-457d-806e-dbe4f4018692","address_id":"b768ffc8-d4db-4fe6-848a-86194f51bd03"}},{"id":"1c67926b-095e-48ef-8a66-74f258d62d53","type":"Feature","feature_type":"anchor","geometry":{"type":"Point","coordinates":[30.371118965834356,60.007513375187074]},"properties":{"unit_id":"c17ade86-afb4-4686-ac80-8ac35c68c6b0","address_id":"112657a7-fcc6-44c2-9f6a-675042d3ed6f"}},{"id":"ece305a3-1629-4139-a0cc-e27c3d37e299","type":"Feature","feature_type":"anchor","geometry":{"type":"Point","coordinates":[30.371141255827542,60.007546394132426]},"properties":{"unit_id":"27894f95-8308-449f-b423-5df31616d933","address_id":"1770533c-a0ce-4e6a-974c-2c58ac72fc73"}},{"id":"4e8bd060-2183-494c-8312-0f3f3bebe662","type":"Feature","feature_type":"anchor","geometry":{"type":"Point","coordinates":[30.371163545842997,60.007579412803324]},"properties":{"unit_id":"95ec5e33-d343-4e04-bbc0-74cdf4a8a33b","address_id":"63339136-de39-44cb-a58d-83270b9b03ea"}},{"id":"ff47a699-e915-40dd-9183-796aba75dbc0","type":"Feature","feature_type":"anchor","geometry":{"type":"Point","coordinates":[30.371260820068326,60.007607491627681]},"properties":{"unit_id":"0016a7fe-e76d-4df5-8dae-279b9a2cf505","address_id":"a0927912-1c9d-4221-bdc0-3d99eb693222"}},{"id":"5c80ed10-fc86-4652-9c76-08f628f32016","type":"Feature","feature_type":"anchor","geometry":{"type":"Point","coordinates":[30.371199085428508,60.007625026587142]},"properties":{"unit_id":"8a9c95ad-9e89-44c0-86c9-a59675da0d19","address_id":"bfca7445-3a7a-4478-932a-b808b8059c6b"}},{"id":"df2260e4-339a-4299-a40f-1a65e9389b18","type":"Feature","feature_type":"anchor","geometry":{"type":"Point","coordinates":[30.371306941197293,60.007784795040116]},"properties":{"unit_id":"c3bedb8a-e5f8-4548-b1bb-70683b0471b3","address_id":"c9531ef9-79bb-4050-aae8-bf2e8d1a6c3d"}},{"id":"abeeea1f-c022-41f1-9aa3-9d79b2499b7a","type":"Feature","feature_type":"anchor","geometry":{"type":"Point","coordinates":[30.371322760332419,60.007808227680684]},"properties":{"unit_id":"33f0de84-31cf-4578-ab38-1b230c4af6ee","address_id":"99e6a024-4185-42b0-9d82-be3264243372"}},{"id":"8cbb34d8-2cb9-42e4-bc4f-a46f0b4aeb3b","type":"Feature","feature_type":"anchor","geometry":{"type":"Point","coordinates":[30.371292110209861,60.007703059914959]},"properties":{"unit_id":"314c353a-7b50-49b4-8633-e803414950ac","address_id":"388b695f-2923-46da-a585-d1892ceb2fd5"}},{"id":"6f1dd630-b78c-4046-b7eb-a2c873a54da9","type":"Feature","feature_type":"anchor","geometry":{"type":"Point","coordinates":[30.371033426076227,60.007724163837388]},"properties":{"unit_id":"681c6d99-00a1-4b18-9e60-83bd6aac54db","address_id":"95886178-ff78-4a58-a37a-da08c3e01b63"}},{"id":"dbc88828-c7cd-420e-8d36-e3899342c134","type":"Feature","feature_type":"anchor","geometry":{"type":"Point","coordinates":[30.371093405315644,60.007661840643216]},"properties":{"unit_id":"56973e88-dac8-4044-88a8-18d3781d41d4","address_id":"7d85c5e0-7824-4d9d-9b8f-75f968458d88"}},{"id":"a5896dd9-9313-4561-b9aa-dbb98822f42e","type":"Feature","feature_type":"anchor","geometry":{"type":"Point","coordinates":[30.371185442068427,60.007798176181169]},"properties":{"unit_id":"b49b35c1-24e2-4d0a-8575-8ef31cb65eff","address_id":"87b24b8f-ab13-4b30-be04-13749153dc17"}},{"id":"336bc4c8-38f6-485a-bc9a-f9e03a746511","type":"Feature","feature_type":"anchor","geometry":{"type":"Point","coordinates":[30.372187111040635,60.00780891655311]},"properties":{"unit_id":"b3db7083-f542-4967-bd90-407b9bad2e91","address_id":"120a7458-86f2-42fb-bec5-aab4f6558bd3"}},{"id":"897154b8-4bff-43de-94bb-f044d5837d9f","type":"Feature","feature_type":"anchor","geometry":{"type":"Point","coordinates":[30.374139257846672,60.007508495445336]},"properties":{"unit_id":"fe621698-4abe-4fe6-b684-fb76ecae9e70","address_id":"ba3602ae-e4ae-4202-8b8c-32c1cff46762"}},{"id":"29dccd12-e9ef-4ad5-8884-469a96b6b3f8","type":"Feature","feature_type":"anchor","geometry":{"type":"Point","coordinates":[30.374093305477572,60.007440428811613]},"properties":{"unit_id":"536ecd58-5d89-4e21-b0ee-b4ccb0f62c08","address_id":"9e67f6f3-0921-4070-9522-b7424ad2df02"}},{"id":"684d3870-03a4-472b-8b3d-88534213bc2e","type":"Feature","feature_type":"anchor","geometry":{"type":"Point","coordinates":[30.374583611216938,60.0074882110341]},"properties":{"unit_id":"8c6710d9-24ca-4a72-9142-2819111f29d5","address_id":"18b439ee-b656-4e6d-a52a-4ff75bf21558"}},{"id":"7e22dc40-918f-48d6-a36a-daeb3f2c8cbd","type":"Feature","feature_type":"anchor","geometry":{"type":"Point","coordinates":[30.374332239446158,60.007502149311023]},"properties":{"unit_id":"a6925505-9fbe-43a0-b531-b8d9131ec62d","address_id":"1841e8dc-f0fe-48e8-89ed-d403d2339694"}},{"id":"e7ba2a2d-d87c-49f6-b959-21c92e7c2d1d","type":"Feature","feature_type":"anchor","geometry":{"type":"Point","coordinates":[30.374353945508975,60.007538233052543]},"properties":{"unit_id":"77e507fb-77f2-4d74-bb93-f88a09c551af","address_id":"c9b51eef-ecf0-4896-8bbd-ba9689f06cfd"}},{"id":"dc139599-1b48-4698-a96b-8c47864174a7","type":"Feature","feature_type":"anchor","geometry":{"type":"Point","coordinates":[30.373999132818255,60.007589200555259]},"properties":{"unit_id":"d723717d-8f20-4dce-9e9f-4d98a153bf7c","address_id":"0c06b2c9-3ac0-4195-8d41-86cbe84e9b61"}},{"id":"fd3a426e-45d2-4316-a28e-310338776491","type":"Feature","feature_type":"anchor","geometry":{"type":"Point","coordinates":[30.374179595567472,60.007568243464213]},"properties":{"unit_id":"16af718c-f38d-458b-a92a-2710aa0c2324","address_id":"b9771b17-715b-4e6f-bb90-07ed066e607a"}},{"id":"c6d19605-e30c-496b-b709-375305cc6dc1","type":"Feature","feature_type":"anchor","geometry":{"type":"Point","coordinates":[30.374142202487281,60.007323025189557]},"properties":{"unit_id":"b9c9d891-8a52-4c63-a5af-0576956aa33d","address_id":"faf09e4d-b20a-4b80-b897-1230d988ab18"}},{"id":"2b0e4f15-8178-4677-b323-b8f867779cb5","type":"Feature","feature_type":"anchor","geometry":{"type":"Point","coordinates":[30.371977501677886,60.007688265350396]},"properties":{"unit_id":"23dd09b2-c892-42dd-a730-0ad065273cc1","address_id":"937fdceb-e61b-4bd1-ad3f-2958fa7ed324"}},{"id":"32446303-58bc-4b11-9d7b-2f7a94c18ac5","type":"Feature","feature_type":"anchor","geometry":{"type":"Point","coordinates":[30.371707754771009,60.008037507478313]},"properties":{"unit_id":"432f45fe-c1c3-4063-94b2-1906a2c5cae4","address_id":"a17b4a9a-d6b2-47f7-ba03-e51ebcbbe6d3"}},{"id":"abdf5024-58e0-41a1-b205-c70f1064832c","type":"Feature","feature_type":"anchor","geometry":{"type":"Point","coordinates":[30.372880328842527,60.007239719654834]},"properties":{"unit_id":"83995ed7-3ce3-4536-b5f4-f4e3d06c9174","address_id":"1a950357-a7fc-462c-8d74-163cb376218b"}},{"id":"7c796d1f-7ce4-4d5c-a8f5-38e810b1772f","type":"Feature","feature_type":"anchor","geometry":{"type":"Point","coordinates":[30.372647692259918,60.007352135675852]},"properties":{"unit_id":"bfc76e77-c1ec-4f1e-96ea-6d664d6b932d","address_id":"4b57c552-7c2b-456f-9392-7896ffb0207e"}},{"id":"58deaab0-0b5f-4e85-afb7-87c34ab3fa4a","type":"Feature","feature_type":"anchor","geometry":{"type":"Point","coordinates":[30.373201649499805,60.007258668861148]},"properties":{"unit_id":"4d97de61-37e0-4e69-9ada-d081474e8c4e","address_id":"bf53a139-a8bb-47bd-9efd-19fdbcbe70e5"}},{"id":"fd93560d-65b9-45ae-b07b-c159689bfd7f","type":"Feature","feature_type":"anchor","geometry":{"type":"Point","coordinates":[30.373201649499805,60.007258668861148]},"properties":{"unit_id":"4d97de61-37e0-4e69-9ada-d081474e8c4e","address_id":"7858b5ce-3790-44f2-8984-3966224c8cd7"}},{"id":"5b0051f2-407f-4316-a1e3-5ff255b078f4","type":"Feature","feature_type":"anchor","geometry":{"type":"Point","coordinates":[30.37171052193451,60.008122464385707]},"properties":{"unit_id":"e492787e-41e6-40cb-90a7-ab4608daba68","address_id":"a49a5827-f498-4ca2-9aed-3de4f368294b"}},{"id":"29f5d69e-e02e-45ed-92d7-33783a81c855","type":"Feature","feature_type":"anchor","geometry":{"type":"Point","coordinates":[30.374916041136522,60.00762907254623]},"properties":{"unit_id":"9e1bfd93-4220-4dca-a975-24e4c1cceead","address_id":"cf40f039-23f6-4ebe-b485-2cfaef2936a7"}},{"id":"d35b8603-679d-4190-95ce-c0f059d8f717","type":"Feature","feature_type":"anchor","geometry":{"type":"Point","coordinates":[30.374864106575682,60.007570507411884]},"properties":{"unit_id":"aad8b86f-6d7e-473b-bc3d-a4b7b433593a","address_id":"7e71e31f-78fb-42b3-aa4a-90b2ab22fd5b"}},{"id":"3040d851-563b-4aed-bc53-833428f8f07f","type":"Feature","feature_type":"anchor","geometry":{"type":"Point","coordinates":[30.375096539562684,60.007557550572329]},"properties":{"unit_id":"a29d5b0d-4ff4-4091-b679-cd48c04bef97","address_id":"1a5970c4-11ee-4206-86cb-749e3da99255"}},{"id":"dc471d59-7c72-41dc-b221-a88136da35e4","type":"Feature","feature_type":"anchor","geometry":{"type":"Point","coordinates":[30.371514502835709,60.008155537397933]},"properties":{"unit_id":"f3535eb4-f48a-4b6f-8c45-dd9b231f43a8","address_id":"5f240a4f-4f37-4ac1-b359-92c88b38a1a6"}},{"id":"c759ff12-59c9-4738-a992-311acd28fce7","type":"Feature","feature_type":"anchor","geometry":{"type":"Point","coordinates":[30.370983853093108,60.007259622030048]},"properties":{"unit_id":"fe6051d8-4569-4f3a-a1ff-cc3c8c71db43","address_id":"43b6271c-29af-415a-9b3c-1a80fe10efbe"}},{"id":"c042398e-7c84-40be-b6e3-5040c6b6389c","type":"Feature","feature_type":"anchor","geometry":{"type":"Point","coordinates":[30.374411931616084,60.006689034762168]},"properties":{"unit_id":"5f280f1d-bcce-403a-abf8-bfea082bb50b","address_id":"51594f6b-c321-49f4-9d10-7ac1d053bb7a"}},{"id":"fc922d78-bcbb-43bc-875b-73992d6d7d08","type":"Feature","feature_type":"anchor","geometry":{"type":"Point","coordinates":[30.373045473694546,60.007484342644908]},"properties":{"unit_id":"df5de287-0829-4932-8faa-f4490bf770c3","address_id":"be073bdd-f29c-41ed-8fe5-3034d3077fad"}},{"id":"a789aca3-c391-4406-b2d2-0d4eda69104a","type":"Feature","feature_type":"anchor","geometry":{"type":"Point","coordinates":[30.374511593009174,60.007082731392174]},"properties":{"unit_id":"98a8143f-c61b-4e0a-b629-e16cf64ccbe1","address_id":"ff9ff110-460c-425f-852c-4035c9aae2b2"}},{"id":"055ab3be-e362-429b-b553-dac9760487c6","type":"Feature","feature_type":"anchor","geometry":{"type":"Point","coordinates":[30.371390913567073,60.007793169094093]},"properties":{"unit_id":"d59ada79-1301-4165-aad4-baf0f6fe80f5","address_id":"fe5c63c1-2af3-419f-9af8-51055a34aca1"}}]}