{"type":"FeatureCollection","name":"anchor","features":[{"id":"621086cc-f873-4b6a-b292-4fce854c5c70","type":"Feature","feature_type":"anchor","geometry":{"type":"Point","coordinates":[30.374934117104047,60.007505831178428]},"properties":{"unit_id":"2b0447e2-be8d-49f9-845d-5a4be0835a36","address_id":"e1394f58-8342-4c55-93b8-7d35bc31606a"}},{"id":"d0346ef2-e8ab-4d43-af91-10444183cd66","type":"Feature","feature_type":"anchor","geometry":{"type":"Point","coordinates":[30.371528248165529,60.008088381223743]},"properties":{"unit_id":"27f0df59-cc88-4cc1-83b4-0dc617cb40c6","address_id":"73ca5f3e-d598-4481-96c6-11393009de92"}},{"id":"371f1ea6-9d19-4c40-9839-f2fd64e0c36e","type":"Feature","feature_type":"anchor","geometry":{"type":"Point","coordinates":[30.371400590995524,60.008110216009619]},"properties":{"unit_id":"3dd1049d-4a47-45a6-8a2a-37f0603a5bbe","address_id":"32e24595-ff0b-4b8c-8afd-2badf966506b"}},{"id":"97ae2f8d-fd0b-49c8-a518-def4ffcba16b","type":"Feature","feature_type":"anchor","geometry":{"type":"Point","coordinates":[30.371655905525746,60.008066546437867]},"properties":{"unit_id":"48db71bc-ac7a-4e99-8ca8-420b676a9a51","address_id":"2c94e5fb-dc0f-4a20-bef1-bfd8540fe008"}},{"id":"f69de912-b310-43e1-9306-6d2d4e770be9","type":"Feature","feature_type":"anchor","geometry":{"type":"Point","coordinates":[30.371502044279513,60.008050090894841]},"properties":{"unit_id":"93fe95c0-0957-4f0a-852c-0db17cd598f1","address_id":"af320912-f09d-4f3e-90bd-d96f396b3d65"}},{"id":"54c5d601-9286-4b41-9c1a-7edd305ca792","type":"Feature","feature_type":"anchor","geometry":{"type":"Point","coordinates":[30.371580655205076,60.00816496188154]},"properties":{"unit_id":"5ae0aa9d-dc95-45ad-86c7-33746f158658","address_id":"f32018d4-9c5e-452d-a167-f96a01582ab6"}},{"id":"63939187-b1c7-44ad-9bcd-0eb15ec9f874","type":"Feature","feature_type":"anchor","geometry":{"type":"Point","coordinates":[30.375060070342045,60.007484288408591]},"properties":{"unit_id":"68f74ea2-686e-4ba9-b75e-9ab9f6ed2082","address_id":"409f21fc-9281-433c-ad05-65bca91aa314"}},{"id":"946b5e19-9cd0-4d23-9c42-024c2d4307a2","type":"Feature","feature_type":"anchor","geometry":{"type":"Point","coordinates":[30.374804760032269,60.007527957156995]},"properties":{"unit_id":"0428b512-1ff8-489e-917e-ad7ec5ef3b61","address_id":"1290689d-3fa3-4790-934e-9de84daad61d"}},{"id":"aa54f6fa-ee7d-4a78-8307-2c1aa4232fd8","type":"Feature","feature_type":"anchor","geometry":{"type":"Point","coordinates":[30.374906209877825,60.007467832316671]},"properties":{"unit_id":"d41927b7-3cfc-4f0c-b975-15af6cff0f1f","address_id":"3978e8ad-3283-4905-8a71-bf2c667a345f"}},{"id":"25535e01-11dc-4b20-9dd0-4d031ac683c1","type":"Feature","feature_type":"anchor","geometry":{"type":"Point","coordinates":[30.374984826297748,60.007582703852272]},"properties":{"unit_id":"86d83c9f-e158-434b-9b99-1b42ce587fcf","address_id":"292e8024-0cdf-4193-ab3a-29bcec452add"}},{"id":"f44a9570-a764-49b6-8f9f-6ffcc9bd4a47","type":"Feature","feature_type":"anchor","geometry":{"type":"Point","coordinates":[30.371034997340818,60.0073648291473]},"properties":{"unit_id":"9cc49123-7f3f-4c28-8099-8ecadcdc194c","address_id":"fdf610c1-3dc1-4a83-a7cb-2863f95a8228"}},{"id":"10d96370-c522-427e-a4c5-97025ceaf7a5","type":"Feature","feature_type":"anchor","geometry":{"type":"Point","coordinates":[30.37116095158029,60.007343285279653]},"properties":{"unit_id":"3dd0849b-4e36-4486-953b-00883c90c25b","address_id":"5004a23a-ecc5-4603-a924-d7bf4f326f53"}},{"id":"30ac98ad-4a5c-4756-af94-214616501aa5","type":"Feature","feature_type":"anchor","geometry":{"type":"Point","coordinates":[30.374437429239144,60.006782861761806]},"properties":{"unit_id":"412dd04d-f501-4039-b6a1-5e99c248d619","address_id":"dbaa83ee-e1f6-4b14-8407-3a294a4bf7ea"}},{"id":"068b55e8-2877-47fd-a8d6-d98804b4ee98","type":"Feature","feature_type":"anchor","geometry":{"type":"Point","coordinates":[30.37430977500005,60.006804696273235]},"properties":{"unit_id":"8d3b2186-f3e7-4d5b-8e02-09a396fe011d","address_id":"9bb64354-7834-4d4b-9ecb-ff06177ae668"}},{"id":"660d1667-9cda-4d40-a748-1fb103eceb1a","type":"Feature","feature_type":"anchor","geometry":{"type":"Point","coordinates":[30.372011617878769,60.007600030228843]},"properties":{"unit_id":"a79895ae-9067-4b72-b918-d5012956d2cf","address_id":"4733db2d-d870-44e0-a03f-fca9585fbd15"}},{"id":"a9696da0-032b-4502-9cbf-ef23797c2351","type":"Feature","feature_type":"anchor","geometry":{"type":"Point","coordinates":[30.373954606985439,60.007271977103208]},"properties":{"unit_id":"b6808100-8552-4bd6-aa85-995f51d9e573","address_id":"f6356d3f-064f-4a0e-bc7d-d417761961aa"}},{"id":"7c666700-faf0-4abd-87fb-01c9290e31c1","type":"Feature","feature_type":"anchor","geometry":{"type":"Point","coordinates":[30.37446363418513,60.006821152090708]},"properties":{"unit_id":"1028218c-4b59-430c-af76-e4152f868418","address_id":"0c64bf34-b3c3-4b17-b3cc-907703fbb50a"}},{"id":"3f2bdaeb-1b9e-48ec-b9db-09573b53745b","type":"Feature","feature_type":"anchor","geometry":{"type":"Point","coordinates":[30.374565083119471,60.00676102697593]},"properties":{"unit_id":"0a375b44-e380-4933-b5ce-80bc8a04b0e1","address_id":"9ef34d11-c0ed-4bf5-b289-be2eec7b61e8"}},{"id":"c345c97b-d846-4298-9dba-d2694f52478d","type":"Feature","feature_type":"anchor","geometry":{"type":"Point","coordinates":[30.374376284666152,60.006693517752531]},"properties":{"unit_id":"797afba5-35da-4759-995a-91e67e4c9ba4","address_id":"f729808f-c905-4e8b-a204-59929f28bea4"}},{"id":"57ba2620-2ee8-4bd5-8f16-f6bb35a41ae1","type":"Feature","feature_type":"anchor","geometry":{"type":"Point","coordinates":[30.371059498795852,60.007403410668886]},"properties":{"unit_id":"b9dec209-4fb1-4dff-a069-0a1571fe3a43","address_id":"65920f8c-f462-4f7a-98a9-56d408e65c84"}},{"id":"1a80c9f1-b46d-4188-b66a-2a575506c3d8","type":"Feature","feature_type":"anchor","geometry":{"type":"Point","coordinates":[30.370905639515009,60.00738695512586]},"properties":{"unit_id":"8482d3b9-aa39-4585-82e8-d07f822bf799","address_id":"3c9acecd-f7bb-46e5-ba69-a2b51401a5e2"}},{"id":"98554007-1702-4b98-b68b-8593cefd791a","type":"Feature","feature_type":"anchor","geometry":{"type":"Point","coordinates":[30.370972154253121,60.007275776056254]},"properties":{"unit_id":"2d2ff340-0f94-487a-8aac-913fbabe9236","address_id":"800cd7ca-a19e-4c45-8989-603de52df7b1"}},{"id":"621c1f37-66a1-44d7-83e8-340188aa6ea2","type":"Feature","feature_type":"anchor","geometry":{"type":"Point","coordinates":[30.37205051767263,60.007656873182121]},"properties":{"unit_id":"ce754dda-f47b-437b-9a1a-a632c3b0a577","address_id":"d5d72bb2-3000-4506-9212-a6afd1998422"}},{"id":"9b67af2f-c3d9-4cc3-91f6-a6b263b9cdc5","type":"Feature","feature_type":"anchor","geometry":{"type":"Point","coordinates":[30.372076766734185,60.0076952288304]},"properties":{"unit_id":"52091280-9fd9-4af5-b1f9-111eaee01fa8","address_id":"c9809d24-c3a8-4dc6-92d6-a9cbb94eef98"}},{"id":"04b77a55-76ce-4dc0-854e-b391ede80fd7","type":"Feature","feature_type":"anchor","geometry":{"type":"Point","coordinates":[30.372281416554344,60.0075080726211]},"properties":{"unit_id":"e97512f7-5a52-4cc3-996e-668e4d871ced","address_id":"3f252255-76bc-48ab-9638-e3dc78dc6d59"}},{"id":"5476c1ac-3350-414c-8d71-6d059d713b8c","type":"Feature","feature_type":"anchor","geometry":{"type":"Point","coordinates":[30.371694198127013,60.00760851186768]},"properties":{"unit_id":"9e924d1c-ae81-48a4-a58a-7843cf908497","address_id":"dbeb6210-634f-4d97-925a-2abe2d54eb0e"}},{"id":"a81396c6-31e4-4261-9716-6b8c85e71379","type":"Feature","feature_type":"anchor","geometry":{"type":"Point","coordinates":[30.374029523934215,60.007381445244249]},"properties":{"unit_id":"617439b1-916a-4ca2-a3d1-24f7a8a753fc","address_id":"f7178609-663f-4326-ade0-406d26e4a79c"}},{"id":"ce19786a-9caa-4ced-909d-8ceee2a80842","type":"Feature","feature_type":"anchor","geometry":{"type":"Point","coordinates":[30.374221778641331,60.007176185412682]},"properties":{"unit_id":"bace3143-70ef-4b42-98d7-8489692c89aa","address_id":"eef3aed8-ae65-4c19-b2b6-324490800a11"}},{"id":"f7653fd2-1449-423a-aa4f-c1c9c18cef37","type":"Feature","feature_type":"anchor","geometry":{"type":"Point","coordinates":[30.373634566106748,60.007276624933709]},"properties":{"unit_id":"fd227510-c409-4c7c-8a2b-7ca81790538d","address_id":"63c8cf72-200b-427c-a807-55bcfaf1cf59"}},{"id":"66667413-44e6-40eb-b323-1e9ca41be30d","type":"Feature","feature_type":"anchor","geometry":{"type":"Point","coordinates":[30.372142898695284,60.007786308743306]},"properties":{"unit_id":"36812ec5-4dec-4f73-a763-ccc91ac5d6f2","address_id":"c8b00288-3e68-4157-96cf-e9d2da5b767c"}},{"id":"ce551a15-a2fb-47ff-ad83-94766f84a185","type":"Feature","feature_type":"anchor","geometry":{"type":"Point","coordinates":[30.37408017550457,60.007455456490234]},"properties":{"unit_id":"c2448b0e-7d23-49f8-96a3-861a6ab08c43","address_id":"a29b08d9-6b79-4f6f-bebe-95d3d1b37492"}},{"id":"07a96f45-57ff-4ab2-b1dc-9c147a43b65e","type":"Feature","feature_type":"anchor","geometry":{"type":"Point","coordinates":[30.372243239579941,60.007928068259659]},"properties":{"unit_id":"6926b902-17e3-464c-874f-0b06e4fac4db","address_id":"769aa913-8236-4a36-a0a2-dcda7f48a05d"}},{"id":"f42a42f7-ad38-48c5-8c09-c82885a54ab7","type":"Feature","feature_type":"anchor","geometry":{"type":"Point","coordinates":[30.372160262728663,60.007942260678362]},"properties":{"unit_id":"c18e3d3c-5b9c-48b4-bc14-54cb31024a03","address_id":"e83b2190-1c31-4396-a8a3-def5f9345ef4"}},{"id":"770787b0-6244-477c-bb15-c80b9bfe8e3b","type":"Feature","feature_type":"anchor","geometry":{"type":"Point","coordinates":[30.372328344315491,60.007913511918709]},"properties":{"unit_id":"5b3aaf6a-ce08-44d0-b343-4baacb4c8450","address_id":"7d584699-a1f1-4784-b91a-135e43ea4d57"}},{"id":"8791e2e9-15ed-4226-a4ce-e0c1ba0808ad","type":"Feature","feature_type":"anchor","geometry":{"type":"Point","coordinates":[30.374974185386503,60.007539374325511]},"properties":{"unit_id":"bd58937e-4f36-49c5-bf49-97aa92f28bf5","address_id":"3a03d024-8a30-449e-a8bf-2e90f9d832ee"}},{"id":"241333dc-80d0-4c77-bf30-78e1d3438f7c","type":"Feature","feature_type":"anchor","geometry":{"type":"Point","coordinates":[30.374762208189697,60.007535235327474]},"properties":{"unit_id":"4752d419-2879-4608-82b5-0909ae7a18f3","address_id":"2940e370-bb7f-4ff5-a923-884265261ef8"}},{"id":"2e2cf94f-528b-44cf-9eca-01f7d8f633a0","type":"Feature","feature_type":"anchor","geometry":{"type":"Point","coordinates":[30.374901965139429,60.007649153968622]},"properties":{"unit_id":"8d7308ef-f5b6-4927-930d-9fe75b88ec9f","address_id":"73a89a7b-82ff-44da-a8c3-4a7081d4242c"}},{"id":"9b289235-45ad-4164-bf01-c4014bc2500c","type":"Feature","feature_type":"anchor","geometry":{"type":"Point","coordinates":[30.375071385341908,60.0075702736845]},"properties":{"unit_id":"9eab8d7d-145f-412e-8aab-50f6dd0487ff","address_id":"77d53ca3-f483-4ab1-bd73-bce6f3ea0806"}},{"id":"e2f610db-599d-4f5f-8480-3c62c7505e5c","type":"Feature","feature_type":"anchor","geometry":{"type":"Point","coordinates":[30.374861201028747,60.007589591204287]},"properties":{"unit_id":"b7b48f68-3ed6-449f-b15b-778efb9f01ae","address_id":"26bfa3dd-8855-473a-a021-cd915a358925"}},{"id":"b99b47be-8912-4774-859f-33e34a8f6136","type":"Feature","feature_type":"anchor","geometry":{"type":"Point","coordinates":[30.374734526681408,60.007133630936011]},"properties":{"unit_id":"50eae035-e91a-4765-8f20-3990dd29e148","address_id":"86c14515-255a-494e-ac76-87bef9d1512b"}},{"id":"b699c2b9-489e-41bb-8395-25908ac628ca","type":"Feature","feature_type":"anchor","geometry":{"type":"Point","coordinates":[30.374510328243993,60.006806036418283]},"properties":{"unit_id":"f648df68-1d41-4c8c-af86-dee795599413","address_id":"544cee83-aaa5-4d39-8382-9c958d3f1ca5"}},{"id":"e8813650-946d-4c2d-8caf-a10a1b3ccd77","type":"Feature","feature_type":"anchor","geometry":{"type":"Point","coordinates":[30.374530709753493,60.006835817937677]},"properties":{"unit_id":"65a7256c-d853-4b32-811d-77e4e82d8a37","address_id":"a8168410-6065-4d7e-a6d9-42bfbddf7c63"}},{"id":"1855b1d1-8498-400c-a33e-f2ad22ee1632","type":"Feature","feature_type":"anchor","geometry":{"type":"Point","coordinates":[30.374551091555848,60.006865598908171]},"properties":{"unit_id":"435362a3-ce31-497e-9dee-15a766d01fd0","address_id":"da27d592-6150-4f25-b61c-3f1bdbb2bdef"}},{"id":"738fb828-7b0f-4991-9660-bb4b3c7f3e2e","type":"Feature","feature_type":"anchor","geometry":{"type":"Point","coordinates":[30.374571473102055,60.006895380153111]},"properties":{"unit_id":"bd7c379b-eed6-432a-b343-118608f8b5bf","address_id":"8b12b365-63fd-435e-aa85-aa90cf4f9808"}},{"id":"910b3855-b40a-495f-925a-35c73997c3c0","type":"Feature","feature_type":"anchor","geometry":{"type":"Point","coordinates":[30.374591854666612,60.006925161672505]},"properties":{"unit_id":"f3525fcb-8c99-4c22-be44-afe327dc2b36","address_id":"88523bdd-80d5-469e-a669-18c6894a3dd0"}},{"id":"866ad719-ae97-494e-a6c5-e914c4dbe415","type":"Feature","feature_type":"anchor","geometry":{"type":"Point","coordinates":[30.37462825062795,60.006978342623874]},"properties":{"unit_id":"85ac8c6f-f8fb-45b3-ad70-0b3c173b4698","address_id":"425fd005-ec97-4b0c-8d4d-702d5a47cccf"}},{"id":"b857a4a0-fcbf-4457-8952-e5076343e9e8","type":"Feature","feature_type":"anchor","geometry":{"type":"Point","coordinates":[30.374688667589091,60.007066622860442]},"properties":{"unit_id":"ae33bf16-2e4c-4f8d-b01d-ab4d5cecfcef","address_id":"d3052ed0-1700-4820-bf28-528c442a7b45"}},{"id":"b8ca0476-e021-4f91-9c6a-6591a9273a7d","type":"Feature","feature_type":"anchor","geometry":{"type":"Point","coordinates":[30.374792032560602,60.007217656905048]},"properties":{"unit_id":"2aa7385c-0767-43ec-bbac-88567e2bfd71","address_id":"1b5bc518-556f-4261-9c01-4acbebb92695"}},{"id":"a4a35780-b801-4026-8ae2-436b8690a868","type":"Feature","feature_type":"anchor","geometry":{"type":"Point","coordinates":[30.374823333363395,60.007263392545184]},"properties":{"unit_id":"e239c400-ab5b-44a8-8a4b-4b18766d2bcf","address_id":"5d41d5f3-45f4-4104-a9e9-0566c3d64ea7"}},{"id":"c1f0eead-1d03-442f-b6e4-5f74c948d4fe","type":"Feature","feature_type":"anchor","geometry":{"type":"Point","coordinates":[30.3748437150175,60.007293173790124]},"properties":{"unit_id":"a3e1684a-8406-4f8b-87be-463f1b547d65","address_id":"442e1e58-b75c-4b93-84be-a09fcf456a66"}},{"id":"e206edc7-5464-4f5c-8b28-08aaf9b1cbeb","type":"Feature","feature_type":"anchor","geometry":{"type":"Point","coordinates":[30.374864096964458,60.007322955035072]},"properties":{"unit_id":"8967ba16-8fde-4c32-9883-5fdbed1cca95","address_id":"2a12bcf7-9ba8-4570-93a7-8ddf7070888b"}},{"id":"86eb4ea4-467f-4867-bd26-4bbeddda93a7","type":"Feature","feature_type":"anchor","geometry":{"type":"Point","coordinates":[30.374936889546685,60.007429317486718]},"properties":{"unit_id":"dce2eb43-f6ea-466c-82ab-0f6fd3b02ab5","address_id":"69fbefa9-4aa0-4555-989d-ee37cce022f8"}},{"id":"07de98f2-7a56-482d-b63e-93e5a297fea3","type":"Feature","feature_type":"anchor","geometry":{"type":"Point","coordinates":[30.374884478929758,60.007352736828913]},"properties":{"unit_id":"92d7dd20-9b16-45bc-90ae-111009564110","address_id":"c1e59762-c54a-4530-b81c-4f69bfe7ef1d"}},{"id":"e960118d-5eec-448a-b649-853ac9246e08","type":"Feature","feature_type":"anchor","geometry":{"type":"Point","coordinates":[30.374904860638924,60.007382518073861]},"properties":{"unit_id":"f92f4022-d9e0-496d-809f-d8206eed99f5","address_id":"d7a8b1df-c0bb-4aee-afaa-55cf04ff1f00"}},{"id":"e71eda7b-eb95-445e-ab84-47c998ae8eb0","type":"Feature","feature_type":"anchor","geometry":{"type":"Point","coordinates":[30.374960183650657,60.007463352999189]},"properties":{"unit_id":"48f05ce9-3db8-4e27-86f6-9dac7a651205","address_id":"a9ae434e-3dd3-4ab8-b47d-32e75dfe7a7c"}},{"id":"cfb29264-8cbc-4826-93ce-fba0fc8f12c8","type":"Feature","feature_type":"anchor","geometry":{"type":"Point","coordinates":[30.375060070342045,60.007484288408591]},"properties":{"unit_id":"52e34ff6-ffac-4da7-a309-0c55d9fe8272","address_id":"30578704-163a-448e-83ce-b095656f1347"}},{"id":"f115dd4a-1f13-4fa7-865a-0bac8709216e","type":"Feature","feature_type":"anchor","geometry":{"type":"Point","coordinates":[30.374588190365319,60.007503217854428]},"properties":{"unit_id":"1e0e006f-8ea1-42ce-a3df-b4a8df9e96f6","address_id":"772cd07d-3a09-4742-995d-2c428fe24def"}},{"id":"47ee17a7-db98-4086-81d9-ffdde8d26a2a","type":"Feature","feature_type":"anchor","geometry":{"type":"Point","coordinates":[30.374331338442911,60.007516853411715]},"properties":{"unit_id":"8adc44d8-2bb1-43de-a6c4-ba3674723725","address_id":"bf144b4c-8cfc-475f-83b1-682ec2399b74"}},{"id":"e6d26aa8-31dc-4e54-b508-5b4ddc13bf20","type":"Feature","feature_type":"anchor","geometry":{"type":"Point","coordinates":[30.374349900376082,60.007543975773757]},"properties":{"unit_id":"0df04aa3-d75f-4a9f-8152-27c052fa9d5e","address_id":"6b420d94-db12-446f-b715-8159fc5f49d9"}},{"id":"16bf5b37-fc56-4544-924a-b77a48d5c336","type":"Feature","feature_type":"anchor","geometry":{"type":"Point","coordinates":[30.374020682958854,60.00759078149899]},"properties":{"unit_id":"f83b766c-8a8f-4267-83cc-3741733dafe3","address_id":"c64a391e-6613-4c5e-8169-bb09f9f6cdb3"}},{"id":"06fada62-8620-4a2c-b0e3-da9968ba3a4b","type":"Feature","feature_type":"anchor","geometry":{"type":"Point","coordinates":[30.374168495768249,60.007584508917589]},"properties":{"unit_id":"39f9d58b-232e-4e3b-9c83-e3b549d63fc5","address_id":"685ce362-442e-461b-a232-db0219ef8d43"}},{"id":"f1c093e9-3e2a-4bcc-b353-4640f40ebc15","type":"Feature","feature_type":"anchor","geometry":{"type":"Point","coordinates":[30.37408114608521,60.007456874579411]},"properties":{"unit_id":"a1335cb3-e862-4008-bb5e-7d59b7559a79","address_id":"48a5b3df-259a-4a71-96ba-f73b393a3f14"}},{"id":"a2118d8c-b297-42dd-8fe2-dc5953f6a5bf","type":"Feature","feature_type":"anchor","geometry":{"type":"Point","coordinates":[30.374267223842786,60.006811974443714]},"properties":{"unit_id":"cced87fe-bb84-4298-be76-fefdb6d2a296","address_id":"a73b0ad6-5a74-4f8d-b1d8-6d200665ed02"}},{"id":"d9e318e3-c5c7-466b-8c54-153d5739caae","type":"Feature","feature_type":"anchor","geometry":{"type":"Point","coordinates":[30.374479980358952,60.006775583591335]},"properties":{"unit_id":"1aa994f7-21d8-4058-b07d-123484130bb4","address_id":"27bf4b79-06ed-4ad2-8715-9ecded8f699d"}},{"id":"8644b97f-a8c5-4ecd-8407-bee88c6b5034","type":"Feature","feature_type":"anchor","geometry":{"type":"Point","coordinates":[30.374376284666152,60.006693517752531]},"properties":{"unit_id":"f2a4edfd-1595-4ebb-a83c-34bf75a5eaa0","address_id":"782a72c7-7ba0-45b8-b7c3-6d0c2f4cf7f2"}},{"id":"7656b1bd-aa31-4a5c-ae34-ad37776793bf","type":"Feature","feature_type":"anchor","geometry":{"type":"Point","coordinates":[30.373225764466259,60.007471071389332]},"properties":{"unit_id":"6e298986-531a-48e0-9f4c-09b82b990c1e","address_id":"f26258b4-6209-4c84-aabd-407580f3a714"}},{"id":"1d44c497-46f0-4958-8476-f4192c9535cc","type":"Feature","feature_type":"anchor","geometry":{"type":"Point","coordinates":[30.372833618736379,60.007538711800393]},"properties":{"unit_id":"92e2437a-7f81-428a-9f74-cac8b8c21506","address_id":"20738325-ee64-4a10-8f66-97380bad4aeb"}},{"id":"095b7d32-ca94-400b-b3fd-bd09d23d71a5","type":"Feature","feature_type":"anchor","geometry":{"type":"Point","coordinates":[30.373035037501328,60.007497983247333]},"properties":{"unit_id":"648e44a1-add6-4711-be5d-80052c96967d","address_id":"69c148c7-8238-4e9b-9ec4-9dee0c877b0e"}},{"id":"f7bd4bf7-19be-44c8-a911-0adfe7496324","type":"Feature","feature_type":"anchor","geometry":{"type":"Point","coordinates":[30.37261242485696,60.00739442596106]},"properties":{"unit_id":"4df18896-7901-4a76-87cd-8b2ca8e3d865","address_id":"6339ee83-338c-4025-8fc7-53f7fd814551"}},{"id":"294c1365-a376-4502-aa66-7eea7e16f1b5","type":"Feature","feature_type":"anchor","geometry":{"type":"Point","coordinates":[30.373213524994767,60.007272601479613]},"properties":{"unit_id":"328cd811-ecb5-4964-af77-a83a293f0da7","address_id":"18f2f40c-470d-4874-8af7-f0467b0c338e"}},{"id":"59dd1f20-e507-451c-b76b-6e0eb2b8019a","type":"Feature","feature_type":"anchor","geometry":{"type":"Point","coordinates":[30.374007339968994,60.007196230228054]},"properties":{"unit_id":"1b9940ef-ecd1-459b-a0af-0683e6f5dc05","address_id":"f261d192-e636-4c0e-a701-d241dbabc227"}},{"id":"beae019f-3ed4-45a4-b987-e53e67e8180a","type":"Feature","feature_type":"anchor","geometry":{"type":"Point","coordinates":[30.373820112399443,60.007228254287924]},"properties":{"unit_id":"6941839a-deba-42fe-9646-67167166bfdf","address_id":"88387d1d-ca57-4e3a-b103-f76172594864"}},{"id":"6e14ad7b-c940-4ead-a8bd-c67ea566dafe","type":"Feature","feature_type":"anchor","geometry":{"type":"Point","coordinates":[30.3738685960947,60.007146297955138]},"properties":{"unit_id":"ce4d7d25-b476-47fa-83ed-ca04b86ebcf0","address_id":"119dfad4-d826-4a69-b988-51ea17e5c13d"}},{"id":"21b5fc86-f3c9-41ed-89a2-c1b37bbda209","type":"Feature","feature_type":"anchor","geometry":{"type":"Point","coordinates":[30.374275059859482,60.007124299321909]},"properties":{"unit_id":"20b0362c-ee8c-479c-829e-b443715ba32d","address_id":"c9021545-a2b3-4d9d-9232-2df9ba9d6930"}},{"id":"7f569c78-6385-419e-ade3-a4e5ebaae84d","type":"Feature","feature_type":"anchor","geometry":{"type":"Point","coordinates":[30.374211232668696,60.00713521671485]},"properties":{"unit_id":"5020c309-5be5-4ca9-9955-abfd38eadf1f","address_id":"a32b7e30-c7cd-4fdc-8ad9-d6b4c9b76ee0"}},{"id":"bb427f00-121a-41e2-b53e-26c02bc592d4","type":"Feature","feature_type":"anchor","geometry":{"type":"Point","coordinates":[30.37335943358779,60.007280912409826]},"properties":{"unit_id":"64d68e55-f80b-42bf-aaf5-38f7c88709ad","address_id":"74b86d79-ca2f-44d8-8bf1-07a1ad4e838b"}},{"id":"fd8a530a-76b4-4cef-90bb-e5645259032e","type":"Feature","feature_type":"anchor","geometry":{"type":"Point","coordinates":[30.373644530115754,60.007232148201069]},"properties":{"unit_id":"95fc7ff9-07db-4c00-ab36-08460e569f93","address_id":"57dec4e2-b92b-4982-897e-bea5a97183dc"}},{"id":"7877f604-aef6-4abd-9124-17b9e2ecef8c","type":"Feature","feature_type":"anchor","geometry":{"type":"Point","coordinates":[30.373887978412537,60.007382983543039]},"properties":{"unit_id":"d94c0291-bd8b-4037-9f83-db2c0d2a1c75","address_id":"9c56c456-8397-41e3-ae50-ba07fdf6dc74"}},{"id":"5e5a5f1c-3435-4f8a-b739-8d17fcd7ba31","type":"Feature","feature_type":"anchor","geometry":{"type":"Point","coordinates":[30.372159840245189,60.007814016235237]},"properties":{"unit_id":"31119d18-02f5-411f-b1f1-98893d660b4d","address_id":"93192c40-1556-4686-bbfe-a48d6a6ee977"}},{"id":"b23f1d07-0abf-4b19-ab46-70b727c74743","type":"Feature","feature_type":"anchor","geometry":{"type":"Point","coordinates":[30.372066976904271,60.007528117436479]},"properties":{"unit_id":"64fb6802-7c41-4ad5-a04e-a8a592b5f654","address_id":"edbd8779-7471-4a47-bbfc-bfa7e7c5f2f7"}},{"id":"8c8451fa-bd50-4bd6-9c15-d2b9548d2203","type":"Feature","feature_type":"anchor","geometry":{"type":"Point","coordinates":[30.371879747181364,60.0075601417708]},"properties":{"unit_id":"23cba221-0601-406d-8366-c43db0a42be5","address_id":"ebf7a8e8-5559-4acc-919d-1a9ce4a87e17"}},{"id":"f2862db8-eeec-4833-b3ae-5d7573e31e63","type":"Feature","feature_type":"anchor","geometry":{"type":"Point","coordinates":[30.371973362065486,60.00754412946641]},"properties":{"unit_id":"67a80bba-f0e1-4b54-a239-69997cd6ebb3","address_id":"df5dfbee-8459-48a1-80b1-99d78fa502eb"}},{"id":"d92ad4c2-da0d-4851-9a25-009ff23bc23c","type":"Feature","feature_type":"anchor","geometry":{"type":"Point","coordinates":[30.37192629245455,60.007475348710756]},"properties":{"unit_id":"2a71156e-c5cd-40cb-b347-3973b5c167a4","address_id":"75f22125-4f4b-4493-9032-a7b7c728f0aa"}},{"id":"14feb6c5-42ca-486c-9560-6a175fcf0e55","type":"Feature","feature_type":"anchor","geometry":{"type":"Point","coordinates":[30.37217460959765,60.00763175458804]},"properties":{"unit_id":"b77719cc-4584-44ea-9cfb-ba48e5810de0","address_id":"9985c15b-55bb-41b7-9a03-fee650570c63"}},{"id":"b795e409-e7e5-444d-9326-d4973f84d934","type":"Feature","feature_type":"anchor","geometry":{"type":"Point","coordinates":[30.37105837833958,60.00769350198366]},"properties":{"unit_id":"360eacc8-4e48-4f0d-b75b-c24cee0c92c8","address_id":"668ecd36-c730-443b-9e77-3442f67afd0f"}},{"id":"db183b52-f3e9-4d4a-b6fa-4142f2d74404","type":"Feature","feature_type":"anchor","geometry":{"type":"Point","coordinates":[30.371144266992253,60.007819009050856]},"properties":{"unit_id":"5752524c-ece7-44ec-9e48-32fb0f6d406c","address_id":"6d431171-fd6f-4c54-9679-9f3391d59e5e"}},{"id":"1966d411-f193-44df-aee2-f5e675df1f58","type":"Feature","feature_type":"anchor","geometry":{"type":"Point","coordinates":[30.371102050927796,60.007757319289979]},"properties":{"unit_id":"599459c2-4897-47a6-847a-ffe5ce5fcea6","address_id":"c9d520e2-53f7-4446-9678-62d04944674c"}},{"id":"80045c7e-ef3e-42e8-a2c7-257601543a33","type":"Feature","feature_type":"anchor","geometry":{"type":"Point","coordinates":[30.371265093294927,60.007814976265415]},"properties":{"unit_id":"511e3bde-e5e6-4bb4-bd99-6a4e4f7c0073","address_id":"a0739a0e-97dd-4373-b706-08ea99da69fd"}},{"id":"c2d0dcee-f450-4d69-8947-763dfdab790e","type":"Feature","feature_type":"anchor","geometry":{"type":"Point","coordinates":[30.371333176922594,60.007803330753532]},"properties":{"unit_id":"90f89acb-63a0-41bb-a0e7-fdf0da93f38b","address_id":"e6bd2c34-418f-4b3d-8756-26ee31063976"}},{"id":"e6ca2c0f-82d5-48a9-acee-52f5545338cd","type":"Feature","feature_type":"anchor","geometry":{"type":"Point","coordinates":[30.371215262337664,60.007631025096842]},"properties":{"unit_id":"3073e5f1-36b5-4648-8eec-356a9d5977e1","address_id":"d23d49fb-6e1a-4a33-8f8c-f551c24474c6"}},{"id":"acc665ab-7122-424f-a477-e16740ce6d19","type":"Feature","feature_type":"anchor","geometry":{"type":"Point","coordinates":[30.371147178317639,60.007642670059823]},"properties":{"unit_id":"d6456246-3cea-4edb-afcf-7ca70817af69","address_id":"d2d91f5a-236c-4894-88bf-16cfbe608af9"}},{"id":"038e0df3-c541-4b77-83e6-74ef06e2d1ea","type":"Feature","feature_type":"anchor","geometry":{"type":"Point","coordinates":[30.371243817108414,60.007728318584149]},"properties":{"unit_id":"d6131a70-b96f-48d5-be2d-f6cbb016228b","address_id":"8c8832a4-8b9e-4cd1-b5b4-d287e3268176"}},{"id":"a4773bc7-3b28-4195-9253-4dc16a5516bf","type":"Feature","feature_type":"anchor","geometry":{"type":"Point","coordinates":[30.371456804866661,60.00806733411271]},"properties":{"unit_id":"de653ff5-9138-4203-bd2b-a3e55446a7ca","address_id":"395c4f2f-dffe-4409-a3e1-0a9c47bd7d2b"}},{"id":"c0f35653-b68d-4011-96da-6463816178dd","type":"Feature","feature_type":"anchor","geometry":{"type":"Point","coordinates":[30.371397727249825,60.007985930250122]},"properties":{"unit_id":"ad4fa6c3-2017-4671-adc2-0faf300ffd00","address_id":"ae5006b4-217c-4e0e-ae63-6c056c2232de"}},{"id":"d74be979-8c65-4b33-ada6-f27ffbe6fcf9","type":"Feature","feature_type":"anchor","geometry":{"type":"Point","coordinates":[30.371354902662652,60.007918427339092]},"properties":{"unit_id":"ad2f1b7d-b195-473c-96e3-c67bea78329e","address_id":"877cf424-0d3b-4ff2-9380-13a62dd55634"}},{"id":"38910d54-7974-402e-954a-bcae7c233d43","type":"Feature","feature_type":"anchor","geometry":{"type":"Point","coordinates":[30.371334521837738,60.007888645545243]},"properties":{"unit_id":"a191cd28-c27e-4abb-baf9-c3868d659ce4","address_id":"2487997c-11c7-4c37-a657-5439bf2a8fca"}},{"id":"a041dc7e-75e5-4c98-b555-8e9b16192f0a","type":"Feature","feature_type":"anchor","geometry":{"type":"Point","coordinates":[30.371314141305639,60.0078588643003]},"properties":{"unit_id":"99becfa4-ef29-4b2f-b8b3-b1743af6b1c8","address_id":"d93299d0-958c-4235-902e-dfc564cd9519"}},{"id":"60269c9e-e20c-4d74-8a3e-9321b3febfe6","type":"Feature","feature_type":"anchor","geometry":{"type":"Point","coordinates":[30.371714502075903,60.008138579439837]},"properties":{"unit_id":"47b96ed1-7317-44ae-80c9-90cd60227eb6","address_id":"1e85c210-d808-4f84-98f5-1f2e7160d6e5"}},{"id":"2efc4cee-42e1-4700-994d-115f5d2f25e6","type":"Feature","feature_type":"anchor","geometry":{"type":"Point","coordinates":[30.371505358342723,60.008175299359166]},"properties":{"unit_id":"951b642e-323f-4f82-b51f-2dfb7203afc9","address_id":"62393857-3f4f-4540-af2c-a5964a9d7445"}},{"id":"b2015609-7a47-47f3-aed7-439d251dc17d","type":"Feature","feature_type":"anchor","geometry":{"type":"Point","coordinates":[30.371186482631035,60.007338918212696]},"properties":{"unit_id":"1d2bae16-4962-45c7-8b47-81528307d1f0","address_id":"4eb5501f-2043-4df4-b4ad-e65d5df67818"}},{"id":"204143b3-58bf-4197-8dc5-a1b5753ccbae","type":"Feature","feature_type":"anchor","geometry":{"type":"Point","coordinates":[30.370980664782209,60.007274320367266]},"properties":{"unit_id":"e01f54e4-ab89-48d8-8c47-865719020d2a","address_id":"1765d118-c402-4999-9712-40969168e1f1"}},{"id":"42838bc4-2049-4239-a22a-45c73e7fcc37","type":"Feature","feature_type":"anchor","geometry":{"type":"Point","coordinates":[30.370905639515048,60.007386954576958]},"properties":{"unit_id":"c5d0bfd6-08a4-48fc-a914-949f9a3de2c7","address_id":"31971514-f807-4407-865c-490d80bd50f3"}},{"id":"8083d50f-aabb-469c-9cc8-ffd174b8d47f","type":"Feature","feature_type":"anchor","geometry":{"type":"Point","coordinates":[30.374002531658697,60.007342003592711]},"properties":{"unit_id":"3ab8ff52-c657-47f5-86cc-ad114d25c03a","address_id":"b6fe74d9-cbe9-428f-9136-c7a78bca226b"}},{"id":"4abae0d6-9dac-47d6-ad24-5412250f2080","type":"Feature","feature_type":"anchor","geometry":{"type":"Point","coordinates":[30.372050517947127,60.007656873182121]},"properties":{"unit_id":"f5da3af6-076e-44dd-92ec-62bd78901545","address_id":"fca8afdd-d585-48de-8931-856161171b35"}},{"id":"3876756e-db34-404c-94fd-7cc1efd979da","type":"Feature","feature_type":"anchor","geometry":{"type":"Point","coordinates":[30.374171615717582,60.007511056454184]},"properties":{"unit_id":"0f715573-cc17-4686-9613-c2d55af3db35","address_id":"172a4b5b-2ca6-4e06-8777-557ef7432a24"}},{"id":"a282b8b1-6ecb-4c21-9ff3-297d3afbd37f","type":"Feature","feature_type":"anchor","geometry":{"type":"Point","coordinates":[30.374092996887786,60.007524503463522]},"properties":{"unit_id":"7540169c-c5a3-401c-a6c9-210110136669","address_id":"b9f95b47-edeb-47b5-b78f-ebe37be95c31"}},{"id":"4509f152-0981-41e4-bc2c-a3825c39bf3b","type":"Feature","feature_type":"anchor","geometry":{"type":"Point","coordinates":[30.374141096038695,60.007530581459044]},"properties":{"unit_id":"951025a7-044e-4f0d-b7ba-a10708682474","address_id":"1c561b20-f8dc-421b-94a8-3a0013e2f38a"}},{"id":"15e8a37b-7c92-4815-9d42-512abe168185","type":"Feature","feature_type":"anchor","geometry":{"type":"Point","coordinates":[30.373002336925349,60.00740852616417]},"properties":{"unit_id":"4d9f8ba5-cf5c-4e01-b5bd-75e10bc39ad1","address_id":"529ee0eb-cbf1-4394-b81d-b5714dc2b455"}},{"id":"0c6f143a-52de-4b8b-a12d-6c2a1f1cefd4","type":"Feature","feature_type":"anchor","geometry":{"type":"Point","coordinates":[30.37113654045962,60.007599341081963]},"properties":{"unit_id":"653bf030-9864-48d2-96df-dfa4bf56a30a","address_id":"39c45031-1138-4a59-8356-fa6c3fca9741"}},{"id":"ea856e38-afc5-4d0e-a615-1cf3f2ad0e98","type":"Feature","feature_type":"anchor","geometry":{"type":"Point","coordinates":[30.371114704327731,60.007567432566027]},"properties":{"unit_id":"de8e2b85-7e81-469b-b98e-d6c88784c835","address_id":"21b054cc-b27e-4eb1-afe1-c4146b282eff"}},{"id":"651e3f22-13d1-407f-8265-95fc2f07e04d","type":"Feature","feature_type":"anchor","geometry":{"type":"Point","coordinates":[30.371092868491406,60.0075355240501]},"properties":{"unit_id":"146b1573-3d10-4da5-a851-617a70513dda","address_id":"52b172dd-e226-4514-933f-e12d292b08a3"}},{"id":"6066fb66-36df-48f3-b898-0ac85dadc994","type":"Feature","feature_type":"anchor","geometry":{"type":"Point","coordinates":[30.371071032127173,60.007503615259715]},"properties":{"unit_id":"bcb0104f-439d-413e-aa12-417a893a1509","address_id":"89488b02-6216-4a76-8e3b-0118421da6e5"}},{"id":"cefdf3ce-d874-4772-856d-461899ded1c9","type":"Feature","feature_type":"anchor","geometry":{"type":"Point","coordinates":[30.371049196058486,60.007471706743779]},"properties":{"unit_id":"457a54ed-5d4b-4767-a35a-b608e6c82152","address_id":"58547bd3-337d-46bf-afd1-1c23e43b4174"}},{"id":"0c565fc5-ed9c-43b9-b334-a1126ceaae15","type":"Feature","feature_type":"anchor","geometry":{"type":"Point","coordinates":[30.371027360559854,60.00743979822785]},"properties":{"unit_id":"c6564575-33eb-44bf-a584-24b48badc2a2","address_id":"817c6cc7-e489-41a9-b318-d68a8091b0ce"}},{"id":"3206198e-1aa1-4fcd-8ea3-6185880dfbed","type":"Feature","feature_type":"anchor","geometry":{"type":"Point","coordinates":[30.371005524533302,60.007407889711914]},"properties":{"unit_id":"f75c702b-6bf8-4413-976b-7ed87c0ba6a5","address_id":"a86ae29f-e6b9-47f8-b290-e53ec5a3acd0"}},{"id":"d87c7921-fc4e-4bac-8dd1-994e65d474c9","type":"Feature","feature_type":"anchor","geometry":{"type":"Point","coordinates":[30.372880723564549,60.007272495541464]},"properties":{"unit_id":"962492b6-1233-4d80-aa1a-a177fd4ba7f5","address_id":"c2338abf-a881-457c-9e23-150ec2ccd20c"}},{"id":"5eaf3f03-a9be-414e-a361-ec081b1f5ce7","type":"Feature","feature_type":"anchor","geometry":{"type":"Point","coordinates":[30.371400590995524,60.008110216009619]},"properties":{"unit_id":"3786b10a-f726-4ae3-b4ed-f514c1af3c54","address_id":"3c5d591f-eee5-494f-a474-570990c6ecc5"}},{"id":"97315a57-19eb-4d44-9c1f-cd89f801c817","type":"Feature","feature_type":"anchor","geometry":{"type":"Point","coordinates":[30.374144744912943,60.007341441516722]},"properties":{"unit_id":"55c0bd68-65cd-4053-9550-3a0d3d853991","address_id":"679fd50f-01ab-4985-90b7-fd6193c1e513"}},{"id":"943629bd-5dc5-439e-a68b-6f942bed37ed","type":"Feature","feature_type":"anchor","geometry":{"type":"Point","coordinates":[30.3716984580519,60.008059268541842]},"properties":{"unit_id":"0694a732-c124-47c6-94c8-bdac44c71e65","address_id":"ed94333b-f1f4-41ce-9a93-b4e4b221f119"}},{"id":"78f74b50-ebdb-450e-ad91-da281d8b7c4f","type":"Feature","feature_type":"anchor","geometry":{"type":"Point","coordinates":[30.371935862970275,60.007698901810357]},"properties":{"unit_id":"1d29a52a-d97b-44a3-b369-2d2e6d5b182e","address_id":"d981f415-caa5-4616-ae88-b87768093300"}},{"id":"000cab41-5f78-4734-b6bd-a21084d45936","type":"Feature","feature_type":"anchor","geometry":{"type":"Point","coordinates":[30.371393533509679,60.007617166410753]},"properties":{"unit_id":"c99a516a-053e-4900-82bd-d147d24023cf","address_id":"08b2d322-c2f6-43b4-acd8-2760a2567898"}},{"id":"3cd16e71-3f61-41be-b9eb-a21857050e6e","type":"Feature","feature_type":"anchor","geometry":{"type":"Point","coordinates":[30.374466541717172,60.0070915471431]},"properties":{"unit_id":"85cfac92-f50c-4bfd-b17b-cd5f0ea19bab","address_id":"21889970-3b8c-4fd4-965e-34b1b82392b5"}},{"id":"ff02a652-da87-4dab-88db-ebfc2508b41f","type":"Feature","feature_type":"anchor","geometry":{"type":"Point","coordinates":[30.374402714589593,60.007102464536032]},"properties":{"unit_id":"3455031b-6649-47d3-85ef-6292cca19eb4","address_id":"63423844-a462-443a-a649-fffa85e57411"}},{"id":"c8d58fd5-b69e-40af-a195-d66f9b1971a4","type":"Feature","feature_type":"anchor","geometry":{"type":"Point","coordinates":[30.374338887303697,60.007113381928974]},"properties":{"unit_id":"cd376eb0-c432-41c9-9a0a-0d570a53adba","address_id":"d8cf9deb-f168-4845-bb41-81049a9f4cae"}},{"id":"c3926d55-8cf6-4ba8-af34-904bd80f5a8e","type":"Feature","feature_type":"anchor","geometry":{"type":"Point","coordinates":[30.373513385905095,60.007254579643785]},"properties":{"unit_id":"536ac061-be99-4f1f-bfbe-59e7141b2b1c","address_id":"fe8405d5-873a-41e4-b779-730ae72c32a7"}},{"id":"d5874b21-aac0-4f14-8a78-5f8830a48f20","type":"Feature","feature_type":"anchor","geometry":{"type":"Point","coordinates":[30.373449558600125,60.007265497036727]},"properties":{"unit_id":"83ab2489-edb2-4745-b59f-46fc14eb038f","address_id":"5555a5e2-6960-4120-8747-716c0c3e8a8b"}},{"id":"b1c0f6d7-f7dd-4956-896a-f25b1c4d3c72","type":"Feature","feature_type":"anchor","geometry":{"type":"Point","coordinates":[30.374147404907855,60.007146133833338]},"properties":{"unit_id":"0c11c2c5-ac79-4690-b9f2-f8e8d34b8662","address_id":"cfe4bba7-57d1-4446-97d2-f3b6a2fe280c"}},{"id":"2fe15765-deb2-4467-970d-559135991871","type":"Feature","feature_type":"anchor","geometry":{"type":"Point","coordinates":[30.374083577949424,60.00715705122628]},"properties":{"unit_id":"de7d78ed-b113-43a1-8b1e-d392a9d00554","address_id":"0ab6f57b-18c9-44cf-b2f6-09fc296a2690"}},{"id":"e77902c0-64fb-4d8a-b5cb-e7f759fb4ac1","type":"Feature","feature_type":"anchor","geometry":{"type":"Point","coordinates":[30.372525673187923,60.00742352162699]},"properties":{"unit_id":"4e70691c-3305-4e4a-98c6-1c230577d666","address_id":"68bfe8f4-493d-471f-b43c-06c7fb4da85c"}},{"id":"c5e050c1-2d24-4bd4-8bca-4bb56d53c766","type":"Feature","feature_type":"anchor","geometry":{"type":"Point","coordinates":[30.372461845694154,60.007434439019924]},"properties":{"unit_id":"1be2ac70-7d3b-453a-9ce5-6eae31425df9","address_id":"842a412b-1b05-47a4-9399-3f899e48956d"}},{"id":"a6e158b5-a3ca-498b-8963-e4704327c88c","type":"Feature","feature_type":"anchor","geometry":{"type":"Point","coordinates":[30.372398017355831,60.007445356412866]},"properties":{"unit_id":"5a103282-e83f-4c7b-9051-84ff478f1938","address_id":"a78ed8d1-605d-4160-99fd-61673c3762f2"}},{"id":"9d093f13-d8f7-4f64-a9d8-f06b34770945","type":"Feature","feature_type":"anchor","geometry":{"type":"Point","coordinates":[30.372334189545427,60.007456273805808]},"properties":{"unit_id":"fc19a05f-1d83-4e10-a4c9-63f504a99093","address_id":"ead00dc6-cc63-44a9-8fda-c78845e8c6d3"}},{"id":"e9395e8d-258b-48e1-bc93-a6e4b851f3db","type":"Feature","feature_type":"anchor","geometry":{"type":"Point","coordinates":[30.372270361713969,60.007467190924295]},"properties":{"unit_id":"cc800433-eb4a-4348-a51b-e2fe047ea6e3","address_id":"8027169e-1dc5-4610-b4ef-fec7f16a3da9"}},{"id":"7dac9eb3-26fe-4f6a-b67d-315e4a29d4d9","type":"Feature","feature_type":"anchor","geometry":{"type":"Point","coordinates":[30.372206533586919,60.007478108591684]},"properties":{"unit_id":"a493fe08-39c7-4eef-bed4-2eddb76518ba","address_id":"615f9e60-9371-4920-a462-74cb568d5244"}},{"id":"bac4cb68-8da7-4311-a3d4-dfd3f0110cda","type":"Feature","feature_type":"anchor","geometry":{"type":"Point","coordinates":[30.372142705713305,60.007489025984626]},"properties":{"unit_id":"ac6a824e-9fd9-4176-a652-47422900c131","address_id":"54576ba1-7b37-434f-a820-c5f5ad48d425"}},{"id":"c721187c-c714-45d3-8221-7639abb0defd","type":"Feature","feature_type":"anchor","geometry":{"type":"Point","coordinates":[30.371487148043204,60.007601154380815]},"properties":{"unit_id":"3fd20dc4-4b61-4de9-b1f6-84a7ac6b0b80","address_id":"237c3730-b048-4a2f-9c96-5744320968ab"}},{"id":"0e2041f0-b261-436e-b5ce-763af6e6b25a","type":"Feature","feature_type":"anchor","geometry":{"type":"Point","coordinates":[30.371580763080395,60.007585142350884]},"properties":{"unit_id":"85c1709c-f3df-4a4c-96fb-3c7c8044072a","address_id":"e833f86b-133f-48ec-80bd-eee09fa0ac28"}},{"id":"d8684b97-25b7-4ba6-b739-06b28cb9475b","type":"Feature","feature_type":"anchor","geometry":{"type":"Point","coordinates":[30.371644590865028,60.007574224683488]},"properties":{"unit_id":"3775bad6-c472-43ed-b4e2-dc7dcd513429","address_id":"046445cb-4ba9-42bf-880d-4f002295db2b"}},{"id":"ef472da3-9896-4b7f-9b6c-5e8cc07f5cb3","type":"Feature","feature_type":"anchor","geometry":{"type":"Point","coordinates":[30.371708418903054,60.007563307565]},"properties":{"unit_id":"dd7ee3da-e991-411a-b32b-c19cb229af36","address_id":"1314c95a-92b7-476f-8a52-5ea4bfbbbc20"}},{"id":"c5d4a3ff-6b14-4245-b5b3-7ff96dbbaece","type":"Feature","feature_type":"anchor","geometry":{"type":"Point","coordinates":[30.371772246920024,60.007552390172066]},"properties":{"unit_id":"d1ed0a13-4835-4daf-b2b3-f6f256063089","address_id":"db5e9a22-5bd1-4dcf-9000-ba5d3be2df2b"}}]}