{"type":"FeatureCollection","name":"anchor","features":[{"id":"442e4a29-c2af-4685-b6ed-56ea019b440a","type":"Feature","feature_type":"anchor","geometry":{"type":"Point","coordinates":[30.374934117104047,60.007505831178428]},"properties":{"unit_id":"ff08bdad-702b-4f96-88ee-efb92df72456","address_id":"c4c44000-a37e-42b6-bb72-a585835c2e1c"}},{"id":"6479204f-fc29-4f13-b2d0-a6488da09d8c","type":"Feature","feature_type":"anchor","geometry":{"type":"Point","coordinates":[30.371528248165529,60.008088381223743]},"properties":{"unit_id":"1d23a1d0-8030-4f3c-9506-d4fc56880ff8","address_id":"328cdf2d-9ee7-46b1-8a12-29e1fab2f72d"}},{"id":"add8a69d-f5b1-47cf-88f4-1edc1e34c30d","type":"Feature","feature_type":"anchor","geometry":{"type":"Point","coordinates":[30.371400590995524,60.008110216009619]},"properties":{"unit_id":"c1ad4ae2-0381-4d80-95ea-26971793db0b","address_id":"e36c376a-2248-4b53-86f4-2cb211149ba0"}},{"id":"34acdf12-de36-4cd3-aa57-d7397a6b88e9","type":"Feature","feature_type":"anchor","geometry":{"type":"Point","coordinates":[30.371655905525746,60.008066546437867]},"properties":{"unit_id":"4cf0f314-689d-4fa5-b0a7-9b8f147d8c7e","address_id":"c7a767b7-8f6f-4a95-aa74-e66982924683"}},{"id":"eba0c621-a807-4afd-b555-df8b3c208624","type":"Feature","feature_type":"anchor","geometry":{"type":"Point","coordinates":[30.371502044279513,60.008050090894841]},"properties":{"unit_id":"698951d5-48f7-4282-a73f-4106ce6cfde6","address_id":"caf9f452-4a06-43cf-80af-a21cee232edf"}},{"id":"726e0769-5bc9-4f72-a6a1-90c3b3c519d6","type":"Feature","feature_type":"anchor","geometry":{"type":"Point","coordinates":[30.371580655205076,60.00816496188154]},"properties":{"unit_id":"a50c6450-3159-4d8b-b618-8af4e1b2a7f6","address_id":"867028e2-af03-4857-8152-6e54202bec7d"}},{"id":"de6f6d9e-9e21-4748-8818-b56a1948390e","type":"Feature","feature_type":"anchor","geometry":{"type":"Point","coordinates":[30.375060070342045,60.007484288408591]},"properties":{"unit_id":"688eac65-3707-4e3b-9867-72dd6cc3d403","address_id":"d27b2101-0f84-42f5-8a9b-d69b46fc6235"}},{"id":"dc0172e3-40b2-4e42-817b-1c56df743099","type":"Feature","feature_type":"anchor","geometry":{"type":"Point","coordinates":[30.374804760032269,60.007527957156995]},"properties":{"unit_id":"d522bb3e-0d7a-4fe0-bf85-ca78672f3a8a","address_id":"7726e0eb-3a1b-4d86-a863-448869b76b24"}},{"id":"08d56a15-bec8-4d7b-9db9-0bf162dade18","type":"Feature","feature_type":"anchor","geometry":{"type":"Point","coordinates":[30.374906209877825,60.007467832316671]},"properties":{"unit_id":"6d81599c-b25a-4d06-9242-72da8583f310","address_id":"46488241-538b-40af-a166-5c36f658c279"}},{"id":"565de1fd-f8dc-480c-a87b-df133f296004","type":"Feature","feature_type":"anchor","geometry":{"type":"Point","coordinates":[30.374984826297748,60.007582703852272]},"properties":{"unit_id":"2b7efaec-905a-4a67-856a-e67aff953d93","address_id":"819012da-a6d2-45b9-8143-7605e5950d30"}},{"id":"83b69892-6986-41a5-b1f7-f434782832ff","type":"Feature","feature_type":"anchor","geometry":{"type":"Point","coordinates":[30.371034997340818,60.0073648291473]},"properties":{"unit_id":"120974db-c08c-4f02-9f69-1683b1873f9b","address_id":"421a7c03-2326-42b8-9098-0f3e009267f5"}},{"id":"d51ecc8d-283c-47b8-89c6-17336fe36099","type":"Feature","feature_type":"anchor","geometry":{"type":"Point","coordinates":[30.37116095158029,60.007343285279653]},"properties":{"unit_id":"14b889f2-7228-4139-b44c-fe9349c1531b","address_id":"291ae7d1-12e2-4061-b3ed-33322beea38d"}},{"id":"cbeec9ef-8988-4cb4-bcd4-7ad696334c95","type":"Feature","feature_type":"anchor","geometry":{"type":"Point","coordinates":[30.374437429239144,60.006782861761806]},"properties":{"unit_id":"020dd5c2-0d0a-4c60-ba6f-af1b3a7f2510","address_id":"4f64f414-5392-4736-bcf5-bc6131a62474"}},{"id":"1aa17369-603a-417e-bb47-d7bb78654467","type":"Feature","feature_type":"anchor","geometry":{"type":"Point","coordinates":[30.37430977500005,60.006804696273235]},"properties":{"unit_id":"80e747fb-13ee-4abf-a454-bda401f43510","address_id":"21120d05-e842-4b7e-b7ae-ada1b1ce0a88"}},{"id":"64bbc596-8c3d-47bd-a5c5-eabede9b8ffd","type":"Feature","feature_type":"anchor","geometry":{"type":"Point","coordinates":[30.372011617878769,60.007600030228843]},"properties":{"unit_id":"75b29ce4-966a-4ab8-a12b-a930a3353a00","address_id":"1dc9dce2-3da6-4b10-b23a-c7438423dfac"}},{"id":"83ff8179-a930-4ab8-ab17-a522e19282b5","type":"Feature","feature_type":"anchor","geometry":{"type":"Point","coordinates":[30.373954606985439,60.007271977103208]},"properties":{"unit_id":"5af46e1b-06a5-4734-b944-8813452ff47e","address_id":"089120bd-0aa4-44ce-8f48-2ccf5d97c587"}},{"id":"a2b692ca-0ebd-47bb-83c9-cf47b8913a97","type":"Feature","feature_type":"anchor","geometry":{"type":"Point","coordinates":[30.37446363418513,60.006821152090708]},"properties":{"unit_id":"002f8f37-a24d-477d-9dc4-59e4874856c4","address_id":"96c69110-6516-4fef-9980-5827459f9c26"}},{"id":"67e1d573-dd7d-4fc2-9ebd-a3bcd9cb61d2","type":"Feature","feature_type":"anchor","geometry":{"type":"Point","coordinates":[30.374565083119471,60.00676102697593]},"properties":{"unit_id":"047a88c9-62f0-4629-a321-0dc5010d96e9","address_id":"0fd16cb1-b124-446b-9e2d-8adc6f6e1324"}},{"id":"e7f84cae-db20-4a97-a7ff-05e6b31b3c51","type":"Feature","feature_type":"anchor","geometry":{"type":"Point","coordinates":[30.374376284666152,60.006693517752531]},"properties":{"unit_id":"ae62410d-327f-416c-a98e-c386ad608966","address_id":"ef815c77-2327-4f1b-8bba-10c8cd0d69c0"}},{"id":"a85a3f8d-ebf1-4a1d-9205-968cbf961229","type":"Feature","feature_type":"anchor","geometry":{"type":"Point","coordinates":[30.371059498795852,60.007403410668886]},"properties":{"unit_id":"fc8544b8-3ac3-4530-b485-d7c2ce2793af","address_id":"0ade4837-7942-4638-adf4-33b646ec4d47"}},{"id":"a47c7107-a66f-4c11-9f3f-0dd593d07bc4","type":"Feature","feature_type":"anchor","geometry":{"type":"Point","coordinates":[30.370905639515009,60.00738695512586]},"properties":{"unit_id":"4a2f0661-a9c3-42b9-9f56-6afe16e0a4e5","address_id":"6bcdd63a-5673-4e66-a060-918fbdbce536"}},{"id":"0382f4ca-f1c3-4285-969e-f3ed7410f3c7","type":"Feature","feature_type":"anchor","geometry":{"type":"Point","coordinates":[30.370972154253121,60.007275776056254]},"properties":{"unit_id":"accaf39f-4610-42b4-b5e7-43e7198718a4","address_id":"5bcbc3f8-e8a0-487f-ae17-5f674c187ba7"}},{"id":"02b35ce9-0272-41c0-8656-4df8f67b4473","type":"Feature","feature_type":"anchor","geometry":{"type":"Point","coordinates":[30.37205051767263,60.007656873182121]},"properties":{"unit_id":"ff618d52-7b4b-4e26-82d5-f4278b95e7ad","address_id":"e8af32d0-f9e7-46b3-8af8-56428f08f185"}},{"id":"3540d077-cbde-4dd0-813c-16bc77ad5ab1","type":"Feature","feature_type":"anchor","geometry":{"type":"Point","coordinates":[30.372076766734185,60.0076952288304]},"properties":{"unit_id":"1b6c4ae9-e97e-4717-852b-38a1cb8afe77","address_id":"8962cc62-ed71-45af-a409-c4fe7a7b8dd6"}},{"id":"e4c37fe0-3ef8-4e75-8a6f-a2e16fb88fc7","type":"Feature","feature_type":"anchor","geometry":{"type":"Point","coordinates":[30.372281416554344,60.0075080726211]},"properties":{"unit_id":"ea94d4d9-c580-4d2b-9393-816c471b3b26","address_id":"60aa4b86-468d-491b-b762-e388e81f8ed7"}},{"id":"302b0f5e-c6f6-4d5d-b3c4-b761221555ca","type":"Feature","feature_type":"anchor","geometry":{"type":"Point","coordinates":[30.371694198127013,60.00760851186768]},"properties":{"unit_id":"bafbe8be-4f50-45e5-ad9b-ffee034e3ec8","address_id":"4053216f-3f27-4c7b-880e-7df38c804336"}},{"id":"102fab13-1530-4c5f-aba7-419f12a83a03","type":"Feature","feature_type":"anchor","geometry":{"type":"Point","coordinates":[30.374029523934215,60.007381445244249]},"properties":{"unit_id":"9f87239f-7998-4eca-9ed5-5faec4c36d19","address_id":"86e9520f-cf84-49dc-a9ff-dacc561fe3df"}},{"id":"da430448-8f1c-4d50-9b31-8c3f66e83878","type":"Feature","feature_type":"anchor","geometry":{"type":"Point","coordinates":[30.374221778641331,60.007176185412682]},"properties":{"unit_id":"f430cca4-8909-4fc7-95b7-54f4ea6c076e","address_id":"0e21dfc6-51a5-42fe-b59e-2a63a73a3d38"}},{"id":"c3043e71-74c2-4fb0-a061-5f351f89c501","type":"Feature","feature_type":"anchor","geometry":{"type":"Point","coordinates":[30.373634566106748,60.007276624933709]},"properties":{"unit_id":"4fbf54d9-dfa6-4cb1-9b56-7702b6c14d5a","address_id":"183a9a7d-7aec-46d4-a12d-938c4e383358"}},{"id":"350ec684-5769-4757-b873-4263630fa347","type":"Feature","feature_type":"anchor","geometry":{"type":"Point","coordinates":[30.372142898695284,60.007786308743306]},"properties":{"unit_id":"f3cb9807-9623-4fb8-8107-f385c43a66d0","address_id":"39514fb6-404b-45ea-93d2-c53c101059fd"}},{"id":"a533136f-64cb-49fc-a1a4-13f72670ca81","type":"Feature","feature_type":"anchor","geometry":{"type":"Point","coordinates":[30.37408017550457,60.007455456490234]},"properties":{"unit_id":"8faebe9a-3a2a-4d9f-b1b4-ab3bb6ca84d8","address_id":"30b1514d-5b5e-4e76-8e2f-6b323c149201"}},{"id":"f7327497-ec50-48ad-b6a8-29ea39324478","type":"Feature","feature_type":"anchor","geometry":{"type":"Point","coordinates":[30.372243239579941,60.007928068259659]},"properties":{"unit_id":"47b11f95-6781-4bbe-b8e5-62212e7ffad6","address_id":"932e13a6-59fe-455d-ac1c-ff7e4a586285"}},{"id":"d788f589-a4e8-46eb-a7a8-c50e02a8a2f3","type":"Feature","feature_type":"anchor","geometry":{"type":"Point","coordinates":[30.372160262728663,60.007942260678362]},"properties":{"unit_id":"a50125db-da81-4398-a45c-82c548992eac","address_id":"c1d26b05-d338-42fe-8629-3237636880c9"}},{"id":"5d200cca-f00f-4edf-9892-f5b9601ada59","type":"Feature","feature_type":"anchor","geometry":{"type":"Point","coordinates":[30.372328344315491,60.007913511918709]},"properties":{"unit_id":"aa04dda7-73f0-400c-b743-a0da100a66dc","address_id":"f2ac8ff8-a5de-4074-a2d1-36ff1840f1dc"}},{"id":"c3493f31-ae8d-44b3-b207-3009104a5630","type":"Feature","feature_type":"anchor","geometry":{"type":"Point","coordinates":[30.374974185386503,60.007539374325511]},"properties":{"unit_id":"71665c1a-1126-484a-864f-0a4460ef9b75","address_id":"d4c29d0e-ecc4-4978-9158-cbd69dec1f95"}},{"id":"0f1bdf46-3ec7-4c5a-b666-2b4d58bb108a","type":"Feature","feature_type":"anchor","geometry":{"type":"Point","coordinates":[30.374762208189697,60.007535235327474]},"properties":{"unit_id":"35f33293-d3b4-46b7-a35d-41b98afd9052","address_id":"7626e9f9-7d88-42d7-81a1-ee8a9a6b5c96"}},{"id":"448fa210-1fc9-4dda-877d-2c092ddab911","type":"Feature","feature_type":"anchor","geometry":{"type":"Point","coordinates":[30.374901965139429,60.007649153968622]},"properties":{"unit_id":"6a00e8ed-1b56-40b9-919e-98e2118f5e39","address_id":"4df9fe70-5ca1-4eac-a1d4-7a186918309a"}},{"id":"c9eb17ea-7a62-4bc7-9f4b-1e2ee9f10d69","type":"Feature","feature_type":"anchor","geometry":{"type":"Point","coordinates":[30.375071385341908,60.0075702736845]},"properties":{"unit_id":"73068213-9a9d-4d52-a3a1-0f0fb19d8907","address_id":"888e2655-411a-4f63-acce-70e523209195"}},{"id":"343ad215-ac47-459f-ac11-6e7a06e99e21","type":"Feature","feature_type":"anchor","geometry":{"type":"Point","coordinates":[30.374861201028747,60.007589591204287]},"properties":{"unit_id":"e723d248-46da-4fd4-8879-58c9493e923e","address_id":"23896f89-40a3-425f-9d40-e9ebb5e58d20"}},{"id":"b01667f7-7dd1-47a6-9360-36fd88becdf4","type":"Feature","feature_type":"anchor","geometry":{"type":"Point","coordinates":[30.374734526681408,60.007133630936011]},"properties":{"unit_id":"0c50012e-693c-4084-aaa6-d6430da4dc1a","address_id":"42ebd8e9-9db9-44b1-8aa4-8c6e0d7baefb"}},{"id":"2d8f1526-aa83-4adb-8e06-7c598f1fd639","type":"Feature","feature_type":"anchor","geometry":{"type":"Point","coordinates":[30.374510328243993,60.006806036418283]},"properties":{"unit_id":"8893c310-d3f3-487d-b07f-61086eff69aa","address_id":"5d3c98c1-7d2a-4bb9-ab57-909f2acc261f"}},{"id":"7825dfa2-c832-4bd0-b647-f29790f727ec","type":"Feature","feature_type":"anchor","geometry":{"type":"Point","coordinates":[30.374530709753493,60.006835817937677]},"properties":{"unit_id":"ffb73096-195d-42a4-b0b8-5f7dd79d1f86","address_id":"ab7bce00-dd7e-4e73-9f5b-d227c7fc381b"}},{"id":"4fa0c173-2b6b-4ab8-85e3-2a75f4cff80d","type":"Feature","feature_type":"anchor","geometry":{"type":"Point","coordinates":[30.374551091555848,60.006865598908171]},"properties":{"unit_id":"5df414e9-231c-4a21-a3ca-4827706ce997","address_id":"0316bce8-db93-460d-a04e-8b00d21dfa1f"}},{"id":"9b4cde61-49f9-4cbd-98b1-491cc8bd8744","type":"Feature","feature_type":"anchor","geometry":{"type":"Point","coordinates":[30.374571473102055,60.006895380153111]},"properties":{"unit_id":"b6e72296-98f6-4ff1-b06e-96d3ff89b005","address_id":"0523a084-67e1-4e3e-b950-5e2faaba8c73"}},{"id":"f9183b2c-7a3e-4e7a-bb7e-80055987aade","type":"Feature","feature_type":"anchor","geometry":{"type":"Point","coordinates":[30.374591854666612,60.006925161672505]},"properties":{"unit_id":"c9c56d89-88f7-4830-990b-ccbba7f42231","address_id":"3501002b-b4d7-4f4a-9bc6-919b24778298"}},{"id":"3eda852b-2a4d-40f9-9992-a660917e64ae","type":"Feature","feature_type":"anchor","geometry":{"type":"Point","coordinates":[30.37462825062795,60.006978342623874]},"properties":{"unit_id":"4ac18f1b-ba8a-4204-8be0-ead2cb85dc78","address_id":"2d444db3-c2b6-4b4a-8ca8-650c49bed2ef"}},{"id":"0aec8269-3a72-4b9a-b644-a73ced88e76e","type":"Feature","feature_type":"anchor","geometry":{"type":"Point","coordinates":[30.374688667589091,60.007066622860442]},"properties":{"unit_id":"f26dafb1-ed51-4d12-9b35-4bcfed089efb","address_id":"84945ed5-8561-4c9e-aa6d-b6c9c4bd6b97"}},{"id":"00643468-a08b-4f8f-a283-5da7fe7e8c8d","type":"Feature","feature_type":"anchor","geometry":{"type":"Point","coordinates":[30.374792032560602,60.007217656905048]},"properties":{"unit_id":"d9aaebe9-36ba-41e5-808b-816f819e5f60","address_id":"759e2fc6-0300-40a8-b05e-402d4972380b"}},{"id":"6a2bc83c-b982-470a-8feb-1b449044ca21","type":"Feature","feature_type":"anchor","geometry":{"type":"Point","coordinates":[30.374823333363395,60.007263392545184]},"properties":{"unit_id":"824646d5-f7cc-40f5-932d-c37adcc22abb","address_id":"3a861851-1738-444b-afd8-cef607984d0d"}},{"id":"0401f5b5-f3f5-4fc5-8692-c3f9606f60a9","type":"Feature","feature_type":"anchor","geometry":{"type":"Point","coordinates":[30.3748437150175,60.007293173790124]},"properties":{"unit_id":"ce66f2eb-2b53-4d2a-b764-84f374d3cd5f","address_id":"ab0c30ae-8de4-4173-9356-1a5bd9cc77b1"}},{"id":"055adf21-cea7-42e5-9906-e921477c81ff","type":"Feature","feature_type":"anchor","geometry":{"type":"Point","coordinates":[30.374864096964458,60.007322955035072]},"properties":{"unit_id":"6b31e286-4de9-4748-96eb-6ab2509e86db","address_id":"90672b48-3f70-4b26-8401-8b5c96400e25"}},{"id":"1844b4f8-178f-4edd-b75f-cf24ebe4a3e6","type":"Feature","feature_type":"anchor","geometry":{"type":"Point","coordinates":[30.374936889546685,60.007429317486718]},"properties":{"unit_id":"183e5e77-a7b8-4c6f-8d83-5f6d10e8e359","address_id":"8c9510df-d474-4ab8-baf0-52680bc79fe2"}},{"id":"51888e1c-228f-4fcd-b24f-6eaca6228542","type":"Feature","feature_type":"anchor","geometry":{"type":"Point","coordinates":[30.374884478929758,60.007352736828913]},"properties":{"unit_id":"702df20e-16aa-4ad4-b153-5a1c9bd805e4","address_id":"087a886f-e364-41e7-825e-be2837598efc"}},{"id":"33b52305-2f88-431d-a2c8-955c923a1de6","type":"Feature","feature_type":"anchor","geometry":{"type":"Point","coordinates":[30.374904860638924,60.007382518073861]},"properties":{"unit_id":"9b9d8e2b-ed82-44b7-b3a2-5a4da23fd333","address_id":"1da6d0e6-e9c1-43b7-85d4-a54431d63942"}},{"id":"a6239a76-1c80-4d13-8033-1e16597dceb9","type":"Feature","feature_type":"anchor","geometry":{"type":"Point","coordinates":[30.374960183650657,60.007463352999189]},"properties":{"unit_id":"b4739517-d800-4676-8929-278bed867c6c","address_id":"480b46be-cd51-44b7-9f09-665589b708cd"}},{"id":"ec0ef253-4386-455d-81a6-6377592c77c8","type":"Feature","feature_type":"anchor","geometry":{"type":"Point","coordinates":[30.375060070342045,60.007484288408591]},"properties":{"unit_id":"fcd42406-4448-4f2f-add3-dd4e7c669b2d","address_id":"4c3290c3-c47e-44a5-a5c9-71dfccafed75"}},{"id":"a5cab7f4-08a1-47c3-a7ad-dcca0fb5e2c0","type":"Feature","feature_type":"anchor","geometry":{"type":"Point","coordinates":[30.374588190365319,60.007503217854428]},"properties":{"unit_id":"8a7c803a-83c2-4a06-a574-6c136cde367d","address_id":"4d6112d4-6c3a-4029-ad8e-0b438511fa2e"}},{"id":"515a590c-d9fc-4521-9386-383f6dbc09e8","type":"Feature","feature_type":"anchor","geometry":{"type":"Point","coordinates":[30.374331338442911,60.007516853411715]},"properties":{"unit_id":"220b4ba0-314d-4b4a-8afa-2535d73be175","address_id":"fef75b91-920b-44ce-857e-124efedd12a5"}},{"id":"99a5bc51-a16a-4634-9f37-c3423e20dd50","type":"Feature","feature_type":"anchor","geometry":{"type":"Point","coordinates":[30.374349900376082,60.007543975773757]},"properties":{"unit_id":"1d37f679-bbfa-4390-b611-6c8a4b200b34","address_id":"de657903-0ef0-48ab-81c4-812a1522aff3"}},{"id":"c4900310-28ea-4ea5-9df8-3d7d966d6d6e","type":"Feature","feature_type":"anchor","geometry":{"type":"Point","coordinates":[30.374020682958854,60.00759078149899]},"properties":{"unit_id":"5d959056-4cfe-4820-9e42-91a59425cbdc","address_id":"2733784d-9999-407e-bfa0-24374caefd0e"}},{"id":"c6d7d459-0856-4647-b89c-6bbd817b6655","type":"Feature","feature_type":"anchor","geometry":{"type":"Point","coordinates":[30.374168495768249,60.007584508917589]},"properties":{"unit_id":"c079c809-a44f-41ed-ae19-5de5cf1446c4","address_id":"636fc037-8175-4d74-97dc-f9343db2af65"}},{"id":"5769d6d6-9cd3-4872-a9fc-6bf05ded86b3","type":"Feature","feature_type":"anchor","geometry":{"type":"Point","coordinates":[30.37408114608521,60.007456874579411]},"properties":{"unit_id":"20f75fbf-8ba4-4de1-aa74-b8de57a9fff4","address_id":"3a1d5bd2-83d8-4776-add8-db52d2bf4185"}},{"id":"942d2610-2137-4219-9fc4-0ab4ed178496","type":"Feature","feature_type":"anchor","geometry":{"type":"Point","coordinates":[30.374267223842786,60.006811974443714]},"properties":{"unit_id":"f7da6006-59be-408d-8f5a-4707bc279362","address_id":"8e420235-19c9-44f1-a841-9469dbba105a"}},{"id":"829a7c5e-9674-45b8-9f45-7eaf8f2b96d2","type":"Feature","feature_type":"anchor","geometry":{"type":"Point","coordinates":[30.374479980358952,60.006775583591335]},"properties":{"unit_id":"1305a7b7-91dc-4bb1-af03-4463b01cbe06","address_id":"3f021287-e87d-41ed-8ca1-b0e9879dd204"}},{"id":"e58f0b5a-dda7-4add-b090-263fc67caf3b","type":"Feature","feature_type":"anchor","geometry":{"type":"Point","coordinates":[30.374376284666152,60.006693517752531]},"properties":{"unit_id":"59c121e9-a3eb-4449-a632-707235b55e8c","address_id":"67dca2cd-4b9f-48da-bf68-3c6574e44508"}},{"id":"9ea09d97-394a-4d67-8cb4-38ad1b9b63fb","type":"Feature","feature_type":"anchor","geometry":{"type":"Point","coordinates":[30.373225764466259,60.007471071389332]},"properties":{"unit_id":"7c5831dc-65c4-4ba4-88e2-ebeb11b7e42a","address_id":"81652868-0faf-4fd7-8ced-ef77f97544d8"}},{"id":"5e3d888a-fb76-4779-905e-7d8c93ff8824","type":"Feature","feature_type":"anchor","geometry":{"type":"Point","coordinates":[30.372833618736379,60.007538711800393]},"properties":{"unit_id":"8ac1fe04-7318-431d-a53c-80fa3090dcb5","address_id":"d4124c79-a162-449a-9c95-1818cf8666fa"}},{"id":"fec43619-28d8-47bd-b87b-4947f30f517a","type":"Feature","feature_type":"anchor","geometry":{"type":"Point","coordinates":[30.373035037501328,60.007497983247333]},"properties":{"unit_id":"df33f132-5fff-43c6-8cd6-bb5910e69207","address_id":"b9bdc599-d2e3-49f8-a4d1-4b75c3c41830"}},{"id":"c6e9d744-dba1-4d84-a3ec-df4eac82aee9","type":"Feature","feature_type":"anchor","geometry":{"type":"Point","coordinates":[30.37261242485696,60.00739442596106]},"properties":{"unit_id":"44499f4c-3cc3-436d-98db-a93d33ae4483","address_id":"e5501ffb-1a1c-46f4-b066-631f80a5b391"}},{"id":"fb42f1fe-8c51-462e-9c14-478950fc841b","type":"Feature","feature_type":"anchor","geometry":{"type":"Point","coordinates":[30.373213524994767,60.007272601479613]},"properties":{"unit_id":"cb070a4e-7776-48ee-b2ad-a7eb7992a346","address_id":"4203073b-6895-4476-a5c9-ac43d820fb51"}},{"id":"c7933c91-7259-4253-a5c6-a16f7ade68f8","type":"Feature","feature_type":"anchor","geometry":{"type":"Point","coordinates":[30.373213524994767,60.007272601479613]},"properties":{"unit_id":"cb070a4e-7776-48ee-b2ad-a7eb7992a346","address_id":"a193abf6-9824-44e1-b44b-fdfbd3e5205d"}},{"id":"5c408785-d9af-4d05-9d4e-8c5eb059be5b","type":"Feature","feature_type":"anchor","geometry":{"type":"Point","coordinates":[30.374007339968994,60.007196230228054]},"properties":{"unit_id":"a3aa7035-b65d-414c-83f4-a77abc11dcae","address_id":"4c140256-e861-420a-8352-8597e3b5c46f"}},{"id":"5a89ef13-c584-4007-87b9-937221b76d40","type":"Feature","feature_type":"anchor","geometry":{"type":"Point","coordinates":[30.373820112399443,60.007228254287924]},"properties":{"unit_id":"2c44c92b-5346-4cb6-8842-4676911a0499","address_id":"7b0c1bf0-9b27-4dda-b69e-16995319c1d7"}},{"id":"26eb89e0-a276-44c9-b8dd-b17f09aba683","type":"Feature","feature_type":"anchor","geometry":{"type":"Point","coordinates":[30.3738685960947,60.007146297955138]},"properties":{"unit_id":"3448166b-eb4e-40bc-a94e-a90930edfb80","address_id":"c008d9e8-aa71-4e3f-b76d-a6933db9ce03"}},{"id":"3790b0ff-d81f-497b-8834-77d2b9607cf5","type":"Feature","feature_type":"anchor","geometry":{"type":"Point","coordinates":[30.374275059859482,60.007124299321909]},"properties":{"unit_id":"2c87bcc4-4268-44fc-9519-980ff9f2cd9a","address_id":"3db88caa-7478-45ca-9565-3b91b0d020fc"}},{"id":"765c9892-61a6-4727-a368-ccb0871ebaa2","type":"Feature","feature_type":"anchor","geometry":{"type":"Point","coordinates":[30.374211232668696,60.00713521671485]},"properties":{"unit_id":"9a221403-7fe8-4d13-8ea5-2b187a1116b3","address_id":"4d5237c5-2610-455c-812c-e17692b1f416"}},{"id":"35fbd08b-96f1-4c2e-b7bd-8a7d3a7f1d73","type":"Feature","feature_type":"anchor","geometry":{"type":"Point","coordinates":[30.37335943358779,60.007280912409826]},"properties":{"unit_id":"ca5ed5f6-e386-44d5-8008-b48318b65f2b","address_id":"cec93798-10f0-439a-af71-f422a232e70c"}},{"id":"6442ca09-ef3d-48b9-9500-d818492139fb","type":"Feature","feature_type":"anchor","geometry":{"type":"Point","coordinates":[30.373644530115754,60.007232148201069]},"properties":{"unit_id":"0d7282cb-13cc-47d0-b9b4-0fe92593fb54","address_id":"56c2ee5d-af3c-45af-b4c9-e721a6d46dca"}},{"id":"95ba25f0-f8da-4c47-904e-c6a0defc02f4","type":"Feature","feature_type":"anchor","geometry":{"type":"Point","coordinates":[30.373887978412537,60.007382983543039]},"properties":{"unit_id":"b4fba865-f669-45ec-98c1-bf86471b1247","address_id":"42bed05a-b9ef-4639-b823-8cdeac6905d3"}},{"id":"fd675ae8-2ee2-46a2-9134-5174df2ca915","type":"Feature","feature_type":"anchor","geometry":{"type":"Point","coordinates":[30.372159840245189,60.007814016235237]},"properties":{"unit_id":"98755e26-834a-40b4-b647-fbd12c20d3ed","address_id":"d33f196f-1bc9-4f91-bdb6-2cc9b4ca4f06"}},{"id":"bcd298c5-3f8d-4c4b-a88e-04b0db642e8b","type":"Feature","feature_type":"anchor","geometry":{"type":"Point","coordinates":[30.372066976904271,60.007528117436479]},"properties":{"unit_id":"9667a027-3a78-44b2-a163-b939b5108a43","address_id":"4f053584-ddbb-44d9-8a34-d68a87a5681e"}},{"id":"21d962c2-ad0a-49a2-9e20-d0bc9b96ba88","type":"Feature","feature_type":"anchor","geometry":{"type":"Point","coordinates":[30.371879747181364,60.0075601417708]},"properties":{"unit_id":"0411341d-e7d5-40ac-89b8-fcf21214c6ee","address_id":"0509a0a1-7a1c-49ce-a4cd-c09b170cb3ab"}},{"id":"30a61bc9-2eb5-46ba-81eb-f0986e59fa6c","type":"Feature","feature_type":"anchor","geometry":{"type":"Point","coordinates":[30.371973362065486,60.00754412946641]},"properties":{"unit_id":"2d7dd8f9-6006-4f02-95f0-235961a226d1","address_id":"22b14d7a-443b-4428-aa15-140d6356f4b0"}},{"id":"17824990-bb4b-4dda-b975-45f5ceaf1493","type":"Feature","feature_type":"anchor","geometry":{"type":"Point","coordinates":[30.37192629245455,60.007475348710756]},"properties":{"unit_id":"b19ed874-e1ec-4789-9b99-11b5490cb21c","address_id":"16745def-3c41-4d10-bc13-5b940a034f29"}},{"id":"5410f8e2-eb21-41b6-87cc-77a53d649f29","type":"Feature","feature_type":"anchor","geometry":{"type":"Point","coordinates":[30.37217460959765,60.00763175458804]},"properties":{"unit_id":"8d789c40-03bf-4ca6-b93c-0b6b18d46cb6","address_id":"305b0f8a-dde2-4581-bb87-32fcfc0503f3"}},{"id":"3de49d23-9807-413a-b1b7-02564719ecbe","type":"Feature","feature_type":"anchor","geometry":{"type":"Point","coordinates":[30.37105837833958,60.00769350198366]},"properties":{"unit_id":"e0cedbbd-2513-4ba7-b1b7-7639308ada59","address_id":"f8370816-1266-4967-8779-058850a97f9c"}},{"id":"f08f3e4e-f0b4-4519-a237-cf71ddc12e6f","type":"Feature","feature_type":"anchor","geometry":{"type":"Point","coordinates":[30.371144266992253,60.007819009050856]},"properties":{"unit_id":"395b14c8-0f6a-4545-b20e-11fb4bdda8bf","address_id":"d42b9024-d184-4670-a5dd-77cbf7e8216e"}},{"id":"acb42005-2e7f-484b-9745-f3c1285662d7","type":"Feature","feature_type":"anchor","geometry":{"type":"Point","coordinates":[30.371102050927796,60.007757319289979]},"properties":{"unit_id":"99f3e941-4b40-4440-95ef-b4f8d41bc52f","address_id":"49e5e30a-33ed-4fd9-9ceb-d25261c28f0f"}},{"id":"f5d8006a-67fc-4bc7-9246-a6fc54e9782d","type":"Feature","feature_type":"anchor","geometry":{"type":"Point","coordinates":[30.371265093294927,60.007814976265415]},"properties":{"unit_id":"4bf83ce7-6705-44b9-8535-66160bca36de","address_id":"cbd11bba-fd4a-4ee7-9927-1270e51380e8"}},{"id":"3d973710-b559-489a-8a92-d269e6ed45dd","type":"Feature","feature_type":"anchor","geometry":{"type":"Point","coordinates":[30.371333176922594,60.007803330753532]},"properties":{"unit_id":"cd9c393d-e31a-41db-a6c4-729fe4f62dfa","address_id":"5ceaede7-aca5-4315-8a43-39f5dc0c32be"}},{"id":"94639858-9911-495c-b8eb-d7b2ff290199","type":"Feature","feature_type":"anchor","geometry":{"type":"Point","coordinates":[30.371215262337664,60.007631025096842]},"properties":{"unit_id":"ab52c0d9-7b38-4684-b059-c28ee9c8d976","address_id":"93f33fcb-d8d8-497a-b749-580d1e093439"}},{"id":"58518505-3d73-4095-9125-d646eab69f93","type":"Feature","feature_type":"anchor","geometry":{"type":"Point","coordinates":[30.371147178317639,60.007642670059823]},"properties":{"unit_id":"fa1fd652-ea0b-48da-bd65-5341735bf111","address_id":"82c8a257-5ad4-4ec2-9ba6-d7952f749c78"}},{"id":"79e53fb0-81bc-4c4c-96d5-d1f48eb104a0","type":"Feature","feature_type":"anchor","geometry":{"type":"Point","coordinates":[30.371243817108414,60.007728318584149]},"properties":{"unit_id":"a7301330-c2a9-4ef9-8816-7dd76cc7941b","address_id":"8231b6ab-28fd-47de-a51e-1a2cde7139e1"}},{"id":"1289c906-d716-489b-a053-b12e40c27cfc","type":"Feature","feature_type":"anchor","geometry":{"type":"Point","coordinates":[30.371456804866661,60.00806733411271]},"properties":{"unit_id":"9f8fe36d-d548-41f3-9843-7b4d9d46e79d","address_id":"1a88c6a7-76e2-4c91-8a8e-5b49ce083b7d"}},{"id":"39b27756-b9a3-4484-a3fc-3f7ce5fa9a4d","type":"Feature","feature_type":"anchor","geometry":{"type":"Point","coordinates":[30.371397727249825,60.007985930250122]},"properties":{"unit_id":"5d7fc216-41fa-49c2-acac-b6144527c0f5","address_id":"89e48868-b254-40dc-887e-74cfe3a43eb8"}},{"id":"cb9e3f6c-ed8e-42ef-8c2f-050a8a1bf4c1","type":"Feature","feature_type":"anchor","geometry":{"type":"Point","coordinates":[30.371354902662652,60.007918427339092]},"properties":{"unit_id":"8ff925ef-8e12-491e-91f6-0e3b0c00a42e","address_id":"3b6164c6-627e-44d5-8ca6-1d44d631622b"}},{"id":"683bad4d-a58e-4703-8058-ad55697acd0e","type":"Feature","feature_type":"anchor","geometry":{"type":"Point","coordinates":[30.371334521837738,60.007888645545243]},"properties":{"unit_id":"5d0baa87-3bac-41db-a7aa-45d073f48feb","address_id":"6e9bc1fe-b1bf-4782-9090-245c2b004482"}},{"id":"c9d04325-d4ca-4c52-94da-aa5f77b95c3d","type":"Feature","feature_type":"anchor","geometry":{"type":"Point","coordinates":[30.371314141305639,60.0078588643003]},"properties":{"unit_id":"e5f413ab-a545-43d9-828c-0ddec7559011","address_id":"9a511a71-e5be-4a60-ab19-aa0af3991e93"}},{"id":"a0961460-382f-4589-b056-3cbc3c5d93fc","type":"Feature","feature_type":"anchor","geometry":{"type":"Point","coordinates":[30.371714502075903,60.008138579439837]},"properties":{"unit_id":"08090eac-b6da-417c-81ee-6b82dc315041","address_id":"8b4dd01b-aa7f-4bfd-8f7b-526f86496b6a"}},{"id":"735feb0e-b786-4266-bf5b-e8bc91411d24","type":"Feature","feature_type":"anchor","geometry":{"type":"Point","coordinates":[30.371505358342723,60.008175299359166]},"properties":{"unit_id":"684b6a5d-7b13-4789-89ce-3e466bd4f0ea","address_id":"5ccef856-ced8-4229-8b1e-820953d2618e"}},{"id":"fae94fdf-a459-4884-8f50-defe44e01e1b","type":"Feature","feature_type":"anchor","geometry":{"type":"Point","coordinates":[30.371186482631035,60.007338918212696]},"properties":{"unit_id":"dc96290d-d2e4-45aa-9cd5-24ad50e45052","address_id":"6274155c-c3af-4f60-93de-ddbae56e94f9"}},{"id":"ee5f2d98-3ddf-416a-a53a-cee604c74c52","type":"Feature","feature_type":"anchor","geometry":{"type":"Point","coordinates":[30.370980664782209,60.007274320367266]},"properties":{"unit_id":"397c8708-147c-44f4-ba81-71e13ffd9954","address_id":"0cad0252-2798-4c8e-9fee-a799bfed9320"}},{"id":"ebbf1cc1-ea50-4da0-a881-b325703791ad","type":"Feature","feature_type":"anchor","geometry":{"type":"Point","coordinates":[30.370905639515048,60.007386954576958]},"properties":{"unit_id":"9588ee1b-bce8-4189-8708-b044046a8c5f","address_id":"21166dd6-3389-4057-b15f-fa98390bd60c"}},{"id":"725ed18f-cb59-47a6-8fc0-4806837879a6","type":"Feature","feature_type":"anchor","geometry":{"type":"Point","coordinates":[30.374002531658697,60.007342003592711]},"properties":{"unit_id":"1bbca8d2-5279-4b55-bce1-e3e09e9465b2","address_id":"9e8259ca-45de-450b-b916-9ce14fe11618"}},{"id":"7a147e78-d42f-4bc6-98e6-b6ac3d40fa2d","type":"Feature","feature_type":"anchor","geometry":{"type":"Point","coordinates":[30.372050517947127,60.007656873182121]},"properties":{"unit_id":"86f92ca1-5a39-494a-bee8-075ae544c5ea","address_id":"d530a8d9-236e-431f-819d-9f06a54c3a08"}},{"id":"1ba9c1e0-b563-4d55-8eea-d1ed33af78be","type":"Feature","feature_type":"anchor","geometry":{"type":"Point","coordinates":[30.374171615717582,60.007511056454184]},"properties":{"unit_id":"eccf4ebc-6e5d-49f5-a21b-7c9b603b06ce","address_id":"0f4c3409-90a6-44dd-9314-fd9e8e6a74ae"}},{"id":"576b6e03-fd1e-4ace-8f0b-cd63d35b9f40","type":"Feature","feature_type":"anchor","geometry":{"type":"Point","coordinates":[30.374092996887786,60.007524503463522]},"properties":{"unit_id":"c6cbb53f-0f87-488d-b288-612e9344a7a0","address_id":"51755d9b-573a-4b83-b586-461c96c6928b"}},{"id":"a419b2a6-71f0-4e93-9905-f0211e1c448a","type":"Feature","feature_type":"anchor","geometry":{"type":"Point","coordinates":[30.374141096038695,60.007530581459044]},"properties":{"unit_id":"5386f8ff-0825-40be-a357-7197d25c6fb7","address_id":"125803c3-7a4e-4f22-81dd-8cc72afd82b5"}},{"id":"4ca684b7-f3f6-409e-b0d0-56b844fc62c7","type":"Feature","feature_type":"anchor","geometry":{"type":"Point","coordinates":[30.373002336925349,60.00740852616417]},"properties":{"unit_id":"9a343852-6aa5-4030-a3b2-f23896e32352","address_id":"dc5a5398-9549-4838-86c1-e73b178dee23"}},{"id":"d25d6246-98fe-429d-906e-aa7e78304b34","type":"Feature","feature_type":"anchor","geometry":{"type":"Point","coordinates":[30.37113654045962,60.007599341081963]},"properties":{"unit_id":"1361579b-ddd0-42d6-b9fe-a86147178897","address_id":"0315ea00-2ece-417a-afe1-d101688bfa3e"}},{"id":"45a6ed1c-e6bf-4ec6-bc5b-d7ad7740da25","type":"Feature","feature_type":"anchor","geometry":{"type":"Point","coordinates":[30.371114704327731,60.007567432566027]},"properties":{"unit_id":"cd184581-dc59-4bbb-91d1-f6938559af82","address_id":"81107cf3-7588-4af8-88a0-4be775913576"}},{"id":"933aa611-d82a-4c66-9960-31d5c6e417c9","type":"Feature","feature_type":"anchor","geometry":{"type":"Point","coordinates":[30.371092868491406,60.0075355240501]},"properties":{"unit_id":"a1bf28d7-f921-447d-bb0b-efb9bee34b35","address_id":"c76d0c1e-c8af-4b2f-ab50-d5b65617edfb"}},{"id":"4ccc9040-3a10-47bc-b9f9-76a27bd12077","type":"Feature","feature_type":"anchor","geometry":{"type":"Point","coordinates":[30.371071032127173,60.007503615259715]},"properties":{"unit_id":"060a8a04-6043-4020-8fd5-1a000222ab12","address_id":"f663bd28-567b-4a07-8ba6-1a480515978f"}},{"id":"db66b844-e92a-4331-bbd7-8fe01f1d384f","type":"Feature","feature_type":"anchor","geometry":{"type":"Point","coordinates":[30.371049196058486,60.007471706743779]},"properties":{"unit_id":"d29645fd-124c-45fb-b08c-06c82e6d2e28","address_id":"66be30bc-8013-43ef-b049-58bbca7b196b"}},{"id":"5134f5af-178c-4e45-9b6e-3b2945f0405d","type":"Feature","feature_type":"anchor","geometry":{"type":"Point","coordinates":[30.371027360559854,60.00743979822785]},"properties":{"unit_id":"948cfb0e-b224-481c-8443-b9f91f1f61dc","address_id":"385a60e3-0db8-4332-b4fe-347c41f3c981"}},{"id":"fc366d07-55cf-46ac-b830-2db1f419c82c","type":"Feature","feature_type":"anchor","geometry":{"type":"Point","coordinates":[30.371005524533302,60.007407889711914]},"properties":{"unit_id":"f1416150-5091-4b27-8021-42a849d80110","address_id":"25e5173b-b919-486a-9364-63a678bde4b1"}},{"id":"e37aa7ef-9e78-47ab-8d18-7974f88b9a7d","type":"Feature","feature_type":"anchor","geometry":{"type":"Point","coordinates":[30.372880723564549,60.007272495541464]},"properties":{"unit_id":"a8381b79-81e6-4c93-9af0-a0902c60af18","address_id":"0a9a6d35-9105-4936-9554-3d2420e0ea3f"}},{"id":"61d744be-382a-4461-b4ed-794aa2218a4d","type":"Feature","feature_type":"anchor","geometry":{"type":"Point","coordinates":[30.371400590995524,60.008110216009619]},"properties":{"unit_id":"b3aad26c-8730-40c4-ab6c-39a772ef3741","address_id":"083fd00f-0039-44bf-b6b8-bb4a0e3f67cc"}},{"id":"31dccdd0-4c3c-486e-a1fa-7f74b82fd09d","type":"Feature","feature_type":"anchor","geometry":{"type":"Point","coordinates":[30.374144744912943,60.007341441516722]},"properties":{"unit_id":"ba146b20-afb0-49eb-82b7-dbca398952b5","address_id":"99f0e676-7c9e-475f-9a22-9e73540b3dcd"}},{"id":"f130dc20-38de-48b7-b8b8-69e72307d123","type":"Feature","feature_type":"anchor","geometry":{"type":"Point","coordinates":[30.3716984580519,60.008059268541842]},"properties":{"unit_id":"dd0c819f-af73-4ba7-ab5a-87363d983747","address_id":"ebd128f9-aa20-4c59-a282-001bb7e7265b"}},{"id":"a8ed4ca7-092e-4016-ace3-8aa6d561c4b8","type":"Feature","feature_type":"anchor","geometry":{"type":"Point","coordinates":[30.371935862970275,60.007698901810357]},"properties":{"unit_id":"97568a95-4824-47af-b7be-6283a7e22dd2","address_id":"a867ab63-7dcc-44e8-8f98-6f917f33aecd"}},{"id":"bdbeddaf-d612-4a3f-a256-94c25d7bd431","type":"Feature","feature_type":"anchor","geometry":{"type":"Point","coordinates":[30.371393533509679,60.007617166410753]},"properties":{"unit_id":"6f52ee3c-6f70-4513-b02d-5da0fbbae6b4","address_id":"17c13646-dcbd-447b-94d2-a70f41b16022"}},{"id":"6ae3ec2b-5584-401f-a135-c67e4e2e1ca3","type":"Feature","feature_type":"anchor","geometry":{"type":"Point","coordinates":[30.374466541717172,60.0070915471431]},"properties":{"unit_id":"fb0900d6-bf36-4cc2-b637-39db9bb07f27","address_id":"58c3e06b-9f4a-4f5f-9457-456229a60dc1"}},{"id":"66ca212d-347b-4537-8da4-a44011b5251e","type":"Feature","feature_type":"anchor","geometry":{"type":"Point","coordinates":[30.374402714589593,60.007102464536032]},"properties":{"unit_id":"fdca3fa3-8a49-45d3-85a2-1b5cc2c5943b","address_id":"f15a1a84-e831-427c-97d9-dc6fc381c725"}},{"id":"f0cf4be5-4d53-4e5c-9f54-093b4cb8b2a0","type":"Feature","feature_type":"anchor","geometry":{"type":"Point","coordinates":[30.374338887303697,60.007113381928974]},"properties":{"unit_id":"896f743a-fa70-47e1-a9c2-d9cbbbc023a8","address_id":"14f770d9-fdf9-4882-a229-cac02ae12e58"}},{"id":"ce8e8492-1c67-4b73-b48b-8a0c4fcc96fc","type":"Feature","feature_type":"anchor","geometry":{"type":"Point","coordinates":[30.373513385905095,60.007254579643785]},"properties":{"unit_id":"6030033a-4dd7-4c52-a982-e5080b6e3314","address_id":"b34cdf68-596a-46d7-8c89-e1ae13aaf988"}},{"id":"9e625a18-297b-4f56-9ed5-0b74346ceb6f","type":"Feature","feature_type":"anchor","geometry":{"type":"Point","coordinates":[30.373449558600125,60.007265497036727]},"properties":{"unit_id":"1b2011eb-a2c1-44b7-a772-9b93c728f335","address_id":"5bb67ea2-98be-4b43-bf39-ba5f671fbcc8"}},{"id":"f8401005-bded-4743-8a75-d9369a5e0cd7","type":"Feature","feature_type":"anchor","geometry":{"type":"Point","coordinates":[30.374147404907855,60.007146133833338]},"properties":{"unit_id":"a6b49269-908c-4bc2-966e-3c24ab52914c","address_id":"03719ed9-d5f4-4ec6-a2f0-0c61ba1c199b"}},{"id":"f057fd9f-b29f-499d-8d31-7bd09b94c866","type":"Feature","feature_type":"anchor","geometry":{"type":"Point","coordinates":[30.374083577949424,60.00715705122628]},"properties":{"unit_id":"7f781bb4-7d17-483a-ba28-2915fe218aca","address_id":"e09ef749-c797-4605-8466-9dc3d92ed940"}},{"id":"00eecc07-493a-4b60-9577-4154523469c4","type":"Feature","feature_type":"anchor","geometry":{"type":"Point","coordinates":[30.372525673187923,60.00742352162699]},"properties":{"unit_id":"17d95d42-4553-44e8-b848-e4aafdd41d10","address_id":"fb3f058d-d58d-41e8-b7d3-4b1fb6b479bc"}},{"id":"d778ba1b-f173-4fae-a511-9a828a7de647","type":"Feature","feature_type":"anchor","geometry":{"type":"Point","coordinates":[30.372461845694154,60.007434439019924]},"properties":{"unit_id":"c8d290db-77bc-4205-9c35-5a7f75d34771","address_id":"f8217135-775f-46f4-904e-f59d7a4ff3a5"}},{"id":"e37f9820-d137-46f9-9e7a-115381e1af61","type":"Feature","feature_type":"anchor","geometry":{"type":"Point","coordinates":[30.372398017355831,60.007445356412866]},"properties":{"unit_id":"abf18813-0de8-48af-b8e0-72176b39cb24","address_id":"49072d1a-df86-4119-9fa8-89bdeb12dad1"}},{"id":"70f6e11f-5552-49eb-9962-e72463c76182","type":"Feature","feature_type":"anchor","geometry":{"type":"Point","coordinates":[30.372334189545427,60.007456273805808]},"properties":{"unit_id":"27325e42-b5bf-4bf3-ada5-91dad0ff72d7","address_id":"d6562683-4f1b-467e-b94d-2d3af13b56fd"}},{"id":"9ad874a5-5689-4871-af5c-41fe33781cb3","type":"Feature","feature_type":"anchor","geometry":{"type":"Point","coordinates":[30.372270361713969,60.007467190924295]},"properties":{"unit_id":"3b2734a5-d481-4f73-9f35-df35c17a8c7b","address_id":"beaaa39a-c199-418b-8d12-028509673587"}},{"id":"b11ac4a1-5eb8-406d-8845-7a046a17aec8","type":"Feature","feature_type":"anchor","geometry":{"type":"Point","coordinates":[30.372206533586919,60.007478108591684]},"properties":{"unit_id":"0bcefb9b-ee7f-4d5d-a49c-3a458dbe42fd","address_id":"854ab58b-2b28-4299-98fb-07ccbeda03bf"}},{"id":"5c7ae5e7-2729-4ae7-9256-bf8345ce5abf","type":"Feature","feature_type":"anchor","geometry":{"type":"Point","coordinates":[30.372142705713305,60.007489025984626]},"properties":{"unit_id":"36cb2a11-1dce-4f56-9a08-d1e42c197c1e","address_id":"caf9b545-e31e-4fd3-8c3e-4cd0a3a39fbb"}},{"id":"796cf5ba-dfcd-4333-a5e6-c2a8455454ad","type":"Feature","feature_type":"anchor","geometry":{"type":"Point","coordinates":[30.371487148043204,60.007601154380815]},"properties":{"unit_id":"43b551ab-900e-4c46-8530-c285d521d908","address_id":"a5aa8946-d320-4d75-9d8a-22b6bdc704f0"}},{"id":"e8b245f0-cb98-4557-bf37-1d05677b6dbe","type":"Feature","feature_type":"anchor","geometry":{"type":"Point","coordinates":[30.371580763080395,60.007585142350884]},"properties":{"unit_id":"b31624f6-41aa-4145-97d2-8c82d32efcee","address_id":"9bd39a59-a2de-4de6-b273-1e900ff065fc"}},{"id":"f64769bd-e3d8-496e-b8c2-d11edd974312","type":"Feature","feature_type":"anchor","geometry":{"type":"Point","coordinates":[30.371644590865028,60.007574224683488]},"properties":{"unit_id":"1fc40c15-6d1e-4002-9d8b-b58d694ab673","address_id":"a5746ef4-44f5-4025-8901-959fa334f023"}},{"id":"f97d4a77-a002-469e-959d-87ca7cadad9d","type":"Feature","feature_type":"anchor","geometry":{"type":"Point","coordinates":[30.371708418903054,60.007563307565]},"properties":{"unit_id":"12bf2730-8883-4089-8e02-cdfc3c572ac7","address_id":"6c516d5a-7594-4e0c-a038-64f8c2ef6126"}},{"id":"2dc15cba-60d3-4c91-bcda-83217e29ec85","type":"Feature","feature_type":"anchor","geometry":{"type":"Point","coordinates":[30.371772246920024,60.007552390172066]},"properties":{"unit_id":"b82bbf04-0a53-4edd-a441-456df7903e93","address_id":"920e54b8-4c54-4c71-b715-4ed3efb602ef"}}]}